_id,internet,gas,washing_machine,air_conditioner,refrigerator,elevator,microwave,breakfast,toilet,heating,parking,station,move_in_date,sink,type,smoke,pet,clean,daytime,nighttime,extrovert,introvert,cold,hot,no_touch,home_no,host_name,host_age,host_phone,host_gender,guardian_name,guardian_phone,relation,host_register_no,host_account_no,host_bank,address,rent,lat,lng,role,introduce,host_personality_no,home_option_no,si,sgg,emd,ro,home_image_no,home_image[0].home_no,home_image[1].home_no,home_image[2].home_no,home_image[0].home_image_no,home_image[1].home_image_no,home_image[2].home_image_no,home_image[0].home_image_url,home_image[1].home_image_url,home_image[2].home_image_url,host_image_no,host_image_url,host_vector.day_element,host_vector.night_element,host_vector.smoke_element,host_vector.extro_element,host_vector.intro_element,host_vector.mannered_element,host_vector.pet_lover_element,host_vector.cold_element,host_vector.hot_element
66060c61f5b1b2da474efa5a,1,1,1,1,1,1,1,0,1,0,0,1,1,1,OR,0,0,0,0,0,0,1,0,0,0,1,조수빈,98,01051348378,F,김윤서,01049784429,자녀,490518-2354812,xx-xxxxx-xxx,기업,서울 성동구 성수동1가 7-3,70,37.548342,127.046468,MEMBER,"뚝섬역 도보 3분, 컨디션 좋은 풀옵션 원룸",1,1,서울,성동구,empty,왕십리로14길 28,1,1,1,1,1,2,3,/homeImage/1/01.jpg,/homeImage/1/02.jpg,/homeImage/1/03.jpg,1,/hostImage/1.jpg,0,0,0,0,1,0,0,0,0
66060c61f5b1b2da474efa5b,1,1,1,1,1,1,1,1,1,0,1,0,1,1,VL,1,1,0,0,0,1,0,1,0,1,2,노재호,72,01012561464,F,박영길,01081271159,자녀,460221-1722774,xx-xxxxx-xxx,카카오,서울 성동구 응봉동 265-96,35,37.552341,127.029985,MEMBER,올수리 깨끗함,2,2,서울,성동구,empty,독서당로59가길 27,2,2,2,2,4,5,6,/homeImage/2/01.jpg,/homeImage/2/02.jpg,/homeImage/2/03.jpg,2,/hostImage/2.jpg,0,0,1,1,0,1,1,1,0
66060c61f5b1b2da474efa5c,1,1,1,1,1,1,1,0,1,0,0,1,1,1,OR,1,1,1,0,1,1,0,0,0,1,3,최민재,80,01037921306,F,최현정,01014439559,자녀,520102-1787202,xx-xxxxx-xxx,우체국,서울 성동구 용답동 24-13,50,37.561471,127.054653,MEMBER,풀옵션의 깔끔한 분리형 원룸 더블 역세권으로 교통편리,3,3,서울,성동구,empty,용답25길 4,3,3,3,3,7,8,9,/homeImage/3/01.jpg,/homeImage/3/02.jpg,/homeImage/3/03.jpg,3,/hostImage/3.jpg,0,1,1,1,0,2,1,0,0
66060c61f5b1b2da474efa5d,1,1,1,1,1,1,1,0,1,0,0,1,1,1,OR,0,0,1,1,1,1,1,0,1,1,4,김승민,69,01086474100,M,오도윤,01021999773,자녀,060011-2412800,xx-xxxxx-xxx,씨티,서울 성동구 용답동 24-13,25,37.561471,127.054653,UNAUTHORIZED_MEMBER,풀옵션의 깔끔한 분리형 원룸 더블 역세권으로 교통편리,4,4,서울,성동구,empty,용답25길 4,4,4,4,4,10,11,12,/homeImage/4/01.jpg,/homeImage/4/02.jpg,/homeImage/4/03.jpg,4,/hostImage/4.jpg,1,1,0,1,1,2,0,0,1
66060c61f5b1b2da474efa5e,1,1,1,1,1,1,1,0,1,0,1,0,1,1,DDDGG,1,0,0,1,1,0,1,0,1,0,5,김현숙,96,01008542180,F,송예준,01065324087,자녀,450102-1097407,xx-xxxxx-xxx,국민,서울 성동구 성수동2가 566-27,60,37.537809,127.055521,MEMBER,투룸. 풀옵션. 수리된. 컨디션우수,5,5,서울,성동구,empty,성덕정17길 4,5,5,5,5,13,14,15,/homeImage/5/01.jpg,/homeImage/5/02.jpg,/homeImage/5/03.jpg,5,/hostImage/5.jpg,1,1,1,0,1,0,0,0,1
66060c61f5b1b2da474efa5f,1,1,1,1,1,1,1,0,1,0,0,1,1,1,DDDGG,0,0,0,1,1,0,0,0,0,1,6,김영호,67,01094899558,F,서중수,01097407435,자녀,040810-1793398,xx-xxxxx-xxx,케이,서울 성동구 성수동2가 301-27,60,37.544543,127.050563,UNAUTHORIZED_MEMBER,"내부컨디션 깔끔한 분리형 원룸, 풀옵션",6,6,서울,성동구,성수동2가,empty,6,6,6,6,16,17,18,/homeImage/6/01.jpg,/homeImage/6/02.jpg,/homeImage/6/03.jpg,6,/hostImage/6.jpg,1,1,0,0,0,1,0,0,0
66060c61f5b1b2da474efa60,1,1,1,1,1,1,1,0,1,0,0,1,1,1,DDDGG,1,0,0,0,0,1,0,0,0,1,7,김광수,89,01053626303,M,이정자,01074851281,자녀,010721-1766350,xx-xxxxx-xxx,제주,서울 성동구 성수동1가 7-3,70,37.548342,127.046468,MEMBER,뚝섬역 초역세권 분리형 원룸 풀옵션,7,7,서울,성동구,empty,왕십리로14길 28,7,7,7,7,19,20,21,/homeImage/7/01.jpg,/homeImage/7/02.jpg,/homeImage/7/03.jpg,7,/hostImage/7.jpg,0,0,1,1,0,1,0,0,0
66060c61f5b1b2da474efa61,1,1,1,1,1,1,1,0,1,0,0,1,1,1,DDDGG,1,1,1,1,1,0,0,0,0,1,8,김영철,69,01068556148,F,김영순,01098042583,자녀,150520-2239906,xx-xxxxx-xxx,광주,서울 성동구 성수동1가 656-342,55,37.551234,127.045418,UNAUTHORIZED_MEMBER,"뚝섬역7분거리, 3층, 오픈형원룸, 풀옵션,4월14일이후,직장인,한양대생",8,8,서울,성동구,성수동1가,empty,8,8,8,8,22,23,24,/homeImage/8/01.jpg,/homeImage/8/02.jpg,/homeImage/8/03.jpg,8,/hostImage/8.jpg,1,1,1,0,0,2,1,0,0
66060c61f5b1b2da474efa62,1,1,1,1,1,1,1,0,1,0,1,1,1,1,OR,1,1,1,1,1,0,0,0,0,0,9,진상호,96,01070845397,F,한보람,01062912307,자녀,150504-1989428,xx-xxxxx-xxx,제주,서울 성동구 성수동1가 656-1010,70,37.542166,127.047105,MEMBER,서울숲 맞은편 새촌 저렴한 월세 분당선 이용편리 더블역세권,9,9,서울,성동구,empty,성수일로1길 16,9,9,9,9,25,26,27,/homeImage/9/01.jpg,/homeImage/9/02.jpg,/homeImage/9/03.jpg,9,/hostImage/9.jpg,1,1,1,0,0,1,1,0,0
66060c61f5b1b2da474efa63,1,1,1,1,1,1,1,0,1,0,0,1,1,1,DDDGG,0,1,1,0,0,0,1,1,0,0,10,장지영,67,01081365324,M,양정식,01085423107,자녀,540908-2898334,xx-xxxxx-xxx,산업,서울 성동구 성수동1가 656-827,55,37.548281,127.046287,UNAUTHORIZED_MEMBER,"뚝섬역 초역세권, 수리되어 깨끗한집, 방2개, 도배장판완료",10,10,서울,성동구,empty,왕십리로14길 26,10,10,10,10,28,29,30,/homeImage/10/01.jpg,/homeImage/10/02.jpg,/homeImage/10/03.jpg,10,/hostImage/10.jpg,0,0,0,0,1,1,1,1,0
66060c61f5b1b2da474efa64,1,1,1,1,1,1,1,0,1,0,0,1,1,1,DDDGG,0,1,1,0,1,0,0,1,0,0,11,조종수,71,01042610497,M,한경희,01033763018,자녀,550616-2770040,xx-xxxxx-xxx,전북,서울 성동구 성수동1가 656-342,55,37.551234,127.045418,MEMBER,내부 넓고 깨끗한 풀옵션 원룸,11,11,서울,성동구,성수동1가,empty,11,11,11,11,31,32,33,/homeImage/11/01.jpg,/homeImage/11/02.jpg,/homeImage/11/03.jpg,11,/hostImage/11.jpg,0,1,0,0,0,1,1,1,0
66060c61f5b1b2da474efa65,1,1,1,1,1,1,1,0,1,0,0,0,1,1,OR,1,1,1,0,0,0,0,0,0,0,12,김진호,97,01011284634,M,김민석,01013820850,자녀,990305-1670094,xx-xxxxx-xxx,우리,서울 성동구 성수동2가 396,50,37.536861,127.050765,UNAUTHORIZED_MEMBER,"성수동 저렴한 월세, 넓직한 원룸, 주방 분리형 원룸",12,12,서울,성동구,empty,둘레9길 10,12,12,12,12,34,35,36,/homeImage/12/01.jpg,/homeImage/12/02.jpg,/homeImage/12/03.jpg,12,/hostImage/12.jpg,0,0,1,0,0,1,1,0,0
66060c61f5b1b2da474efa66,1,1,1,1,1,1,1,0,1,0,0,1,1,1,OR,1,0,1,0,0,1,0,0,1,1,13,한은주,66,01061522363,M,김미정,01072127083,자녀,420614-1835059,xx-xxxxx-xxx,제주,서울 성동구 성수동1가 656-342,55,37.551234,127.045418,UNAUTHORIZED_MEMBER,내부 넓고 깨끗한 풀옵션 원룸 밝은 집,13,13,서울,성동구,성수동1가,empty,13,13,13,13,37,38,39,/homeImage/13/01.jpg,/homeImage/13/02.jpg,/homeImage/13/03.jpg,13,/hostImage/13.jpg,0,0,1,1,0,2,0,0,1
66060c61f5b1b2da474efa67,1,1,1,1,1,1,1,0,1,0,0,1,1,1,OR,1,1,1,0,0,0,1,0,0,0,14,심영진,95,01098763762,F,김영자,01014627811,자녀,160101-2601596,xx-xxxxx-xxx,수협,서울 성동구 마장동 388-25,60,37.562444,127.042052,MEMBER,채광되는 미니멀 투룸,14,14,서울,성동구,empty,마조로12길 1,14,14,14,14,40,41,42,/homeImage/14/01.jpg,/homeImage/14/02.jpg,/homeImage/14/03.jpg,14,/hostImage/14.jpg,0,0,1,0,1,1,1,0,0
66060c61f5b1b2da474efa68,1,1,1,1,1,1,1,1,1,0,1,0,1,1,VL,1,1,0,1,0,0,1,0,0,1,15,최영미,99,01084549478,F,박채원,01025986261,자녀,040605-2076791,xx-xxxxx-xxx,국민,서울 성동구 응봉동 265-96,35,37.552341,127.029985,UNAUTHORIZED_MEMBER,올수리 깨끗,15,15,서울,성동구,empty,독서당로59가길 27,15,15,15,15,43,44,45,/homeImage/15/01.jpg,/homeImage/15/02.jpg,/homeImage/15/03.jpg,15,/hostImage/15.jpg,1,0,1,0,1,1,1,0,0
66060c61f5b1b2da474efa69,1,1,1,1,1,1,1,0,1,0,0,0,1,1,OR,0,1,0,0,0,1,0,1,1,1,16,박재현,73,01055768923,M,박중수,01080812060,자녀,750418-1554478,xx-xxxxx-xxx,대구,서울 성동구 성수동2가 576-2,55,37.536906,127.055638,UNAUTHORIZED_MEMBER,"사진O 성수동 엘베O 풀옵션 원룸형,실5",16,16,서울,성동구,empty,둘레15길 24,16,16,16,16,46,47,48,/homeImage/16/01.jpg,/homeImage/16/02.jpg,/homeImage/16/03.jpg,16,/hostImage/16.jpg,0,0,0,1,0,1,1,1,1
66060c61f5b1b2da474efa6a,1,1,1,1,1,1,1,1,1,0,0,1,1,1,DDDGG,0,0,0,0,1,0,0,1,1,0,17,박수민,91,01014299476,M,윤경수,01050837588,자녀,550200-2163614,xx-xxxxx-xxx,신한,서울 성동구 행당동 70-23,55,37.556268,127.041601,UNAUTHORIZED_MEMBER,"한양대정문 도보 3분, 리모델링 컨디션 좋음, 주택가 위치 조용합니다.",17,17,서울,성동구,empty,살곶이4길 8,17,17,17,17,49,50,51,/homeImage/17/01.jpg,/homeImage/17/02.jpg,/homeImage/17/03.jpg,17,/hostImage/17.jpg,0,1,0,0,0,0,0,1,1
66060c61f5b1b2da474efa6b,1,1,1,1,1,1,1,1,1,0,0,1,1,1,OR,1,1,0,1,0,0,0,0,0,1,18,김민서,93,01044055174,M,이서현,01092303717,자녀,320001-1018758,xx-xxxxx-xxx,전북,서울 성동구 행당동 20-17,45,37.558331,127.040211,MEMBER,왕십리역 역세권 한양대인접 풀옵션원룸 즉시입주,18,18,서울,성동구,empty,마조로1길 2,18,18,18,18,52,53,54,/homeImage/18/01.jpg,/homeImage/18/02.jpg,/homeImage/18/03.jpg,18,/hostImage/18.jpg,1,0,1,0,0,1,1,0,0
66060c61f5b1b2da474efa6c,1,1,1,1,1,1,1,0,1,0,0,0,1,1,DDDGG,0,0,1,0,0,0,1,0,0,0,19,이도현,83,01006687428,F,윤영숙,01047418386,자녀,420916-1959652,xx-xxxxx-xxx,제주,서울 성동구 성수동2가 566-27,60,37.537809,127.055521,MEMBER,즉시입주. 수리된 2룸 월세,19,19,서울,성동구,empty,성덕정17길 4,19,19,19,19,55,56,57,/homeImage/19/01.jpg,/homeImage/19/02.jpg,/homeImage/19/03.jpg,19,/hostImage/19.jpg,0,0,0,0,1,1,0,0,0
66060c61f5b1b2da474efa6d,1,1,1,1,1,1,1,1,1,0,0,1,1,1,OR,1,1,0,0,0,0,1,1,1,1,20,고미영,66,01011740557,F,박현정,01013844325,자녀,920800-1135291,xx-xxxxx-xxx,경남,서울 성동구 마장동 797-7,35,37.563771,127.039048,MEMBER,왕십리역 도보5분거리 조용한 원룸입니다.,20,20,서울,성동구,empty,마조로15길 24,20,20,20,20,58,59,60,/homeImage/20/01.jpg,/homeImage/20/02.jpg,/homeImage/20/03.jpg,20,/hostImage/20.jpg,0,0,1,0,1,1,1,1,1
66060c61f5b1b2da474efa6e,1,1,1,1,1,1,1,1,1,0,0,1,1,1,OPST,0,1,0,0,0,0,1,0,1,1,21,이건우,71,01090371162,F,이현주,01084168455,자녀,030011-1568751,xx-xxxxx-xxx,카카오,서울 성동구 마장동 777-3,60,37.567407,127.045813,UNAUTHORIZED_MEMBER,대로변 초역세권 복층 오피스텔,21,21,서울,성동구,empty,마장로46길 4,21,21,21,21,61,62,63,/homeImage/21/01.jpg,/homeImage/21/02.jpg,/homeImage/21/03.jpg,21,/hostImage/21.jpg,0,0,0,0,1,1,1,0,1
66060c61f5b1b2da474efa6f,1,1,1,1,1,1,1,0,1,0,1,1,1,1,OR,1,1,0,0,1,1,0,1,1,1,22,김영진,92,01020704037,F,류준영,01097376552,자녀,780020-2242054,xx-xxxxx-xxx,대구,서울 성동구 하왕십리동 956-2,66,37.563635,127.030671,MEMBER,5월입주 대로변 엘베O 고층뷰 전입x 레지던스,22,22,서울,성동구,empty,왕십리로 353,22,22,22,22,64,65,66,/homeImage/22/01.jpg,/homeImage/22/02.jpg,/homeImage/22/03.jpg,22,/hostImage/22.jpg,0,1,1,1,0,1,1,1,1
66060c61f5b1b2da474efa70,1,1,1,1,1,1,1,1,1,0,0,1,1,1,OR,1,0,0,0,0,1,1,1,1,0,23,강서영,77,01017436881,M,김예은,01017898246,자녀,780828-2341417,xx-xxxxx-xxx,토스,서울 성동구 홍익동 398-6,55,37.565557,127.030744,UNAUTHORIZED_MEMBER,상왕십리역 인근 풀옵션 원룸,23,23,서울,성동구,empty,왕십리로30길 13,23,23,23,23,67,68,69,/homeImage/23/01.jpg,/homeImage/23/02.jpg,/homeImage/23/03.jpg,23,/hostImage/23.jpg,0,0,1,1,1,0,0,1,1
66060c61f5b1b2da474efa71,1,1,1,1,1,1,1,0,1,0,1,0,1,1,DDDGG,0,1,0,0,0,0,0,1,1,1,24,노영진,80,01057583219,F,서영숙,01037242057,자녀,520023-2935766,xx-xxxxx-xxx,농협,서울 성동구 마장동 559-6,50,37.567735,127.035215,UNAUTHORIZED_MEMBER,거실도있는 분리형원룸 풀옵션 저렴한월세,24,24,서울,성동구,empty,청계천로12나길 4,24,24,24,24,70,71,72,/homeImage/24/01.jpg,/homeImage/24/02.jpg,/homeImage/24/03.jpg,24,/hostImage/24.jpg,0,0,0,0,0,1,1,1,1
66060c61f5b1b2da474efa72,1,1,1,1,1,1,1,1,1,0,1,1,1,1,DDDGG,1,1,1,1,0,1,0,0,1,1,25,이현우,67,01071833159,F,류성민,01004488373,자녀,770625-2283105,xx-xxxxx-xxx,수협,서울 성동구 홍익동 398-6,70,37.565557,127.030744,MEMBER,즉시입주 가능한 전용넓은 원룸입니다,25,25,서울,성동구,empty,왕십리로30길 13,25,25,25,25,73,74,75,/homeImage/25/01.jpg,/homeImage/25/02.jpg,/homeImage/25/03.jpg,25,/hostImage/25.jpg,1,0,1,1,0,2,1,0,1
66060c61f5b1b2da474efa73,1,1,1,1,1,1,1,0,1,0,0,1,1,1,DDDGG,0,1,0,0,0,0,0,1,0,0,26,이현준,81,01015783271,M,안상현,01043580574,자녀,860207-2248336,xx-xxxxx-xxx,카카오,서울 성동구 마장동 797-74,50,37.563896,127.039992,MEMBER,"왕십리역세권, 조용한 주택가, 깨끗한 풀옵션 원룸",26,26,서울,성동구,empty,마조로15나길 5,26,26,26,26,76,77,78,/homeImage/26/01.jpg,/homeImage/26/02.jpg,/homeImage/26/03.jpg,26,/hostImage/26.jpg,0,0,0,0,0,0,1,1,0
66060c61f5b1b2da474efa74,0,1,0,0,1,1,1,0,1,0,0,1,0,0,OR,0,0,0,0,1,0,1,1,1,0,27,조명숙,80,01084218272,F,박준영,01069869665,자녀,900120-2325143,xx-xxxxx-xxx,우리,서울 성동구 마장동 797-74,50,37.563896,127.039992,MEMBER,empty,27,27,서울,성동구,empty,마조로15나길 5,27,27,27,27,79,80,81,/homeImage/27/01.jpg,/homeImage/27/02.jpg,/homeImage/27/03.jpg,27,/hostImage/27.jpg,0,1,0,0,1,0,0,1,1
66060c61f5b1b2da474efa75,1,1,1,1,1,1,1,1,1,0,0,1,1,1,OR,1,1,1,0,0,0,0,0,1,1,28,이상호,93,01086425159,F,김영숙,01053801459,자녀,300703-1633242,xx-xxxxx-xxx,제주,서울 성동구 마장동 797-6,35,37.564283,127.040484,UNAUTHORIZED_MEMBER,사이즈 정말좋은 깨끗한 풀옵션,28,28,서울,성동구,empty,마조로15나길 9,28,28,28,28,82,83,84,/homeImage/28/01.jpg,/homeImage/28/02.jpg,/homeImage/28/03.jpg,28,/hostImage/28.jpg,0,0,1,0,0,2,1,0,1
66060c61f5b1b2da474efa76,1,1,1,1,1,1,1,1,1,0,0,1,1,1,OR,1,1,0,0,0,0,1,1,1,0,29,최성수,76,01097852592,F,이정식,01023269511,자녀,920210-1970147,xx-xxxxx-xxx,경남,서울 성동구 마장동 797-29,50,37.564646,127.038897,UNAUTHORIZED_MEMBER,즉시입주가능한 풀옵션,29,29,서울,성동구,empty,마조로19길 21,29,29,29,29,85,86,87,/homeImage/29/01.jpg,/homeImage/29/02.jpg,/homeImage/29/03.jpg,29,/hostImage/29.jpg,0,0,1,0,1,0,1,1,1
66060c61f5b1b2da474efa77,1,1,1,1,1,1,1,1,1,0,0,0,1,1,OR,0,1,0,1,0,0,1,1,0,0,30,한영호,98,01024099367,M,이하윤,01074911516,자녀,720622-1717526,xx-xxxxx-xxx,산업,서울 성동구 마장동 566-34,60,37.566629,127.034902,MEMBER,도선사거리 인접 컨디션좋은 풀옵션원룸 즉시입주,30,30,서울,성동구,empty,마장로27길 2,30,30,30,30,88,89,90,/homeImage/30/01.jpg,/homeImage/30/02.jpg,/homeImage/30/03.jpg,30,/hostImage/30.jpg,1,0,0,0,1,0,1,1,0
66060c61f5b1b2da474efa78,1,1,1,1,1,1,1,1,1,0,1,0,1,1,APT,1,1,0,1,1,1,0,0,0,1,31,류승민,94,01039520613,M,김미영,01077838195,자녀,450420-2785142,xx-xxxxx-xxx,국민,서울 성동구 하왕십리동 258,45,37.568214,127.031981,UNAUTHORIZED_MEMBER,방2개 월세  화장실단독사용 여성분만가능 주차가능,31,31,서울,성동구,empty,무학로 50,31,31,31,31,91,92,93,/homeImage/31/01.jpg,/homeImage/31/02.jpg,/homeImage/31/03.jpg,31,/hostImage/31.jpg,1,1,1,1,0,1,1,0,0
66060c61f5b1b2da474efa79,1,1,1,1,1,1,1,1,1,0,1,1,1,1,OR,1,0,0,0,1,1,1,1,1,0,32,홍건우,76,01039201798,F,이민지,01013502934,자녀,110409-2409128,xx-xxxxx-xxx,산업,서울 성동구 홍익동 398-6,55,37.565557,127.030744,MEMBER,즉시입주가능 저렴한 오픈형 풀옵션,32,32,서울,성동구,empty,왕십리로30길 13,32,32,32,32,94,95,96,/homeImage/32/01.jpg,/homeImage/32/02.jpg,/homeImage/32/03.jpg,32,/hostImage/32.jpg,0,1,1,1,1,0,0,1,1
66060c61f5b1b2da474efa7a,1,1,1,1,1,1,1,0,1,0,1,0,1,1,OR,0,1,0,1,0,1,0,0,0,1,33,이성진,88,01099386872,M,김현지,01027798731,자녀,300327-2373680,xx-xxxxx-xxx,대구,서울 성동구 마장동 382-30,25,37.563012,127.044494,MEMBER,통풍 잘 되고 햇빛이 잘 들어 쾌적한 2층 원룸,33,33,서울,성동구,empty,살곶이2가길 76,33,33,33,33,97,98,99,/homeImage/33/01.jpg,/homeImage/33/02.jpg,/homeImage/33/03.jpg,33,/hostImage/33.jpg,1,0,0,1,0,1,1,0,0
66060c61f5b1b2da474efa7b,1,1,1,1,1,1,1,0,1,0,0,0,1,1,DDDGG,0,0,0,0,1,0,0,0,0,0,34,곽성민,99,01089006722,M,양하윤,01020695614,자녀,370327-1857643,xx-xxxxx-xxx,제주,서울 성동구 마장동 556,40,37.567885,127.035843,UNAUTHORIZED_MEMBER,2층 방1칸 분리형 원룸 옵션x,34,34,서울,성동구,empty,마장로29길 29,34,34,34,34,100,101,102,/homeImage/34/01.jpg,/homeImage/34/02.jpg,/homeImage/34/03.jpg,34,/hostImage/34.jpg,0,1,0,0,0,0,0,0,0
66060c61f5b1b2da474efa7c,1,1,1,1,1,1,1,0,1,0,0,1,1,1,OR,1,0,0,1,0,0,0,0,0,1,35,김진우,77,01078186360,M,김미영,01039961541,자녀,370619-1020900,xx-xxxxx-xxx,농협,서울 성동구 하왕십리동 955-1,30,37.563538,127.030482,MEMBER,풀옵션 원룸,35,35,서울,성동구,empty,무학봉15길 26,35,35,35,35,103,104,105,/homeImage/35/01.jpg,/homeImage/35/02.jpg,/homeImage/35/03.jpg,35,/hostImage/35.jpg,1,0,1,0,0,1,0,0,0
66060c61f5b1b2da474efa7d,1,1,1,1,1,1,1,1,1,0,1,1,1,1,OPST,1,1,0,1,0,1,0,1,1,0,36,최상호,91,01007185298,F,김시우,01010994625,자녀,800300-1513292,xx-xxxxx-xxx,산업,서울 성동구 행당동 192-29,70,37.565189,127.03674,UNAUTHORIZED_MEMBER,왕십리초역세권 도보3분 성동구청 바로옆 빠른 입주협의,36,36,서울,성동구,empty,고산자로 284,36,36,36,36,106,107,108,/homeImage/36/01.jpg,/homeImage/36/02.jpg,/homeImage/36/03.jpg,36,/hostImage/36.jpg,1,0,1,1,0,0,1,1,1
66060c61f5b1b2da474efa7e,1,1,1,1,1,1,1,1,1,0,0,1,1,1,OR,0,0,1,0,1,0,1,0,1,0,37,김경수,69,01075566404,M,강옥자,01043049532,자녀,530711-1274622,xx-xxxxx-xxx,농협,서울 성동구 마장동 800-1,65,37.563626,127.040083,MEMBER,왕십리역 역세권 넓고 채광좋은 풀옵션원룸,37,37,서울,성동구,empty,마조로15길 13,37,37,37,37,109,110,111,/homeImage/37/01.jpg,/homeImage/37/02.jpg,/homeImage/37/03.jpg,37,/hostImage/37.jpg,0,1,0,0,1,1,0,0,1
66060c61f5b1b2da474efa7f,1,1,1,1,1,1,1,1,1,0,0,1,1,1,OR,1,0,1,1,1,0,0,0,0,1,38,민성수,94,01054212736,M,손영수,01025783535,자녀,850418-2355763,xx-xxxxx-xxx,씨티,서울 성동구 홍익동 398-6,70,37.565557,127.030744,MEMBER,즉시입주 8P넓은 원룸 풀옵션 남향세대 공동보안,38,38,서울,성동구,empty,왕십리로30길 13,38,38,38,38,112,113,114,/homeImage/38/01.jpg,/homeImage/38/02.jpg,/homeImage/38/03.jpg,38,/hostImage/38.jpg,1,1,1,0,0,2,0,0,0
66060c61f5b1b2da474efa80,1,1,1,1,1,1,1,0,1,0,0,1,1,1,DDDGG,1,0,1,1,1,0,0,0,0,1,39,이현주,79,01076936729,F,이정숙,01039908095,자녀,430729-1312567,xx-xxxxx-xxx,제주,서울 성동구 마장동 777-6,60,37.567531,127.0456,UNAUTHORIZED_MEMBER,"마장역,답십리역5호선 신답역2호석 더블 역세권 원룸 즉시입주",39,39,서울,성동구,empty,마장로 328,39,39,39,39,115,116,117,/homeImage/39/01.jpg,/homeImage/39/02.jpg,/homeImage/39/03.jpg,39,/hostImage/39.jpg,1,1,1,0,0,2,0,0,0
66060c61f5b1b2da474efa81,1,1,1,1,1,1,1,0,1,0,1,0,1,1,DDDGG,0,0,1,1,0,0,0,1,1,1,40,곽영호,69,01028852887,M,김영호,01068423568,자녀,810214-2214737,xx-xxxxx-xxx,우체국,서울 성동구 마장동 444-5,50,37.569326,127.033743,UNAUTHORIZED_MEMBER,도배장판 해드립니다 층간소음없는집,40,40,서울,성동구,empty,청계천로10나길 12,40,40,40,40,118,119,120,/homeImage/40/01.jpg,/homeImage/40/02.jpg,/homeImage/40/03.jpg,40,/hostImage/40.jpg,1,0,0,0,0,2,0,1,1
66060c61f5b1b2da474efa82,1,1,1,1,1,1,1,0,1,0,1,0,1,1,DDDGG,0,0,1,0,0,0,1,0,1,1,41,김서현,80,01061726107,F,이현정,01044895887,자녀,740610-1133408,xx-xxxxx-xxx,광주,서울 성동구 홍익동 268,40,37.565735,127.033513,UNAUTHORIZED_MEMBER,홍익동 넓은 다가구 1.5룸,41,41,서울,성동구,empty,무학로10길 24,41,41,41,41,121,122,123,/homeImage/41/01.jpg,/homeImage/41/02.jpg,/homeImage/41/03.jpg,41,/hostImage/41.jpg,0,0,0,0,1,2,0,0,1
66060c61f5b1b2da474efa83,1,1,1,1,1,1,1,1,1,0,1,1,1,1,OPST,0,1,0,1,0,0,0,0,0,0,42,김예준,98,01077957136,M,김현우,01069766274,자녀,890617-1828656,xx-xxxxx-xxx,토스,서울 성동구 용답동 238-12,63,37.559906,127.069378,UNAUTHORIZED_MEMBER,"중랑천고층뷰,저렴한월세 장한평역서희스타힐스오피스텔",42,42,서울,성동구,용답동,empty,42,42,42,42,124,125,126,/homeImage/42/01.jpg,/homeImage/42/02.jpg,/homeImage/42/03.jpg,42,/hostImage/42.jpg,1,0,0,0,0,0,1,0,0
66060c61f5b1b2da474efa84,1,1,1,1,1,1,1,0,1,0,0,1,1,1,OPST,0,0,0,1,0,0,1,0,0,1,43,고수빈,99,01081808882,M,장성훈,01079011136,자녀,880128-2679743,xx-xxxxx-xxx,씨티,서울 성동구 용답동 233-8,70,37.560731,127.065465,UNAUTHORIZED_MEMBER,장한평역 초역세권 전입 가능한 풀옵션 신축급 오피스텔 부라다,43,43,서울,성동구,empty,자동차시장1길 73,43,43,43,43,127,128,129,/homeImage/43/01.jpg,/homeImage/43/02.jpg,/homeImage/43/03.jpg,43,/hostImage/43.jpg,1,0,0,0,1,1,0,0,0
66060c61f5b1b2da474efa85,1,1,1,1,1,1,1,1,1,0,1,0,1,1,OR,1,0,1,0,0,1,1,1,1,0,44,박경희,95,01018406096,M,홍도현,01040162968,자녀,810819-1846666,xx-xxxxx-xxx,하나,서울 성동구 성수동2가 211-18,30,37.535879,127.059636,MEMBER,"삼정 실5, 깔끔한 1층 원룸",44,44,서울,성동구,성수동2가,empty,44,44,44,44,130,131,132,/homeImage/44/01.jpg,/homeImage/44/02.jpg,/homeImage/44/03.jpg,44,/hostImage/44.jpg,0,0,1,1,1,1,0,1,1
66060c61f5b1b2da474efa86,1,1,1,1,1,1,1,1,1,0,0,0,1,1,OR,1,0,0,0,0,0,1,0,1,1,45,조민지,98,01015854217,M,박민준,01051899413,자녀,150623-1454035,xx-xxxxx-xxx,수협,서울 성동구 송정동 66-127,38,37.548881,127.067075,UNAUTHORIZED_MEMBER,"화양사거리 위치, 즉시입주가능, 풀옵션 반지층 분리형 원룸",45,45,서울,성동구,empty,송정10길 22,45,45,45,45,133,134,135,/homeImage/45/01.jpg,/homeImage/45/02.jpg,/homeImage/45/03.jpg,45,/hostImage/45.jpg,0,0,1,0,1,1,0,0,1
66060c61f5b1b2da474efa87,1,1,1,1,1,1,1,1,1,0,0,1,1,1,DDDGG,1,1,0,0,1,1,0,0,1,1,46,박서윤,90,01098920856,M,한상현,01042361262,자녀,040211-1719433,xx-xxxxx-xxx,산업,서울 마포구 노고산동 12-154,50,37.553671,126.9401,UNAUTHORIZED_MEMBER,"주방분리형원룸, 풀옵션, 신촌역 도보6분, 버스정류장 도보 6분, 이마트",46,46,서울,마포구,empty,고산2길 48,46,46,46,46,136,137,138,/homeImage/46/01.jpg,/homeImage/46/02.jpg,/homeImage/46/03.jpg,46,/hostImage/46.jpg,0,1,1,1,0,1,1,0,1
66060c61f5b1b2da474efa88,1,1,1,1,1,1,1,1,1,0,1,0,1,1,OR,1,0,0,0,1,1,1,0,0,0,47,김은영,93,01048667253,F,이숙자,01001154567,자녀,170912-2063510,xx-xxxxx-xxx,우체국,서울 마포구 연남동 223-98,60,37.565038,126.924926,MEMBER,O 신축급 O 연남동 조용한 주택가 O,47,47,서울,마포구,empty,성미산로 165,47,47,47,47,139,140,141,/homeImage/47/01.jpg,/homeImage/47/02.jpg,/homeImage/47/03.jpg,47,/hostImage/47.jpg,0,1,1,1,1,0,0,0,0
66060c61f5b1b2da474efa89,1,1,1,1,1,1,1,1,1,0,1,0,1,1,OR,1,0,1,0,1,0,1,1,0,1,48,김중수,81,01026995905,F,윤영숙,01061301517,자녀,090822-1868979,xx-xxxxx-xxx,대구,서울 마포구 연남동 223-98,60,37.565038,126.924926,UNAUTHORIZED_MEMBER,가성비 좋은 연남동 수리한 원룸,48,48,서울,마포구,empty,성미산로 165,48,48,48,48,142,143,144,/homeImage/48/01.jpg,/homeImage/48/02.jpg,/homeImage/48/03.jpg,48,/hostImage/48.jpg,0,1,1,0,1,2,0,1,0
66060c61f5b1b2da474efa8a,1,1,1,1,1,1,1,0,1,0,0,0,1,1,OR,1,1,1,0,1,1,1,0,0,1,49,김중수,80,01072932436,M,김주원,01043847714,자녀,120704-1586263,xx-xxxxx-xxx,대구,서울 마포구 연남동 228-4,46,37.563012,126.926085,MEMBER,O 옥탑 옥상단독사용 O 깔끔한 분리형 O 기본옵션 O,49,49,서울,마포구,empty,성미산로 188,49,49,49,49,145,146,147,/homeImage/49/01.jpg,/homeImage/49/02.jpg,/homeImage/49/03.jpg,49,/hostImage/49.jpg,0,1,1,1,1,2,1,0,0
66060c61f5b1b2da474efa8b,1,1,1,1,1,1,1,0,1,0,0,0,1,1,OR,1,0,1,1,1,0,0,1,0,0,50,이우진,100,01095885380,F,김영식,01059552069,자녀,620704-1953877,xx-xxxxx-xxx,제주,서울 광진구 구의동 253-16,55,37.544241,127.084427,UNAUTHORIZED_MEMBER,"풀옵션 원룸, 어린이대공원 인근",50,50,서울,광진구,empty,자양로29길 8,50,50,50,50,148,149,150,/homeImage/50/01.jpg,/homeImage/50/02.jpg,/homeImage/50/03.jpg,50,/hostImage/50.jpg,1,1,1,0,0,1,0,1,0
66060c61f5b1b2da474efa8c,1,1,1,1,1,1,1,0,1,0,0,0,1,1,OR,1,1,1,0,1,1,0,0,0,1,51,윤지아,68,01051865220,F,이시우,01013297480,자녀,680601-1571647,xx-xxxxx-xxx,SC제일,서울 광진구 자양동 772-18,47,37.538407,127.079864,UNAUTHORIZED_MEMBER,핫한월세  풀옵션   월세에모든공과금포함요금  건대생에인기,51,51,서울,광진구,empty,자양로19길 68,51,51,51,51,151,152,153,/homeImage/51/01.jpg,/homeImage/51/02.jpg,/homeImage/51/03.jpg,51,/hostImage/51.jpg,0,1,1,1,0,2,1,0,0
66060c61f5b1b2da474efa8d,1,1,1,1,1,1,1,1,1,0,0,0,1,1,DDDGG,1,0,0,1,1,1,0,0,1,1,52,김은서,100,01020318668,F,문성훈,01024731449,자녀,330325-2078497,xx-xxxxx-xxx,기업,서울 광진구 구의동 231-53,45,37.543875,127.089159,UNAUTHORIZED_MEMBER,깔끔하고 넓은 풀옵션 통원룸,52,52,서울,광진구,empty,자양로32길 70,52,52,52,52,154,155,156,/homeImage/52/01.jpg,/homeImage/52/02.jpg,/homeImage/52/03.jpg,52,/hostImage/52.jpg,1,1,1,1,0,1,0,0,1
66060c61f5b1b2da474efa8e,1,1,1,1,1,1,1,1,1,0,0,1,1,1,DDDGG,1,0,1,0,1,1,0,0,1,1,53,이경희,70,01035902051,F,오춘자,01041202941,자녀,340112-2212997,xx-xxxxx-xxx,부산,서울 광진구 능동 224-40,45,37.555347,127.079824,MEMBER,"군자역 초역세권 원룸, 옥상이용가능",53,53,서울,광진구,empty,능동로34길 12,53,53,53,53,157,158,159,/homeImage/53/01.jpg,/homeImage/53/02.jpg,/homeImage/53/03.jpg,53,/hostImage/53.jpg,0,1,1,1,0,2,0,0,1
66060c61f5b1b2da474efa8f,1,1,1,1,1,1,1,1,1,0,0,1,1,1,OR,1,0,1,1,1,0,0,1,0,1,54,김성민,72,01049462311,M,최영순,01089018617,자녀,900425-2413102,xx-xxxxx-xxx,수협,서울 광진구 능동 221-18,50,37.555768,127.079246,UNAUTHORIZED_MEMBER,"지하철군자역 도보1분 교통편리, 5호선,7호선 출퇴근직장인 적합",54,54,서울,광진구,empty,천호대로110길 30,54,54,54,54,160,161,162,/homeImage/54/01.jpg,/homeImage/54/02.jpg,/homeImage/54/03.jpg,54,/hostImage/54.jpg,1,1,1,0,0,2,0,1,0
66060c61f5b1b2da474efa90,1,1,1,1,1,1,1,1,1,0,0,1,1,1,OR,1,1,0,0,1,0,0,1,0,0,55,김준혁,96,01003975275,F,이은지,01016888993,자녀,570911-1247023,xx-xxxxx-xxx,전북,서울 광진구 구의동 246-8,60,37.537677,127.085115,MEMBER,"리모델링한 신축급 풀옵션 원룸, 구의역 1분",55,55,서울,광진구,empty,자양로18길 26,55,55,55,55,163,164,165,/homeImage/55/01.jpg,/homeImage/55/02.jpg,/homeImage/55/03.jpg,55,/hostImage/55.jpg,0,1,1,0,0,0,1,1,0
66060c61f5b1b2da474efa91,1,1,1,1,1,1,1,0,1,0,0,1,1,1,DDDGG,0,1,0,0,1,0,0,1,0,1,56,구옥자,68,01063917704,F,김정호,01089881678,자녀,890819-1268590,xx-xxxxx-xxx,토스,서울 광진구 자양동 850-5,55,37.537757,127.067473,UNAUTHORIZED_MEMBER,올수리2년차 보증금최소월세 대출없음,56,56,서울,광진구,empty,뚝섬로23길 75,56,56,56,56,166,167,168,/homeImage/56/01.jpg,/homeImage/56/02.jpg,/homeImage/56/03.jpg,56,/hostImage/56.jpg,0,1,0,0,0,1,1,1,0
66060c61f5b1b2da474efa92,1,1,1,1,1,1,1,1,1,0,0,1,1,1,DDDGG,1,0,0,1,1,1,1,1,1,1,57,문경자,100,01027819310,M,김하은,01088552027,자녀,390709-1474263,xx-xxxxx-xxx,SC제일,서울 광진구 자양동 12-13,60,37.539191,127.065127,MEMBER,"옥상 단독 사용, 풀옵션 공간 활용 좋은 원룸",57,57,서울,광진구,empty,동일로18나길 6,57,57,57,57,169,170,171,/homeImage/57/01.jpg,/homeImage/57/02.jpg,/homeImage/57/03.jpg,57,/hostImage/57.jpg,1,1,1,1,1,1,0,1,1
66060c61f5b1b2da474efa93,1,1,1,1,1,1,1,0,1,0,1,0,1,1,OR,0,1,0,0,0,1,0,0,0,1,58,최종수,93,01003263004,M,이명숙,01041895560,자녀,680924-2485419,xx-xxxxx-xxx,부산,서울 광진구 자양동 40-14,30,37.537696,127.064466,UNAUTHORIZED_MEMBER,건대입구역세권 도보8분 깔끔한 풀옵션 원룸,58,58,서울,광진구,empty,동일로10다길 8,58,58,58,58,172,173,174,/homeImage/58/01.jpg,/homeImage/58/02.jpg,/homeImage/58/03.jpg,58,/hostImage/58.jpg,0,0,0,1,0,1,1,0,0
66060c61f5b1b2da474efa94,1,1,1,1,1,1,1,0,1,0,0,1,1,1,OR,0,0,0,0,0,1,0,1,1,1,59,김시우,68,01020759150,M,양중수,01012896938,자녀,640119-2398324,xx-xxxxx-xxx,우리,서울 광진구 구의동 217-10,50,37.538448,127.093432,UNAUTHORIZED_MEMBER,풀옵션 남향 밝고 깨끗 초역세권 즉시입주가능,59,59,서울,광진구,empty,구의강변로 87,59,59,59,59,175,176,177,/homeImage/59/01.jpg,/homeImage/59/02.jpg,/homeImage/59/03.jpg,59,/hostImage/59.jpg,0,0,0,1,0,1,0,1,1
66060c61f5b1b2da474efa95,1,1,1,1,1,1,1,1,1,0,0,0,1,1,DDDGG,0,1,0,1,1,1,0,0,1,0,60,최현우,71,01052792062,M,이민석,01066519416,자녀,040827-2022984,xx-xxxxx-xxx,농협,서울 광진구 중곡동 583-5,29,37.571071,127.080557,MEMBER,중곡동 깔끔한 풀옵션 원룸,60,60,서울,광진구,empty,답십리로74길 11,60,60,60,60,178,179,180,/homeImage/60/01.jpg,/homeImage/60/02.jpg,/homeImage/60/03.jpg,60,/hostImage/60.jpg,1,1,0,1,0,0,1,0,1
66060c61f5b1b2da474efa96,0,0,0,1,0,0,1,0,1,1,1,0,1,0,OR,1,1,0,1,1,1,0,0,0,1,61,김지민,73,01069751388,M,박하은,01005745808,자녀,410101-2418654,xx-xxxxx-xxx,농협,서울 광진구 자양동 605-27,30,37.531167,127.078616,MEMBER,empty,61,61,서울,광진구,empty,자양번영로4길 59,61,61,61,61,181,182,183,/homeImage/61/01.jpg,/homeImage/61/02.jpg,/homeImage/61/03.jpg,61,/hostImage/61.jpg,1,1,1,1,0,1,1,0,0
66060c61f5b1b2da474efa97,1,1,1,1,1,1,1,1,1,0,1,1,1,1,OR,0,0,1,1,0,1,1,0,1,0,62,오종수,73,01059470136,F,박수빈,01052271269,자녀,330724-1844447,xx-xxxxx-xxx,부산,서울 양천구 신정동 928-26,35,37.52506,126.853333,MEMBER,신정역2분 풀옵션 빠른입주가능,62,62,서울,양천구,empty,오목로29길 3,62,62,62,62,184,185,186,/homeImage/62/01.jpg,/homeImage/62/02.jpg,/homeImage/62/03.jpg,62,/hostImage/62.jpg,1,0,0,1,1,1,0,0,1
66060c61f5b1b2da474efa98,1,1,1,1,1,1,1,1,1,0,1,1,1,1,DDDGG,1,1,0,1,1,0,0,1,0,0,63,이보람,68,01077767480,F,이성훈,01002567125,자녀,270513-1418849,xx-xxxxx-xxx,신한,서울 양천구 신월동 503-15,40,37.523038,126.850488,UNAUTHORIZED_MEMBER,"신정네거리역,신정역 풀옵션1.5룸 주차가능 단기임대",63,63,서울,양천구,empty,중앙로49길 11,63,63,63,63,187,188,189,/homeImage/63/01.jpg,/homeImage/63/02.jpg,/homeImage/63/03.jpg,63,/hostImage/63.jpg,1,1,1,0,0,0,1,1,0
66060c61f5b1b2da474efa99,1,1,1,1,1,1,1,0,1,0,1,0,1,1,DDDGG,1,1,1,1,0,1,0,1,1,1,64,김정희,94,01096728624,M,양은지,01061697550,자녀,080125-1999566,xx-xxxxx-xxx,광주,서울 양천구 신월동 575-11,40,37.518012,126.842758,UNAUTHORIZED_MEMBER,"상태깨끗,이사협의,생활편리,교통이용편리",64,64,서울,양천구,empty,남부순환로79길 31,64,64,64,64,190,191,192,/homeImage/64/01.jpg,/homeImage/64/02.jpg,/homeImage/64/03.jpg,64,/hostImage/64.jpg,1,0,1,1,0,2,1,1,1
66060c61f5b1b2da474efa9a,1,1,1,1,1,1,1,0,1,0,0,1,1,1,DDDGG,1,0,1,0,1,1,1,1,0,0,65,최영순,97,01057731363,F,노수진,01073719827,자녀,080917-2546312,xx-xxxxx-xxx,제주,서울 양천구 신정동 1210-12,35,37.519834,126.849902,UNAUTHORIZED_MEMBER,방2화1 지하철도보이용 도배.장판.씽크대 수리함. 방넓고 주방공간있어요,65,65,서울,양천구,empty,중앙로39길 22,65,65,65,65,193,194,195,/homeImage/65/01.jpg,/homeImage/65/02.jpg,/homeImage/65/03.jpg,65,/hostImage/65.jpg,0,1,1,1,1,1,0,1,0
66060c61f5b1b2da474efa9b,1,1,1,1,1,1,1,1,1,0,0,1,1,1,DDDGG,1,1,0,0,0,1,0,1,1,1,66,김정수,97,01035125765,F,이혜진,01013075243,자녀,890023-2717247,xx-xxxxx-xxx,제주,서울 양천구 신정동 1210-12,40,37.519834,126.849902,UNAUTHORIZED_MEMBER,방2화1베1 저렴한지상층 주방공간O 지하철도보이용 연식대비깔끔 언덕위치함,66,66,서울,양천구,empty,중앙로39길 22,66,66,66,66,196,197,198,/homeImage/66/01.jpg,/homeImage/66/02.jpg,/homeImage/66/03.jpg,66,/hostImage/66.jpg,0,0,1,1,0,1,1,1,1
66060c61f5b1b2da474efa9c,1,1,1,1,1,1,1,1,1,0,0,1,1,1,DDDGG,1,1,1,1,1,0,1,0,0,1,67,이현숙,77,01059819806,F,이정희,01074356466,자녀,980808-1781696,xx-xxxxx-xxx,신한,서울 양천구 신정동 1193-5,30,37.52194,126.849647,UNAUTHORIZED_MEMBER,신정네거리역세권. 계단없는 지층. 방1.화1. 상태깨끗해요,67,67,서울,양천구,empty,중앙로45길 28,67,67,67,67,199,200,201,/homeImage/67/01.jpg,/homeImage/67/02.jpg,/homeImage/67/03.jpg,67,/hostImage/67.jpg,1,1,1,0,1,2,1,0,0
66060c61f5b1b2da474efa9d,1,1,1,1,1,1,1,1,1,0,1,1,1,1,DDDGG,1,0,0,0,1,0,0,1,0,0,68,서예지,79,01037459358,M,최재현,01085144894,자녀,500710-1502045,xx-xxxxx-xxx,씨티,서울 양천구 신정동 1193-5,35,37.52194,126.849647,UNAUTHORIZED_MEMBER,계단없음 지층임1층같음 방 주방 크고 깨끗함 즉시입주 신정네거리역5분,68,68,서울,양천구,empty,중앙로45길 28,68,68,68,68,202,203,204,/homeImage/68/01.jpg,/homeImage/68/02.jpg,/homeImage/68/03.jpg,68,/hostImage/68.jpg,0,1,1,0,0,0,0,1,0
66060c61f5b1b2da474efa9e,1,1,1,1,1,1,1,0,1,0,1,1,1,1,DDDGG,0,0,0,1,0,0,0,1,1,0,69,김영진,89,01033076310,F,김서현,01036183639,자녀,230601-2182975,xx-xxxxx-xxx,경남,서울 양천구 신정동 1050-4,35,37.519244,126.854831,MEMBER,"전철3분,신서학군,즉시입주,공원앞",69,69,서울,양천구,empty,중앙로36길 8,69,69,69,69,205,206,207,/homeImage/69/01.jpg,/homeImage/69/02.jpg,/homeImage/69/03.jpg,69,/hostImage/69.jpg,1,0,0,0,0,0,0,1,1
66060c61f5b1b2da474efa9f,1,1,1,1,1,1,1,1,1,0,0,0,1,1,DDDGG,0,1,1,0,1,0,0,1,0,1,70,박준서,94,01048811248,F,박성민,01006015946,자녀,520518-1688824,xx-xxxxx-xxx,부산,서울 양천구 신정동 1029-7,60,37.521049,126.854274,UNAUTHORIZED_MEMBER,올수리 투룸 옥상마당 사용가능 사무실 공방 등 사용가능,70,70,서울,양천구,empty,신월로 300,70,70,70,70,208,209,210,/homeImage/70/01.jpg,/homeImage/70/02.jpg,/homeImage/70/03.jpg,70,/hostImage/70.jpg,0,1,0,0,0,2,1,1,0
66060c61f5b1b2da474efaa0,1,1,1,1,1,1,1,0,1,0,0,1,1,1,DDDGG,0,1,0,1,0,0,0,0,0,0,71,권상호,84,01049157678,F,김영식,01078479886,자녀,710720-2111041,xx-xxxxx-xxx,대구,서울 양천구 신정동 1201-7,35,37.520162,126.850106,UNAUTHORIZED_MEMBER,"깔끔수리 함,즉시입주,전철5분",71,71,서울,양천구,empty,중앙로45길 25,71,71,71,71,211,212,213,/homeImage/71/01.jpg,/homeImage/71/02.jpg,/homeImage/71/03.jpg,71,/hostImage/71.jpg,1,0,0,0,0,0,1,0,0
66060c61f5b1b2da474efaa1,1,1,1,1,1,1,1,1,1,0,0,1,1,1,DDDGG,0,1,1,1,1,0,1,0,0,1,72,진승현,93,01029112467,M,이서현,01099993634,자녀,540508-2299464,xx-xxxxx-xxx,토스,서울 양천구 신정동 1206-10,25,37.519564,126.850667,UNAUTHORIZED_MEMBER,"분리형 원룸, 풀옵션, 옥상 마당 사용 가능한 옥탑",72,72,서울,양천구,empty,중앙로47길 20,72,72,72,72,214,215,216,/homeImage/72/01.jpg,/homeImage/72/02.jpg,/homeImage/72/03.jpg,72,/hostImage/72.jpg,1,1,0,0,1,2,1,0,0
66060c61f5b1b2da474efaa2,1,1,1,1,1,1,1,1,1,0,1,1,1,1,DDDGG,1,1,0,0,0,1,1,1,1,0,73,김지현,77,01061939987,F,남채원,01040351478,자녀,270207-2638225,xx-xxxxx-xxx,대구,서울 양천구 신정동 940-39,40,37.524496,126.851967,MEMBER,역세권 I 대로변 1.5룸 월세 I 설명란 확인,73,73,서울,양천구,empty,오목로 131,73,73,73,73,217,218,219,/homeImage/73/01.jpg,/homeImage/73/02.jpg,/homeImage/73/03.jpg,73,/hostImage/73.jpg,0,0,1,1,1,0,1,1,1
66060c61f5b1b2da474efaa3,1,1,1,1,1,1,1,1,1,0,0,1,1,1,DDDGG,1,0,1,0,0,1,0,1,1,0,74,이채원,86,01095453491,F,김서영,01048641922,자녀,170508-2540760,xx-xxxxx-xxx,광주,서울 양천구 신정동 1210-12,35,37.519834,126.849902,UNAUTHORIZED_MEMBER,"도배장판,싱크대,변기교체. 지하철역인접. 계단없는바닥1층",74,74,서울,양천구,empty,중앙로39길 22,74,74,74,74,220,221,222,/homeImage/74/01.jpg,/homeImage/74/02.jpg,/homeImage/74/03.jpg,74,/hostImage/74.jpg,0,0,1,1,0,1,0,1,1
66060c61f5b1b2da474efaa4,1,1,1,1,1,1,1,1,1,1,1,1,1,1,DDDGG,1,1,1,1,0,1,0,0,1,1,75,이진우,67,01090110634,F,박도현,01090275069,자녀,690015-2687509,xx-xxxxx-xxx,제주,서울 양천구 신정동 1160-6,25,37.517218,126.849807,UNAUTHORIZED_MEMBER,즉시입주가 계단없는 지층 에어컨 가스렌지있음 상태 양호,75,75,서울,양천구,empty,중앙로47길 47,75,75,75,75,223,224,225,/homeImage/75/01.jpg,/homeImage/75/02.jpg,/homeImage/75/03.jpg,75,/hostImage/75.jpg,1,0,1,1,0,2,1,0,1
66060c61f5b1b2da474efaa5,1,1,1,1,1,1,1,0,1,0,1,0,1,1,VL,0,0,1,1,0,1,1,1,0,0,76,이서현,99,01006241141,M,구명숙,01096016093,자녀,250120-2858684,xx-xxxxx-xxx,전북,서울 양천구 신정동 1216-1,40,37.519335,126.848704,MEMBER,보증금 조정가능 진입이 편리하며 거주자 우선주차지역 방 오전만 볼수있음,76,76,서울,양천구,empty,중앙로29길 88,76,76,76,76,226,227,228,/homeImage/76/01.jpg,/homeImage/76/02.jpg,/homeImage/76/03.jpg,76,/hostImage/76.jpg,1,0,0,1,1,1,0,1,0
66060c61f5b1b2da474efaa6,1,1,1,1,1,1,1,1,1,0,0,1,1,1,DDDGG,0,1,1,0,0,1,1,0,0,0,77,이미영,65,01024122832,F,전우진,01095429913,자녀,780913-2731997,xx-xxxxx-xxx,산업,서울 양천구 신정동 1210-12,40,37.519834,126.849902,UNAUTHORIZED_MEMBER,"싱크대,변기,벽지,바닥교체. 지하철역인접.보일러실 넓어요. 1.5층",77,77,서울,양천구,empty,중앙로39길 22,77,77,77,77,229,230,231,/homeImage/77/01.jpg,/homeImage/77/02.jpg,/homeImage/77/03.jpg,77,/hostImage/77.jpg,0,0,0,1,1,1,1,0,0
66060c61f5b1b2da474efaa7,1,1,1,1,1,1,1,0,1,0,0,1,1,1,OR,0,0,0,1,0,1,0,1,0,0,78,류중수,74,01011652250,F,허현숙,01005689895,자녀,730205-2774371,xx-xxxxx-xxx,하나,서울 양천구 목동 526-17,30,37.545565,126.874293,MEMBER,"염창역도보2분,풀옵션",78,78,서울,양천구,empty,목동중앙북로 102,78,78,78,78,232,233,234,/homeImage/78/01.jpg,/homeImage/78/02.jpg,/homeImage/78/03.jpg,78,/hostImage/78.jpg,1,0,0,1,0,0,0,1,0
66060c61f5b1b2da474efaa8,1,1,1,1,1,1,1,0,1,0,0,0,1,1,OR,0,1,0,1,0,1,0,1,0,1,79,우민준,100,01023057492,M,박영희,01098065168,자녀,420414-1320393,xx-xxxxx-xxx,경남,서울 양천구 목동 789-37,30,37.533452,126.865459,MEMBER,목사거리인근 신축급 올수리 여성전용 원룸,79,79,서울,양천구,empty,목동중앙서로3길 20,79,79,79,79,235,236,237,/homeImage/79/01.jpg,/homeImage/79/02.jpg,/homeImage/79/03.jpg,79,/hostImage/79.jpg,1,0,0,1,0,1,1,1,0
66060c61f5b1b2da474efaa9,1,1,1,1,1,1,1,0,1,0,0,1,1,1,OR,0,0,1,0,1,1,1,0,0,0,80,김상현,68,01041981631,M,황동현,01074544414,자녀,620426-2178679,xx-xxxxx-xxx,기업,서울 양천구 목동 526-17,30,37.545565,126.874293,MEMBER,염창역 최저가 풀옵션 관리 잘해서 깔끔한 원룸,80,80,서울,양천구,empty,목동중앙북로 102,80,80,80,80,238,239,240,/homeImage/80/01.jpg,/homeImage/80/02.jpg,/homeImage/80/03.jpg,80,/hostImage/80.jpg,0,1,0,1,1,1,0,0,0
66060c61f5b1b2da474efaaa,1,1,1,1,1,1,1,1,1,0,0,0,1,1,VL,0,1,0,0,1,0,0,0,0,0,81,김영희,87,01027792528,F,이성호,01072951237,자녀,960614-2305561,xx-xxxxx-xxx,경남,서울 양천구 목동 779-16,47,37.534834,126.866647,MEMBER,깔끔하고 실용적인 저렴한 원룸월세,81,81,서울,양천구,empty,목동중앙서로11길 65,81,81,81,81,241,242,243,/homeImage/81/01.jpg,/homeImage/81/02.jpg,/homeImage/81/03.jpg,81,/hostImage/81.jpg,0,1,0,0,0,0,1,0,0
66060c61f5b1b2da474efaab,1,1,1,1,1,1,1,1,1,0,1,0,1,1,DDDGG,1,0,1,1,0,0,1,0,1,1,82,박재호,97,01066783982,M,송영진,01046387142,자녀,080322-2816417,xx-xxxxx-xxx,전북,서울 양천구 목동 788-5,40,37.533862,126.864318,UNAUTHORIZED_MEMBER,주차가능.옥탑방전용면적9.넓음.풀옵션.옥상씀.큰도로옆안전,82,82,서울,양천구,empty,목동중앙서로7나길 11,82,82,82,82,244,245,246,/homeImage/82/01.jpg,/homeImage/82/02.jpg,/homeImage/82/03.jpg,82,/hostImage/82.jpg,1,0,1,0,1,2,0,0,1
66060c61f5b1b2da474efaac,1,1,1,1,0,1,1,0,1,1,0,1,0,0,OR,1,0,0,0,1,1,1,0,0,1,83,류현준,83,01054367132,M,김정순,01055208552,자녀,240803-2781122,xx-xxxxx-xxx,광주,서울 양천구 목동 604-2,41,37.550155,126.86598,MEMBER,empty,83,83,서울,양천구,empty,공항대로 542,83,83,83,83,247,248,249,/homeImage/83/01.jpg,/homeImage/83/02.jpg,/homeImage/83/03.jpg,83,/hostImage/83.jpg,0,1,1,1,1,1,0,0,0
66060c61f5b1b2da474efaad,1,1,1,1,1,1,1,1,1,0,1,0,1,1,DDDGG,1,0,0,1,0,0,0,1,1,1,84,최수빈,100,01082621444,M,조옥자,01042946044,자녀,200721-1526753,xx-xxxxx-xxx,전북,서울 양천구 목동 789-30,40,37.533696,126.865138,MEMBER,조용한 주택가. 바닥층. 도배 등 수리되어깨끗. 대중교통이용편리,84,84,서울,양천구,empty,목동중앙서로7길 17,84,84,84,84,250,251,252,/homeImage/84/01.jpg,/homeImage/84/02.jpg,/homeImage/84/03.jpg,84,/hostImage/84.jpg,1,0,1,0,0,1,0,1,1
66060c61f5b1b2da474efaae,1,1,1,1,1,1,1,1,1,0,1,0,1,1,DDDGG,0,1,1,0,0,0,1,1,1,1,85,최현지,94,01009778570,M,박옥순,01062549422,자녀,140814-1506464,xx-xxxxx-xxx,우리,서울 양천구 목동 789-30,40,37.533696,126.865138,UNAUTHORIZED_MEMBER,올수리 깨끗한 방2,85,85,서울,양천구,empty,목동중앙서로7길 17,85,85,85,85,253,254,255,/homeImage/85/01.jpg,/homeImage/85/02.jpg,/homeImage/85/03.jpg,85,/hostImage/85.jpg,0,0,0,0,1,2,1,1,1
66060c61f5b1b2da474efaaf,1,1,1,1,1,1,1,0,1,0,0,1,1,1,OR,1,0,0,0,0,0,1,1,1,0,86,송영미,91,01065723493,F,이은정,01054035416,자녀,010106-1343411,xx-xxxxx-xxx,기업,서울 양천구 목동 604-2,41,37.550155,126.86598,UNAUTHORIZED_MEMBER,등촌역 초역세권 보증금 저렴한 원룸,86,86,서울,양천구,empty,공항대로 542,86,86,86,86,256,257,258,/homeImage/86/01.jpg,/homeImage/86/02.jpg,/homeImage/86/03.jpg,86,/hostImage/86.jpg,0,0,1,0,1,0,0,1,1
66060c61f5b1b2da474efab0,1,1,1,1,1,1,1,1,1,0,0,1,1,1,OR,1,0,1,1,0,0,0,1,1,1,87,김예지,88,01009083930,M,장미경,01083266758,자녀,710822-2748422,xx-xxxxx-xxx,수협,서울 양천구 목동 604-2,41,37.550155,126.86598,UNAUTHORIZED_MEMBER,"안전한 대로변위치,9호선 등촌역 깨끗한 풀옵션",87,87,서울,양천구,empty,공항대로 542,87,87,87,87,259,260,261,/homeImage/87/01.jpg,/homeImage/87/02.jpg,/homeImage/87/03.jpg,87,/hostImage/87.jpg,1,0,1,0,0,2,0,1,1
66060c61f5b1b2da474efab1,1,1,1,1,1,1,1,0,1,0,0,1,1,1,VL,0,1,1,1,0,0,1,0,0,1,88,김명숙,87,01079009136,M,이수빈,01039098482,자녀,430008-1091840,xx-xxxxx-xxx,카카오,서울 양천구 신정동 999-24,57,37.524506,126.862248,MEMBER,풀옵션 깔끔 채광좋은 바닥층 목동역4분 빌라형 다가구,88,88,서울,양천구,empty,목동로17길 16,88,88,88,88,262,263,264,/homeImage/88/01.jpg,/homeImage/88/02.jpg,/homeImage/88/03.jpg,88,/hostImage/88.jpg,1,0,0,0,1,2,1,0,0
66060c61f5b1b2da474efab2,1,1,1,1,1,1,1,1,1,0,0,1,1,1,DDDGG,1,0,0,0,1,0,1,0,1,1,89,김민서,100,01024480578,F,정병철,01040330237,자녀,690227-1830382,xx-xxxxx-xxx,부산,서울 양천구 신정동 888-4,35,37.527068,126.861904,UNAUTHORIZED_MEMBER,목동역 단독주택에 있는 옥탑 입니다.,89,89,서울,양천구,empty,신정중앙로21길 12,89,89,89,89,265,266,267,/homeImage/89/01.jpg,/homeImage/89/02.jpg,/homeImage/89/03.jpg,89,/hostImage/89.jpg,0,1,1,0,1,1,0,0,1
66060c61f5b1b2da474efab3,1,1,1,1,1,1,1,1,1,0,1,0,1,1,DDDGG,1,1,0,1,1,1,1,0,0,0,90,남영일,100,01060355295,F,이예지,01090815214,자녀,470222-1293320,xx-xxxxx-xxx,경남,서울 양천구 신월동 153-5,25,37.534563,126.824885,MEMBER,신월3동옥탑방,90,90,서울,양천구,empty,가로공원로60길 8,90,90,90,90,268,269,270,/homeImage/90/01.jpg,/homeImage/90/02.jpg,/homeImage/90/03.jpg,90,/hostImage/90.jpg,1,1,1,1,1,0,1,0,0
66060c61f5b1b2da474efab4,1,1,1,1,1,1,1,0,1,0,0,0,1,1,OR,1,0,0,1,1,1,1,1,1,0,91,김우진,83,01097969121,F,이종수,01082030987,자녀,700220-2044397,xx-xxxxx-xxx,산업,서울 양천구 신월동 166-10,42,37.534291,126.829007,UNAUTHORIZED_MEMBER,"JS드림,대로변,복층,저렴한관리비",91,91,서울,양천구,empty,남부순환로 368,91,91,91,91,271,272,273,/homeImage/91/01.jpg,/homeImage/91/02.jpg,/homeImage/91/03.jpg,91,/hostImage/91.jpg,1,1,1,1,1,0,0,1,1
66060c61f5b1b2da474efab5,1,1,1,1,1,1,1,1,1,0,0,0,1,1,OR,0,0,0,1,1,1,0,1,0,0,92,박건우,67,01019449109,F,권준서,01029680903,자녀,640026-2718721,xx-xxxxx-xxx,신한,서울 양천구 신월동 166-10,44,37.534291,126.829007,MEMBER,"JS드림,대로변,복층,저렴한관리비",92,92,서울,양천구,empty,남부순환로 368,92,92,92,92,274,275,276,/homeImage/92/01.jpg,/homeImage/92/02.jpg,/homeImage/92/03.jpg,92,/hostImage/92.jpg,1,1,0,1,0,0,0,1,0
66060c61f5b1b2da474efab6,1,1,1,1,1,1,1,0,1,0,0,0,1,1,DDDGG,0,0,0,0,1,1,1,0,0,1,93,강민서,86,01068750044,F,박재현,01080605984,자녀,510410-1548163,xx-xxxxx-xxx,광주,서울 양천구 신월동 22-6,40,37.54056,126.832364,UNAUTHORIZED_MEMBER,신축수준으로 올수리 밝고 습기없는 반지층 방2,93,93,서울,양천구,empty,월정로46길 4,93,93,93,93,277,278,279,/homeImage/93/01.jpg,/homeImage/93/02.jpg,/homeImage/93/03.jpg,93,/hostImage/93.jpg,0,1,0,1,1,1,0,0,0
66060c61f5b1b2da474efab7,1,1,1,1,1,1,1,0,1,0,0,0,1,1,DDDGG,1,1,1,1,1,1,0,0,1,1,94,최재호,77,01002852428,M,윤경숙,01043656498,자녀,210023-2560596,xx-xxxxx-xxx,산업,서울 양천구 신월동 186-24,35,37.532368,126.825228,MEMBER,"신월사거리 8분,다가구 지상1층 방2,벽걸이에어컨 옵션,실면적 약7",94,94,서울,양천구,empty,남부순환로40길 85,94,94,94,94,280,281,282,/homeImage/94/01.jpg,/homeImage/94/02.jpg,/homeImage/94/03.jpg,94,/hostImage/94.jpg,1,1,1,1,0,2,1,0,1
66060c61f5b1b2da474efab8,1,1,1,1,1,1,1,1,1,0,0,1,1,1,OR,1,1,1,0,1,1,1,0,0,0,95,하현정,92,01005472223,M,이예진,01073170796,자녀,060108-2388754,xx-xxxxx-xxx,전북,서울 동작구 노량진동 148-62,37,37.513309,126.945607,MEMBER,권리관계확실한 풀옵션전세원룸,95,95,서울,동작구,empty,만양로18길 19,95,95,95,95,283,284,285,/homeImage/95/01.jpg,/homeImage/95/02.jpg,/homeImage/95/03.jpg,95,/hostImage/95.jpg,0,1,1,1,1,1,1,0,0
66060c61f5b1b2da474efab9,1,1,1,1,1,1,1,0,1,0,1,0,1,1,OR,1,0,1,0,1,0,1,1,0,1,96,구영식,82,01021997837,M,심중수,01081124315,자녀,210215-1572192,xx-xxxxx-xxx,대구,서울 동작구 노량진동 218-100,35,37.508466,126.946443,MEMBER,고시원가격의 가성비좋은 풀옵션원룸,96,96,서울,동작구,empty,만양로11길 3,96,96,96,96,286,287,288,/homeImage/96/01.jpg,/homeImage/96/02.jpg,/homeImage/96/03.jpg,96,/hostImage/96.jpg,0,1,1,0,1,2,0,1,0
66060c61f5b1b2da474efaba,1,1,1,1,1,1,1,0,1,0,1,0,1,1,OR,0,1,0,1,0,0,1,1,1,1,97,박미정,72,01024645713,M,이영호,01055817309,자녀,040808-2440412,xx-xxxxx-xxx,농협,서울 동작구 노량진동 215-102,32,37.508769,126.947283,UNAUTHORIZED_MEMBER,고시원가격의 풀옵션원룸,97,97,서울,동작구,empty,만양로6길 16,97,97,97,97,289,290,291,/homeImage/97/01.jpg,/homeImage/97/02.jpg,/homeImage/97/03.jpg,97,/hostImage/97.jpg,1,0,0,0,1,1,1,1,1
66060c61f5b1b2da474efabb,1,1,1,1,1,1,1,0,1,0,0,0,1,1,OR,0,0,0,1,0,1,1,0,1,0,98,최지영,79,01047861813,M,김재호,01031706931,자녀,290926-1937047,xx-xxxxx-xxx,하나,서울 동작구 노량진동 215-106,28,37.508613,126.947413,MEMBER,권리관계확실한 고시원가격의 풀옵션원룸입니다,98,98,서울,동작구,empty,만양로6길 12,98,98,98,98,292,293,294,/homeImage/98/01.jpg,/homeImage/98/02.jpg,/homeImage/98/03.jpg,98,/hostImage/98.jpg,1,0,0,1,1,0,0,0,1
66060c61f5b1b2da474efabc,1,1,1,1,1,1,1,1,1,0,1,0,1,1,OR,0,1,0,1,0,0,1,0,0,1,99,최서준,85,01098740170,F,문준서,01029585068,자녀,710407-1704813,xx-xxxxx-xxx,광주,서울 동작구 노량진동 205-141,40,37.511081,126.947823,UNAUTHORIZED_MEMBER,노량진 학원가부근 가격대비 방크고 채광과 통풍좋은 깨끗한 원룸,99,99,서울,동작구,empty,만양로12가길 10,99,99,99,99,295,296,297,/homeImage/99/01.jpg,/homeImage/99/02.jpg,/homeImage/99/03.jpg,99,/hostImage/99.jpg,1,0,0,0,1,1,1,0,0
66060c61f5b1b2da474efabd,0,1,1,1,0,1,1,1,0,1,0,1,1,1,OR,1,0,1,0,0,0,1,0,0,0,100,김경희,80,01061359675,F,박은주,01078241879,자녀,050523-1754826,xx-xxxxx-xxx,카카오,서울 동작구 대방동 392-16,28,37.502576,126.927457,UNAUTHORIZED_MEMBER,empty,100,100,서울,동작구,empty,대방동2길 33,100,100,100,100,298,299,300,/homeImage/100/01.jpg,/homeImage/100/02.jpg,/homeImage/100/03.jpg,100,/hostImage/100.jpg,0,0,1,0,1,1,0,0,0
66060c61f5b1b2da474efabe,1,1,1,1,1,1,1,1,1,0,1,0,1,1,OR,0,1,0,1,0,1,0,0,0,1,101,박재호,97,01032868927,M,박건우,01042458746,자녀,140419-2617001,xx-xxxxx-xxx,제주,서울 동작구 노량진동 219-33,55,37.508682,126.946478,MEMBER,대로변이고 동선이 안전한 창문이2개임,101,101,서울,동작구,empty,만양로 53,101,101,101,101,301,302,303,/homeImage/101/01.jpg,/homeImage/101/02.jpg,/homeImage/101/03.jpg,101,/hostImage/101.jpg,1,0,0,1,0,1,1,0,0
66060c61f5b1b2da474efabf,1,1,1,1,1,1,1,0,1,0,0,0,1,1,OR,1,0,0,1,0,1,1,1,0,0,102,홍영일,85,01017933773,M,백은경,01081031111,자녀,360324-2890457,xx-xxxxx-xxx,농협,서울 동작구 노량진동 205-141,37,37.511081,126.947823,UNAUTHORIZED_MEMBER,방에 비해 정말 가격저렴하고 채광과 통풍좋은 깨끗한 원룸,102,102,서울,동작구,empty,만양로12가길 10,102,102,102,102,304,305,306,/homeImage/102/01.jpg,/homeImage/102/02.jpg,/homeImage/102/03.jpg,102,/hostImage/102.jpg,1,0,1,1,1,0,0,1,0
66060c61f5b1b2da474efac0,1,1,1,1,1,1,1,1,1,0,0,0,1,1,OR,1,0,0,0,1,0,0,0,0,1,103,윤준영,98,01064466179,M,이상호,01083071633,자녀,110217-1408897,xx-xxxxx-xxx,씨티,서울 동작구 노량진동 218-59,32,37.508376,126.946456,MEMBER,집주인이 관리를잘해주는 권리관계확실한 매물입니다,103,103,서울,동작구,empty,만양로11길 3,103,103,103,103,307,308,309,/homeImage/103/01.jpg,/homeImage/103/02.jpg,/homeImage/103/03.jpg,103,/hostImage/103.jpg,0,1,1,0,0,1,0,0,0
66060c61f5b1b2da474efac1,1,1,1,1,1,1,1,1,1,0,1,0,1,1,OR,0,0,0,1,1,1,0,0,1,1,104,배예원,84,01098818852,F,윤서준,01068953619,자녀,150908-1216082,xx-xxxxx-xxx,카카오,서울 동작구 노량진동 214-127,47,37.50868,126.947534,UNAUTHORIZED_MEMBER,2018년신축한 방음이뛰어난풀옵션원룸,104,104,서울,동작구,empty,만양로8길 13,104,104,104,104,310,311,312,/homeImage/104/01.jpg,/homeImage/104/02.jpg,/homeImage/104/03.jpg,104,/hostImage/104.jpg,1,1,0,1,0,1,0,0,1
66060c61f5b1b2da474efac2,1,1,0,0,0,1,0,0,0,0,0,1,0,1,OR,0,1,1,0,0,1,1,0,1,1,105,김유진,95,01054947811,F,최수빈,01019257047,자녀,970313-1433592,xx-xxxxx-xxx,국민,서울 동작구 대방동 391-87,38,37.501832,126.92791,UNAUTHORIZED_MEMBER,empty,105,105,서울,동작구,empty,대방동길 27,105,105,105,105,313,314,315,/homeImage/105/01.jpg,/homeImage/105/02.jpg,/homeImage/105/03.jpg,105,/hostImage/105.jpg,0,0,0,1,1,2,1,0,1
66060c61f5b1b2da474efac3,1,1,1,1,1,1,1,0,1,0,0,1,1,1,OR,1,0,1,0,0,1,0,0,0,1,106,장현숙,75,01047543293,F,송상호,01079963318,자녀,530709-1669935,xx-xxxxx-xxx,국민,서울 동작구 상도동 356-86,31,37.503334,126.933507,UNAUTHORIZED_MEMBER,저렴한 원룸이 있다 깔끔한을 원한다면 한번 봅시다,106,106,서울,동작구,empty,상도로15마길 21,106,106,106,106,316,317,318,/homeImage/106/01.jpg,/homeImage/106/02.jpg,/homeImage/106/03.jpg,106,/hostImage/106.jpg,0,0,1,1,0,2,0,0,0
66060c61f5b1b2da474efac4,1,1,1,1,1,1,1,0,1,0,0,0,1,1,OR,0,1,0,1,0,0,0,0,1,1,107,이명숙,91,01000476223,F,박예준,01087592574,자녀,740624-1379669,xx-xxxxx-xxx,우리,서울 동작구 노량진동 222-51,34,37.509568,126.946013,UNAUTHORIZED_MEMBER,저렴하고 화이트톤의 깨끗한 매물,107,107,서울,동작구,empty,만양로12길 6,107,107,107,107,319,320,321,/homeImage/107/01.jpg,/homeImage/107/02.jpg,/homeImage/107/03.jpg,107,/hostImage/107.jpg,1,0,0,0,0,1,1,0,1
66060c61f5b1b2da474efac5,1,1,1,1,1,1,1,1,1,0,1,1,1,1,OR,0,0,0,1,0,1,1,0,1,1,108,이상철,91,01002725080,M,최윤서,01075350412,자녀,170422-1704320,xx-xxxxx-xxx,신한,서울 동작구 상도동 247-6,50,37.500102,126.933507,MEMBER,신대방삼거리역 1번출구 도보 3분 초역세권 저렴하고 깔끔한 원룸,108,108,서울,동작구,empty,성대로3길 8,108,108,108,108,322,323,324,/homeImage/108/01.jpg,/homeImage/108/02.jpg,/homeImage/108/03.jpg,108,/hostImage/108.jpg,1,0,0,1,1,1,0,0,1
66060c61f5b1b2da474efac6,1,1,1,1,1,1,1,1,1,0,0,1,1,1,OR,0,1,1,0,0,0,0,1,1,1,109,백민석,68,01003069953,F,신영순,01007644620,자녀,960918-1656100,xx-xxxxx-xxx,광주,서울 동작구 노량진동 277-8,36,37.512204,126.936138,MEMBER,깔끔한 가성비 좋은 원룸풀옵션,109,109,서울,동작구,empty,노량진로8가길 19,109,109,109,109,325,326,327,/homeImage/109/01.jpg,/homeImage/109/02.jpg,/homeImage/109/03.jpg,109,/hostImage/109.jpg,0,0,0,0,0,2,1,1,1
66060c61f5b1b2da474efac7,1,1,1,1,1,1,1,0,1,0,0,1,1,1,OR,1,1,1,1,0,0,1,1,0,1,110,류성수,81,01095355555,M,김민석,01058073947,자녀,230923-1131029,xx-xxxxx-xxx,대구,서울 동작구 상도동 361-69,35,37.504562,126.935673,UNAUTHORIZED_MEMBER,장승배기역 4번출구 도보 3분거리 초역세권 도배예정 깔끔한 원룸여기,110,110,서울,동작구,empty,상도로15차길 5,110,110,110,110,328,329,330,/homeImage/110/01.jpg,/homeImage/110/02.jpg,/homeImage/110/03.jpg,110,/hostImage/110.jpg,1,0,1,0,1,2,1,1,0
66060c61f5b1b2da474efac8,1,1,1,1,1,1,1,1,1,0,0,1,1,1,OR,0,0,0,1,1,0,1,1,0,1,111,김숙자,69,01008554690,M,최은정,01077941587,자녀,110720-1736222,xx-xxxxx-xxx,경남,서울 동작구 상도동 356-86,32,37.503334,126.933507,MEMBER,장승배기역 도보 7분 역세권 풀옵션 가성비 좋은 원룸,111,111,서울,동작구,empty,상도로15마길 21,111,111,111,111,331,332,333,/homeImage/111/01.jpg,/homeImage/111/02.jpg,/homeImage/111/03.jpg,111,/hostImage/111.jpg,1,1,0,0,1,1,0,1,0
66060c61f5b1b2da474efac9,1,1,1,1,1,1,1,1,1,0,0,1,1,1,OR,1,0,0,1,0,0,1,0,1,1,112,강상호,91,01080255727,F,박정숙,01017628601,자녀,320508-2662000,xx-xxxxx-xxx,하나,서울 동작구 노량진동 127-3,37,37.512401,126.946188,MEMBER,가성비최고 크기좋고 깨끗한 풀옵션 원룸,112,112,서울,동작구,empty,만양로14나길 19,112,112,112,112,334,335,336,/homeImage/112/01.jpg,/homeImage/112/02.jpg,/homeImage/112/03.jpg,112,/hostImage/112.jpg,1,0,1,0,1,1,0,0,1
66060c61f5b1b2da474efaca,1,1,1,1,1,1,1,0,1,0,0,1,1,1,OR,1,0,0,0,0,1,0,1,0,0,113,이성민,67,01016644902,M,김은경,01012722600,자녀,780809-1662554,xx-xxxxx-xxx,우리,서울 동작구 대방동 391-301,40,37.501837,126.924584,MEMBER,보라매역 도보 8분 풀옵션 원룸,113,113,서울,동작구,empty,대방동27길 73,113,113,113,113,337,338,339,/homeImage/113/01.jpg,/homeImage/113/02.jpg,/homeImage/113/03.jpg,113,/hostImage/113.jpg,0,0,1,1,0,0,0,1,0
66060c61f5b1b2da474efacb,1,1,1,1,1,1,1,0,1,0,0,1,1,1,OR,1,0,0,1,0,1,1,0,0,0,114,이민서,87,01032901865,M,한숙자,01033365232,자녀,340916-1314709,xx-xxxxx-xxx,전북,서울 동작구 노량진동 244-34,40,37.511596,126.938471,MEMBER,노량진 학원가 인접 깔끔한방,114,114,서울,동작구,empty,장승배기로27길 16,114,114,114,114,340,341,342,/homeImage/114/01.jpg,/homeImage/114/02.jpg,/homeImage/114/03.jpg,114,/hostImage/114.jpg,1,0,1,1,1,0,0,0,0
66060c61f5b1b2da474efacc,1,1,1,1,1,1,1,1,1,0,0,1,1,1,OR,1,1,1,1,0,0,1,0,0,1,115,이서준,67,01009793117,F,서서준,01082017739,자녀,050310-2510988,xx-xxxxx-xxx,전북,서울 동작구 대방동 391-540,35,37.501324,126.927407,MEMBER,신대방삼거리역 도보 3분 깔끔하고 가성비 좋은 원룸,115,115,서울,동작구,empty,대방동5길 4,115,115,115,115,343,344,345,/homeImage/115/01.jpg,/homeImage/115/02.jpg,/homeImage/115/03.jpg,115,/hostImage/115.jpg,1,0,1,0,1,2,1,0,0
66060c61f5b1b2da474efacd,1,1,1,1,1,1,1,1,1,0,0,1,1,1,OR,0,0,1,0,1,1,1,0,0,0,116,류상호,66,01042635940,F,김성현,01001387449,자녀,790720-1399818,xx-xxxxx-xxx,광주,서울 동작구 대방동 391-23,42,37.501686,126.927859,UNAUTHORIZED_MEMBER,신대방삼거리역 도보 4분 풀옵션 역세권 원룸,116,116,서울,동작구,empty,대방동길 21,116,116,116,116,346,347,348,/homeImage/116/01.jpg,/homeImage/116/02.jpg,/homeImage/116/03.jpg,116,/hostImage/116.jpg,0,1,0,1,1,1,0,0,0
66060c61f5b1b2da474eface,1,1,1,1,1,1,1,0,1,0,0,0,1,1,OR,0,0,1,0,1,0,0,0,0,0,117,김민준,90,01051440028,F,이지아,01078193256,자녀,090603-2049990,xx-xxxxx-xxx,부산,서울 동작구 대방동 391-245,38,37.502724,126.924984,UNAUTHORIZED_MEMBER,가성비 끝판왕 풀옵션 원룸,117,117,서울,동작구,empty,대방동15길 5,117,117,117,117,349,350,351,/homeImage/117/01.jpg,/homeImage/117/02.jpg,/homeImage/117/03.jpg,117,/hostImage/117.jpg,0,1,0,0,0,1,0,0,0
66060c61f5b1b2da474efacf,1,1,1,1,1,1,1,1,1,0,0,1,1,1,OR,1,1,1,0,1,1,0,1,1,1,118,김경수,66,01029766474,M,이정희,01086257483,자녀,890002-1121319,xx-xxxxx-xxx,우리,서울 동작구 대방동 391-152,40,37.501173,126.925904,UNAUTHORIZED_MEMBER,신대방삼거리역 도보 4분 초역세권 풀옵션 원룸,118,118,서울,동작구,empty,대방동3길 29,118,118,118,118,352,353,354,/homeImage/118/01.jpg,/homeImage/118/02.jpg,/homeImage/118/03.jpg,118,/hostImage/118.jpg,0,1,1,1,0,2,1,1,1
66060c61f5b1b2da474efad0,1,1,1,1,1,1,1,0,1,0,0,0,1,1,OR,0,1,1,0,0,1,0,0,1,0,119,서옥자,80,01034470265,F,김지아,01081616302,자녀,060502-2782052,xx-xxxxx-xxx,수협,서울 동작구 상도1동 483-1,60,37.503738,126.951926,UNAUTHORIZED_MEMBER,중앙대 초역세권 가장 넓은 원룸,119,119,서울,동작구,empty,상도로47길 102,119,119,119,119,355,356,357,/homeImage/119/01.jpg,/homeImage/119/02.jpg,/homeImage/119/03.jpg,119,/hostImage/119.jpg,0,0,0,1,0,1,1,0,1
66060c61f5b1b2da474efad1,1,1,1,1,1,1,1,1,1,0,0,1,1,1,OR,1,0,0,1,1,1,1,1,1,1,120,구우진,72,01031442023,M,김유진,01069835869,자녀,130228-2238498,xx-xxxxx-xxx,씨티,서울 동작구 노량진동 270,40,37.512297,126.935181,UNAUTHORIZED_MEMBER,위치놓고깔끔한원룸,120,120,서울,동작구,empty,등용로14길 66,120,120,120,120,358,359,360,/homeImage/120/01.jpg,/homeImage/120/02.jpg,/homeImage/120/03.jpg,120,/hostImage/120.jpg,1,1,1,1,1,1,0,1,1
66060c61f5b1b2da474efad2,1,1,1,1,1,1,1,1,1,0,0,1,1,1,OR,1,0,0,1,1,1,1,1,0,1,121,장옥순,83,01085218572,F,박영진,01062307723,자녀,280325-2848577,xx-xxxxx-xxx,수협,서울 동작구 노량진동 270,58,37.512297,126.935181,UNAUTHORIZED_MEMBER,위치놓고깔끔한원룸,121,121,서울,동작구,empty,등용로14길 66,121,121,121,121,361,362,363,/homeImage/121/01.jpg,/homeImage/121/02.jpg,/homeImage/121/03.jpg,121,/hostImage/1.jpg,1,1,1,1,1,1,0,1,0
66060c61f5b1b2da474efad3,1,1,1,1,1,1,1,1,1,0,0,1,1,1,OR,0,1,1,1,1,1,1,1,1,0,122,강옥순,78,01084868530,M,구도윤,01060733788,자녀,060006-1202715,xx-xxxxx-xxx,우리,서울 동작구 대방동 391-561,35,37.500816,126.924228,MEMBER,보라매역 도보 5분 초역세권 풀옵션 원룸,122,122,서울,동작구,empty,대방동27길 97,122,122,122,122,364,365,366,/homeImage/122/01.jpg,/homeImage/122/02.jpg,/homeImage/122/03.jpg,122,/hostImage/2.jpg,1,1,0,1,1,1,1,1,1
66060c61f5b1b2da474efad4,1,1,1,1,1,1,1,1,1,0,0,1,1,1,OR,1,1,0,0,0,1,0,1,1,1,123,오옥순,82,01030017064,F,김서연,01094586077,자녀,970000-1455809,xx-xxxxx-xxx,국민,서울 동작구 노량진동 270,40,37.512297,126.935181,MEMBER,위치놓고깔끔한원룸,123,123,서울,동작구,empty,등용로14길 66,123,123,123,123,367,368,369,/homeImage/123/01.jpg,/homeImage/123/02.jpg,/homeImage/123/03.jpg,123,/hostImage/3.jpg,0,0,1,1,0,1,1,1,1
66060c61f5b1b2da474efad5,1,1,1,1,1,1,1,1,1,0,0,1,1,1,OR,1,0,1,0,1,0,1,0,0,0,124,김정남,93,01049715644,F,손서윤,01094402490,자녀,710223-2774807,xx-xxxxx-xxx,우체국,서울 동작구 대방동 391-559,42,37.50054,126.924358,MEMBER,신대방삼거리역 보라매역 도보 5분거리 역세권 풀옵션 원룸,124,124,서울,동작구,empty,대방동1길 30,124,124,124,124,370,371,372,/homeImage/124/01.jpg,/homeImage/124/02.jpg,/homeImage/124/03.jpg,124,/hostImage/4.jpg,0,1,1,0,1,1,0,0,0
66060c61f5b1b2da474efad6,1,1,1,1,1,1,1,1,1,0,0,1,1,1,OR,0,0,0,0,1,0,1,1,1,1,125,김미영,70,01014616175,M,김지은,01008503612,자녀,340218-2852592,xx-xxxxx-xxx,SC제일,서울 동작구 노량진동 120-20,40,37.510986,126.943759,UNAUTHORIZED_MEMBER,컨디션 좋은 가성비 최고매물,125,125,서울,동작구,empty,만양로15길 14,125,125,125,125,373,374,375,/homeImage/125/01.jpg,/homeImage/125/02.jpg,/homeImage/125/03.jpg,125,/hostImage/5.jpg,0,1,0,0,1,1,0,1,1
66060c61f5b1b2da474efad7,1,1,1,1,1,1,1,0,1,0,0,1,1,1,OR,0,0,1,1,1,1,0,0,0,1,126,권진호,94,01055424624,F,윤채원,01067834500,자녀,990724-2055979,xx-xxxxx-xxx,신한,서울 동작구 노량진동 127-11,43,37.512498,126.946252,UNAUTHORIZED_MEMBER,가성비굿 위치좋고 컨디션 좋은 리모델링 귀한 매물,126,126,서울,동작구,empty,만양로14길 39,126,126,126,126,376,377,378,/homeImage/126/01.jpg,/homeImage/126/02.jpg,/homeImage/126/03.jpg,126,/hostImage/6.jpg,1,1,0,1,0,2,0,0,0
66060c61f5b1b2da474efad8,1,1,1,1,1,1,1,0,1,0,0,0,1,1,OR,1,1,0,0,1,1,0,1,1,0,127,김영순,88,01099641058,F,이순옥,01018458283,자녀,780916-2634704,xx-xxxxx-xxx,SC제일,서울 동작구 노량진동 219-33,43,37.508682,126.946478,UNAUTHORIZED_MEMBER,대로변이고 동선이 안전한 2018년신축된 방음이좋은원룸,127,127,서울,동작구,empty,만양로 53,127,127,127,127,379,380,381,/homeImage/127/01.jpg,/homeImage/127/02.jpg,/homeImage/127/03.jpg,127,/hostImage/7.jpg,0,1,1,1,0,0,1,1,1
66060c61f5b1b2da474efad9,1,1,1,1,1,1,1,0,1,0,0,1,1,1,OR,0,1,1,0,1,1,1,1,1,0,128,박지우,65,01000278655,M,이상철,01038656554,자녀,050304-2325203,xx-xxxxx-xxx,국민,서울 동작구 노량진동 277-8,33,37.512204,126.936138,MEMBER,노량진에서 귀한 큰 원룸입니다,128,128,서울,동작구,empty,노량진로8가길 19,128,128,128,128,382,383,384,/homeImage/128/01.jpg,/homeImage/128/02.jpg,/homeImage/128/03.jpg,128,/hostImage/8.jpg,0,1,0,1,1,1,1,1,1
66060c61f5b1b2da474efada,1,1,1,1,1,1,1,0,1,0,1,0,1,1,OR,0,0,1,1,0,1,1,0,0,0,129,성예은,73,01056210988,F,김유진,01059704960,자녀,010405-2888015,xx-xxxxx-xxx,광주,서울 동작구 노량진동 219-34,44,37.508563,126.946556,UNAUTHORIZED_MEMBER,실제면적 훨씬 넓고 앞이 틔여있어 채광좋고 깨끗한 도시형생활주택,129,129,서울,동작구,empty,만양로 51,129,129,129,129,385,386,387,/homeImage/129/01.jpg,/homeImage/129/02.jpg,/homeImage/129/03.jpg,129,/hostImage/9.jpg,1,0,0,1,1,1,0,0,0
66060c61f5b1b2da474efadb,1,1,1,1,1,1,1,0,1,0,0,1,1,1,OR,0,1,1,1,1,1,1,1,1,1,130,신동현,70,01013659884,M,최영철,01029992334,자녀,880823-2150478,xx-xxxxx-xxx,경남,서울 동작구 노량진동 262-5,38,37.512443,126.936114,MEMBER,노량진에서 보기힘든 완전깔끔한 화이트톤원룸,130,130,서울,동작구,empty,노량진로6가길 3,130,130,130,130,388,389,390,/homeImage/130/01.jpg,/homeImage/130/02.jpg,/homeImage/130/03.jpg,130,/hostImage/10.jpg,1,1,0,1,1,2,1,1,1
66060c61f5b1b2da474efadc,1,1,1,1,1,1,1,0,1,0,0,1,1,1,OR,0,0,1,0,1,0,1,0,0,1,131,김병철,95,01039995676,F,고경희,01052553375,자녀,000310-2934415,xx-xxxxx-xxx,신한,서울 동작구 노량진동 267-21,29,37.512535,126.934998,UNAUTHORIZED_MEMBER,깔끔하고 저렴한 원룸 찾으시는분들,131,131,서울,동작구,empty,등용로14길 63,131,131,131,131,391,392,393,/homeImage/131/01.jpg,/homeImage/131/02.jpg,/homeImage/131/03.jpg,131,/hostImage/11.jpg,0,1,0,0,1,2,0,0,0
66060c61f5b1b2da474efadd,1,1,1,1,1,1,1,0,1,0,0,1,1,1,OR,0,0,1,0,0,0,0,1,1,0,132,신경희,89,01093961524,M,류은영,01065705817,자녀,580621-2662485,xx-xxxxx-xxx,씨티,서울 동작구 노량진동 119-113,30,37.511229,126.943678,MEMBER,저렴하고 위치좋은 원룸 찾으시나,132,132,서울,동작구,empty,만양로15길 6,132,132,132,132,394,395,396,/homeImage/132/01.jpg,/homeImage/132/02.jpg,/homeImage/132/03.jpg,132,/hostImage/12.jpg,0,0,0,0,0,1,0,1,1
66060c61f5b1b2da474efade,1,1,1,1,1,1,1,0,1,0,0,1,1,1,OR,0,0,0,0,0,1,0,0,1,1,133,이아름,77,01000484371,M,김현우,01019946314,자녀,400101-1957818,xx-xxxxx-xxx,씨티,서울 동작구 노량진동 253-5,45,37.51119,126.938202,MEMBER,깔끔하고 단아한 원룸입니다,133,133,서울,동작구,empty,노량진로10길 45,133,133,133,133,397,398,399,/homeImage/133/01.jpg,/homeImage/133/02.jpg,/homeImage/133/03.jpg,133,/hostImage/13.jpg,0,0,0,1,0,1,0,0,1
66060c61f5b1b2da474efadf,1,1,1,1,1,1,1,0,1,0,0,1,1,1,OR,1,0,1,0,0,1,1,0,1,0,134,이순자,88,01081257402,F,김성민,01081979240,자녀,090712-1900556,xx-xxxxx-xxx,카카오,서울 동작구 노량진동 276-3,45,37.512043,126.936445,MEMBER,깔끔한 풀옵션 원룸 월세 나왔습니다.,134,134,서울,동작구,empty,노량진로6가길 17,134,134,134,134,400,401,402,/homeImage/134/01.jpg,/homeImage/134/02.jpg,/homeImage/134/03.jpg,134,/hostImage/14.jpg,0,0,1,1,1,1,0,0,1
66060c61f5b1b2da474efae0,1,1,1,1,1,1,1,0,1,0,0,1,1,1,OR,1,1,1,1,1,0,1,1,1,0,135,배성훈,79,01051457711,M,김재호,01097768616,자녀,770518-1312556,xx-xxxxx-xxx,대구,서울 동작구 노량진동 267-21,29,37.512535,126.934998,UNAUTHORIZED_MEMBER,깔끔하고 저렴한 원룸 찾으시는분들,135,135,서울,동작구,empty,등용로14길 63,135,135,135,135,403,404,405,/homeImage/135/01.jpg,/homeImage/135/02.jpg,/homeImage/135/03.jpg,135,/hostImage/15.jpg,1,1,1,0,1,1,1,1,1
66060c61f5b1b2da474efae1,1,1,1,1,1,1,1,1,1,0,1,1,1,1,OR,0,1,0,1,0,1,1,0,0,1,136,손경숙,77,01030881152,F,차지은,01020384087,자녀,450817-2958699,xx-xxxxx-xxx,제주,서울 동작구 노량진동 233-10,30,37.510126,126.939822,UNAUTHORIZED_MEMBER,위치좋은 저렴한 노량진 원룸3,136,136,서울,동작구,empty,장승배기로23길 4,136,136,136,136,406,407,408,/homeImage/136/01.jpg,/homeImage/136/02.jpg,/homeImage/136/03.jpg,136,/hostImage/16.jpg,1,0,0,1,1,1,1,0,0
66060c61f5b1b2da474efae2,1,1,1,1,1,1,1,0,1,0,0,1,1,1,OR,1,0,0,0,1,0,0,1,0,0,137,박승민,87,01053339990,M,장예준,01010134321,자녀,900914-1746018,xx-xxxxx-xxx,경남,서울 동작구 노량진동 52-30,36,37.511987,126.940915,MEMBER,깔끔하고 위치 좋은 원룸입니다,137,137,서울,동작구,empty,장승배기로26길 9,137,137,137,137,409,410,411,/homeImage/137/01.jpg,/homeImage/137/02.jpg,/homeImage/137/03.jpg,137,/hostImage/17.jpg,0,1,1,0,0,0,0,1,0
66060c61f5b1b2da474efae3,1,1,1,1,1,1,1,1,1,0,0,1,1,1,OR,1,1,0,1,0,0,0,0,0,1,138,김영자,70,01084834134,M,김은주,01000024145,자녀,780328-2431098,xx-xxxxx-xxx,농협,서울 동작구 노량진동 225-3,46,37.508988,126.941266,MEMBER,깔끔한 원룸 찾으시는분 구경하세요,138,138,서울,동작구,empty,장승배기로22길 29,138,138,138,138,412,413,414,/homeImage/138/01.jpg,/homeImage/138/02.jpg,/homeImage/138/03.jpg,138,/hostImage/18.jpg,1,0,1,0,0,1,1,0,0
66060c61f5b1b2da474efae4,1,1,1,1,1,1,1,0,1,0,1,0,1,1,OR,0,0,1,1,1,0,1,0,0,1,139,정지우,93,01004135114,M,김준호,01085292572,자녀,820219-2435033,xx-xxxxx-xxx,토스,서울 동작구 노량진동 219-34,25,37.508563,126.946556,UNAUTHORIZED_MEMBER,가격저렴하고 깨끗하며 노량진역 도보 10분거리,139,139,서울,동작구,empty,만양로 51,139,139,139,139,415,416,417,/homeImage/139/01.jpg,/homeImage/139/02.jpg,/homeImage/139/03.jpg,139,/hostImage/19.jpg,1,1,0,0,1,2,0,0,0
66060c61f5b1b2da474efae5,1,1,1,1,1,1,1,0,1,0,0,0,1,1,OR,0,0,1,1,1,1,1,1,1,0,140,유지후,93,01060471044,F,이영수,01093243745,자녀,470406-1913066,xx-xxxxx-xxx,전북,서울 동작구 노량진동 222-46,40,37.509783,126.945991,UNAUTHORIZED_MEMBER,풀옵션 깨끗한 원룸 매물 나왔습니다.,140,140,서울,동작구,empty,만양로12길 6,140,140,140,140,418,419,420,/homeImage/140/01.jpg,/homeImage/140/02.jpg,/homeImage/140/03.jpg,140,/hostImage/20.jpg,1,1,0,1,1,1,0,1,1
66060c61f5b1b2da474efae6,1,1,1,1,1,1,1,0,1,0,0,1,1,1,OR,0,1,1,0,0,0,0,0,1,1,141,김정순,76,01095203491,M,김영식,01038398557,자녀,350022-1416207,xx-xxxxx-xxx,대구,서울 동작구 노량진동 244-34,48,37.511596,126.938471,UNAUTHORIZED_MEMBER,위치좋은깔끔한원룸입니다,141,141,서울,동작구,empty,장승배기로27길 16,141,141,141,141,421,422,423,/homeImage/141/01.jpg,/homeImage/141/02.jpg,/homeImage/141/03.jpg,141,/hostImage/21.jpg,0,0,0,0,0,2,1,0,1
66060c61f5b1b2da474efae7,1,1,1,1,1,1,1,0,1,0,0,1,1,1,OR,0,1,0,0,0,1,0,1,0,1,142,최준영,94,01094407312,F,곽도윤,01025739679,자녀,350300-2744721,xx-xxxxx-xxx,대구,서울 동작구 노량진동 267-48,29,37.51251,126.935118,MEMBER,가성비최고 원룸,142,142,서울,동작구,empty,등용로14길 65,142,142,142,142,424,425,426,/homeImage/142/01.jpg,/homeImage/142/02.jpg,/homeImage/142/03.jpg,142,/hostImage/22.jpg,0,0,0,1,0,1,1,1,0
66060c61f5b1b2da474efae8,1,1,1,1,1,1,1,1,1,0,0,1,1,1,OR,0,0,1,0,0,0,1,0,0,1,143,윤유진,75,01099280712,M,하옥자,01090558801,자녀,650204-2397735,xx-xxxxx-xxx,신한,서울 동작구 노량진동 262-4,37,37.512337,126.936131,MEMBER,"진짜 깔끔한 꿀매물,  가격도 저렴해요",143,143,서울,동작구,empty,노량진로8가길 20,143,143,143,143,427,428,429,/homeImage/143/01.jpg,/homeImage/143/02.jpg,/homeImage/143/03.jpg,143,/hostImage/23.jpg,0,0,0,0,1,2,0,0,0
66060c61f5b1b2da474efae9,1,1,1,1,1,1,1,1,1,0,0,1,1,1,OR,1,1,1,0,1,0,0,0,0,1,144,김성수,98,01048120742,F,박영수,01051534219,자녀,400101-1748384,xx-xxxxx-xxx,제주,서울 동작구 노량진동 244-34,43,37.511596,126.938471,UNAUTHORIZED_MEMBER,위치좋은깔끔한원룸입니다,144,144,서울,동작구,empty,장승배기로27길 16,144,144,144,144,430,431,432,/homeImage/144/01.jpg,/homeImage/144/02.jpg,/homeImage/144/03.jpg,144,/hostImage/24.jpg,0,1,1,0,0,2,1,0,0
66060c61f5b1b2da474efaea,1,1,1,1,1,1,1,1,1,0,0,0,1,1,OR,0,1,0,1,1,0,1,0,1,1,145,성수빈,72,01028118337,M,한숙자,01047893714,자녀,830324-1321633,xx-xxxxx-xxx,신한,서울 동작구 노량진동 232-43,43,37.509735,126.941879,MEMBER,저렴한가격에 신축느낌나는 원룸,145,145,서울,동작구,empty,장승배기로20다길 6,145,145,145,145,433,434,435,/homeImage/145/01.jpg,/homeImage/145/02.jpg,/homeImage/145/03.jpg,145,/hostImage/25.jpg,1,1,0,0,1,1,1,0,1
66060c61f5b1b2da474efaeb,1,1,1,1,1,1,1,0,1,0,1,1,1,1,OR,0,1,1,1,0,0,1,1,0,0,146,김지은,92,01088703713,F,서순옥,01005023710,자녀,250721-1567022,xx-xxxxx-xxx,대구,서울 동작구 노량진동 85-7,40,37.512109,126.943524,MEMBER,저렴하고 치안좋은 노량진 원룸,146,146,서울,동작구,노량진동,empty,146,146,146,146,436,437,438,/homeImage/146/01.jpg,/homeImage/146/02.jpg,/homeImage/146/03.jpg,146,/hostImage/26.jpg,1,0,0,0,1,1,1,1,0
66060c61f5b1b2da474efaec,1,1,1,1,1,1,1,0,1,0,0,1,1,1,OR,0,1,0,1,0,1,1,1,0,1,147,박지원,80,01003900967,F,김지후,01057715451,자녀,640310-1022075,xx-xxxxx-xxx,기업,서울 동작구 노량진동 270,45,37.512297,126.935181,UNAUTHORIZED_MEMBER,깔끔하고 넓직한 원룸입니다.,147,147,서울,동작구,empty,등용로14길 66,147,147,147,147,439,440,441,/homeImage/147/01.jpg,/homeImage/147/02.jpg,/homeImage/147/03.jpg,147,/hostImage/27.jpg,1,0,0,1,1,1,1,1,0
66060c61f5b1b2da474efaed,1,1,1,1,1,1,1,1,1,0,1,0,1,1,OR,0,1,0,0,1,1,1,1,1,1,148,김경숙,75,01025562758,M,권수빈,01070198555,자녀,960626-1260418,xx-xxxxx-xxx,전북,서울 동작구 노량진동 215-112,35,37.508452,126.947329,MEMBER,저렴한 원룸입니다,148,148,서울,동작구,empty,만양로6길 9,148,148,148,148,442,443,444,/homeImage/148/01.jpg,/homeImage/148/02.jpg,/homeImage/148/03.jpg,148,/hostImage/28.jpg,0,1,0,1,1,1,1,1,1
66060c61f5b1b2da474efaee,1,1,1,1,1,1,1,0,1,0,1,0,1,1,OR,1,1,1,1,0,0,0,0,1,1,149,임재호,79,01003594436,M,김현주,01071888678,자녀,570703-1896908,xx-xxxxx-xxx,광주,서울 동작구 노량진동 215-109,42,37.508384,126.947607,MEMBER,"노량진 깔끔하고 넓직한 원룸, 창고식 베란다도 있습니다",149,149,서울,동작구,empty,만양로6길 6,149,149,149,149,445,446,447,/homeImage/149/01.jpg,/homeImage/149/02.jpg,/homeImage/149/03.jpg,149,/hostImage/29.jpg,1,0,1,0,0,2,1,0,1
66060c61f5b1b2da474efaef,1,1,1,1,1,1,1,1,1,0,0,1,1,1,OR,1,1,0,0,1,1,0,1,1,0,150,최서준,73,01049204955,F,이민준,01032174759,자녀,830321-1390461,xx-xxxxx-xxx,씨티,서울 동작구 노량진동 125-32,47,37.512324,126.945657,UNAUTHORIZED_MEMBER,위치굿 컨디션굿 풀옵션 크기좋은 가성비 원룸,150,150,서울,동작구,empty,만양로14나길 12,150,150,150,150,448,449,450,/homeImage/150/01.jpg,/homeImage/150/02.jpg,/homeImage/150/03.jpg,150,/hostImage/30.jpg,0,1,1,1,0,0,1,1,1
66060c61f5b1b2da474efaf0,1,1,1,1,1,1,1,1,1,0,0,0,1,1,OR,0,1,1,0,0,1,0,1,0,0,151,김정호,72,01072183972,M,서진우,01079256742,자녀,920604-2817019,xx-xxxxx-xxx,제주,서울 동작구 노량진동 222-51,37,37.509568,126.946013,MEMBER,저렴하고 화이트톤의 깨끗한 매물,151,151,서울,동작구,empty,만양로12길 6,151,151,151,151,451,452,453,/homeImage/151/01.jpg,/homeImage/151/02.jpg,/homeImage/151/03.jpg,151,/hostImage/31.jpg,0,0,0,1,0,1,1,1,0
66060c61f5b1b2da474efaf1,1,1,1,1,1,1,1,0,1,0,0,1,1,1,OR,1,0,1,1,0,1,1,0,0,0,152,박지연,70,01033897200,M,노준혁,01024715997,자녀,410316-2058379,xx-xxxxx-xxx,대구,서울 동작구 노량진동 125-31,40,37.512271,126.945745,MEMBER,위치좋은 노량진 원룸 입니다,152,152,서울,동작구,empty,만양로14나길 14,152,152,152,152,454,455,456,/homeImage/152/01.jpg,/homeImage/152/02.jpg,/homeImage/152/03.jpg,152,/hostImage/32.jpg,1,0,1,1,1,1,0,0,0
66060c61f5b1b2da474efaf2,1,1,1,1,1,1,1,1,1,0,0,1,1,1,OR,1,0,1,1,1,1,0,0,0,1,153,김민서,91,01067042735,M,강진우,01071093819,자녀,900828-2648519,xx-xxxxx-xxx,토스,서울 동작구 노량진동 35-1,50,37.512648,126.937245,UNAUTHORIZED_MEMBER,리모델링 깔끔하고 이쁜 공간 노량진역 큰대로변 초근접,153,153,서울,동작구,empty,노량진로8길 33,153,153,153,153,457,458,459,/homeImage/153/01.jpg,/homeImage/153/02.jpg,/homeImage/153/03.jpg,153,/hostImage/33.jpg,1,1,1,1,0,2,0,0,0
66060c61f5b1b2da474efaf3,1,1,1,1,1,1,1,0,1,0,0,0,1,1,OR,0,0,1,0,0,1,0,1,1,0,154,이은지,82,01017279032,F,곽시우,01027738719,자녀,260715-1800307,xx-xxxxx-xxx,산업,서울 동작구 노량진동 222-89,43,37.510208,126.945892,MEMBER,정남향으로 채광이 좋습니다,154,154,서울,동작구,empty,만양로6길 60,154,154,154,154,460,461,462,/homeImage/154/01.jpg,/homeImage/154/02.jpg,/homeImage/154/03.jpg,154,/hostImage/34.jpg,0,0,0,1,0,1,0,1,1
66060c61f5b1b2da474efaf4,1,1,1,1,1,1,1,0,1,0,0,0,1,1,OR,1,0,1,0,0,0,0,0,1,1,155,김예준,79,01070662704,F,김옥자,01044960321,자녀,390808-2675564,xx-xxxxx-xxx,우체국,서울 동작구 노량진동 215-106,30,37.508613,126.947413,MEMBER,고시원가격의 풀옵션원룸,155,155,서울,동작구,empty,만양로6길 12,155,155,155,155,463,464,465,/homeImage/155/01.jpg,/homeImage/155/02.jpg,/homeImage/155/03.jpg,155,/hostImage/35.jpg,0,0,1,0,0,2,0,0,1
66060c61f5b1b2da474efaf5,1,1,1,1,1,1,1,1,1,0,1,0,1,1,OR,1,0,1,0,0,1,1,1,1,0,156,장예준,90,01018392629,F,이상철,01087971544,자녀,800205-1887389,xx-xxxxx-xxx,우체국,서울 동작구 노량진동 215-102,37,37.508769,126.947283,MEMBER,신축으로 방이크고 방음이 좋은 풀옵션원룸,156,156,서울,동작구,empty,만양로6길 16,156,156,156,156,466,467,468,/homeImage/156/01.jpg,/homeImage/156/02.jpg,/homeImage/156/03.jpg,156,/hostImage/36.jpg,0,0,1,1,1,1,0,1,1
66060c61f5b1b2da474efaf6,1,1,1,1,1,1,1,1,1,0,1,0,1,1,OR,1,1,1,0,0,0,1,0,0,0,157,김정순,89,01087171125,M,김승현,01091057122,자녀,100228-1519168,xx-xxxxx-xxx,광주,서울 동작구 노량진동 215-116,37,37.508775,126.94706,MEMBER,2016년신축한 방음이뛰어난풀옵션원룸,157,157,서울,동작구,empty,만양로6길 19,157,157,157,157,469,470,471,/homeImage/157/01.jpg,/homeImage/157/02.jpg,/homeImage/157/03.jpg,157,/hostImage/37.jpg,0,0,1,0,1,1,1,0,0
66060c61f5b1b2da474efaf7,1,1,1,1,1,1,1,1,1,0,1,1,1,1,VL,1,0,1,0,1,1,0,1,1,1,158,강중수,69,01043393030,F,김예지,01041453698,자녀,890519-2172229,xx-xxxxx-xxx,전북,서울 동작구 본동 49-32,45,37.511696,126.955595,UNAUTHORIZED_MEMBER,귀한원룸  풀옵션원룸으로  입주협의,158,158,서울,동작구,empty,노량진로28길 30,158,158,158,158,472,473,474,/homeImage/158/01.jpg,/homeImage/158/02.jpg,/homeImage/158/03.jpg,158,/hostImage/38.jpg,0,1,1,1,0,2,0,1,1
66060c61f5b1b2da474efaf8,1,1,1,1,1,1,1,1,1,0,0,1,1,1,OR,0,1,1,0,1,1,0,1,0,1,159,김서준,86,01084907148,M,최영철,01064674252,자녀,510104-1639523,xx-xxxxx-xxx,부산,서울 동작구 대방동 391-315,33,37.501504,126.924261,MEMBER,더블역세권 대방동 원룸,159,159,서울,동작구,empty,대방동27길 81,159,159,159,159,475,476,477,/homeImage/159/01.jpg,/homeImage/159/02.jpg,/homeImage/159/03.jpg,159,/hostImage/39.jpg,0,1,0,1,0,2,1,1,0
66060c61f5b1b2da474efaf9,1,1,1,1,1,1,1,0,1,0,0,0,1,1,OR,0,0,0,1,1,0,1,1,1,1,160,박민서,83,01068264285,M,허승민,01095493051,자녀,210921-2229560,xx-xxxxx-xxx,농협,서울 동작구 대방동 20-48,60,37.509296,126.931714,UNAUTHORIZED_MEMBER,"방이 아주 크고,  깨끗하며 조용한 원룸",160,160,서울,동작구,empty,여의대방로36길 101,160,160,160,160,478,479,480,/homeImage/160/01.jpg,/homeImage/160/02.jpg,/homeImage/160/03.jpg,160,/hostImage/40.jpg,1,1,0,0,1,1,0,1,1
66060c61f5b1b2da474efafa,1,1,1,1,1,1,1,0,1,0,0,1,1,1,OR,1,0,0,0,0,1,0,0,0,0,161,황민석,71,01026708687,F,이하윤,01096324401,자녀,460115-1926489,xx-xxxxx-xxx,제주,서울 동작구 대방동 391-200,40,37.500476,126.926728,MEMBER,실제사진 O｜즉시입주 O｜학교 인근의 조용하고 깨끗한 분리형 원룸,161,161,서울,동작구,empty,대방동1길 8,161,161,161,161,481,482,483,/homeImage/161/01.jpg,/homeImage/161/02.jpg,/homeImage/161/03.jpg,161,/hostImage/41.jpg,0,0,1,1,0,0,0,0,0
66060c61f5b1b2da474efafb,1,1,1,1,1,1,1,1,1,0,0,0,1,1,OR,1,0,1,1,1,0,1,1,1,1,162,박준호,97,01089066651,M,류민지,01080281582,자녀,700027-1930087,xx-xxxxx-xxx,경남,서울 동작구 노량진동 222-46,38,37.509783,126.945991,MEMBER,풀옵션 원룸,162,162,서울,동작구,empty,만양로12길 6,162,162,162,162,484,485,486,/homeImage/162/01.jpg,/homeImage/162/02.jpg,/homeImage/162/03.jpg,162,/hostImage/42.jpg,1,1,1,0,1,2,0,1,1
66060c61f5b1b2da474efafc,1,1,1,1,1,1,1,0,1,0,0,1,1,1,OR,0,0,0,1,1,0,0,0,0,0,163,박현준,89,01082493990,M,이영수,01028973583,자녀,990107-2403133,xx-xxxxx-xxx,국민,서울 동작구 상도1동 366-1,52,37.501142,126.950621,MEMBER,"중앙대,숭실대 풀옵션 원룸",163,163,서울,동작구,empty,상도로43길 14,163,163,163,163,487,488,489,/homeImage/163/01.jpg,/homeImage/163/02.jpg,/homeImage/163/03.jpg,163,/hostImage/43.jpg,1,1,0,0,0,0,0,0,0
66060c61f5b1b2da474efafd,1,1,1,1,1,1,1,0,1,0,0,0,1,1,OR,0,0,1,0,0,0,0,1,0,0,164,안상현,98,01085250327,F,장중수,01015536753,자녀,850603-1394215,xx-xxxxx-xxx,전북,서울 동작구 상도동 242-75,30,37.501315,126.934875,MEMBER,장승배기역 도보7분 원룸치고 큰방큰방 보증금조절가능 빨리보세요,164,164,서울,동작구,empty,성대로1길 18,164,164,164,164,490,491,492,/homeImage/164/01.jpg,/homeImage/164/02.jpg,/homeImage/164/03.jpg,164,/hostImage/44.jpg,0,0,0,0,0,1,0,1,0
66060c61f5b1b2da474efafe,1,1,1,1,1,1,1,0,1,0,0,0,1,1,OR,0,1,0,1,1,1,1,1,1,0,165,김재현,66,01042468053,F,노아름,01016801599,자녀,750327-2126839,xx-xxxxx-xxx,SC제일,서울 동작구 노량진동 123-43,40,37.510443,126.945963,UNAUTHORIZED_MEMBER,학원가인접한 대로변 치안걱정없는집,165,165,서울,동작구,empty,만양로8길 64,165,165,165,165,493,494,495,/homeImage/165/01.jpg,/homeImage/165/02.jpg,/homeImage/165/03.jpg,165,/hostImage/45.jpg,1,1,0,1,1,0,1,1,1
66060c61f5b1b2da474efaff,1,1,1,1,1,1,1,1,1,0,1,1,1,1,DDDGG,0,1,0,1,1,1,1,1,1,1,166,임경희,93,01072241069,M,신영호,01014578696,자녀,170723-2459612,xx-xxxxx-xxx,수협,서울 동작구 본동 50-40,50,37.510767,126.954717,UNAUTHORIZED_MEMBER,노들역5분 방2 내부좋습니다,166,166,서울,동작구,empty,노량진로26길 32,166,166,166,166,496,497,498,/homeImage/166/01.jpg,/homeImage/166/02.jpg,/homeImage/166/03.jpg,166,/hostImage/46.jpg,1,1,0,1,1,1,1,1,1
66060c61f5b1b2da474efb00,1,1,1,1,1,1,1,1,1,0,0,1,1,1,OR,1,1,0,0,1,0,0,1,1,0,167,박도윤,91,01095038553,M,이현숙,01044171042,자녀,850016-2765663,xx-xxxxx-xxx,전북,서울 동작구 대방동 391-315,33,37.501504,126.924261,MEMBER,위치 컨디션 퀄리티 가격 하나도 빼놓을게 없어요,167,167,서울,동작구,empty,대방동27길 81,167,167,167,167,499,500,501,/homeImage/167/01.jpg,/homeImage/167/02.jpg,/homeImage/167/03.jpg,167,/hostImage/47.jpg,0,1,1,0,0,0,1,1,1
66060c61f5b1b2da474efb01,1,1,1,1,1,1,1,1,1,0,0,1,1,1,OR,0,0,0,0,1,1,0,1,1,0,168,류영미,85,01031953978,F,김미영,01073025124,자녀,760117-2502193,xx-xxxxx-xxx,산업,서울 동작구 상도1동 696,35,37.504099,126.948156,UNAUTHORIZED_MEMBER,O 상도역 역세권 깔끔한 풀옵션 원룸,168,168,서울,동작구,empty,상도로 265,168,168,168,168,502,503,504,/homeImage/168/01.jpg,/homeImage/168/02.jpg,/homeImage/168/03.jpg,168,/hostImage/48.jpg,0,1,0,1,0,0,0,1,1
66060c61f5b1b2da474efb02,1,1,1,1,1,1,1,1,1,0,1,1,1,1,VL,0,1,0,0,1,0,1,1,1,0,169,이은경,88,01018213739,F,박도윤,01019156160,자녀,750818-1773231,xx-xxxxx-xxx,우체국,서울 동작구 본동 49-32,50,37.511696,126.955595,MEMBER,2014년식 풀옵션 원룸 내부좋습니다,169,169,서울,동작구,empty,노량진로28길 30,169,169,169,169,505,506,507,/homeImage/169/01.jpg,/homeImage/169/02.jpg,/homeImage/169/03.jpg,169,/hostImage/49.jpg,0,1,0,0,1,0,1,1,1
66060c61f5b1b2da474efb03,1,1,1,1,1,1,1,1,1,0,1,1,1,1,OR,0,1,1,1,0,0,1,1,0,0,170,김경희,94,01048515162,F,송채원,01069644510,자녀,560422-2478793,xx-xxxxx-xxx,광주,서울 동작구 본동 49-32,50,37.511696,126.955595,UNAUTHORIZED_MEMBER,풀옵션으로 2013년식 내부좋습니다 빠른입주가능,170,170,서울,동작구,empty,노량진로28길 30,170,170,170,170,508,509,510,/homeImage/170/01.jpg,/homeImage/170/02.jpg,/homeImage/170/03.jpg,170,/hostImage/50.jpg,1,0,0,0,1,1,1,1,0
66060c61f5b1b2da474efb04,1,1,1,1,1,1,1,0,1,0,1,1,1,1,OR,1,1,1,1,1,1,1,1,1,0,171,김서현,92,01028903642,M,김상철,01090912544,자녀,020417-2742671,xx-xxxxx-xxx,케이,서울 동작구 본동 49-38,35,37.511765,126.955285,MEMBER,노들역3분 방1 옵션완벽 저렴한시세,171,171,서울,동작구,empty,노량진로28길 16,171,171,171,171,511,512,513,/homeImage/171/01.jpg,/homeImage/171/02.jpg,/homeImage/171/03.jpg,171,/hostImage/51.jpg,1,1,1,1,1,1,1,1,1
66060c61f5b1b2da474efb05,1,1,1,1,1,1,1,0,1,0,0,0,1,1,OR,1,1,1,1,0,0,0,1,1,1,172,장은경,75,01040737776,F,이옥자,01000147931,자녀,680112-1360347,xx-xxxxx-xxx,산업,서울 동작구 노량진동 220-11,42,37.508982,126.945225,MEMBER,개방감있는 양창원룸 노량진역세권,172,172,서울,동작구,empty,만양로13길 37,172,172,172,172,514,515,516,/homeImage/172/01.jpg,/homeImage/172/02.jpg,/homeImage/172/03.jpg,172,/hostImage/52.jpg,1,0,1,0,0,2,1,1,1
66060c61f5b1b2da474efb06,1,1,1,1,1,1,1,0,1,0,0,0,1,1,OR,0,1,0,0,1,1,1,0,0,0,173,김영진,82,01063741458,F,양미숙,01097043950,자녀,460411-2437039,xx-xxxxx-xxx,토스,서울 동작구 노량진동 123-43,48,37.510443,126.945963,MEMBER,노량진.지상층저렴한방.위치좋아안전.편의점인근,173,173,서울,동작구,empty,만양로8길 64,173,173,173,173,517,518,519,/homeImage/173/01.jpg,/homeImage/173/02.jpg,/homeImage/173/03.jpg,173,/hostImage/53.jpg,0,1,0,1,1,0,1,0,0
66060c61f5b1b2da474efb07,1,1,1,1,1,1,1,1,1,0,0,1,1,1,OR,0,1,0,1,1,1,0,1,1,1,174,홍영식,88,01061830514,M,김준영,01080379596,자녀,800918-1001705,xx-xxxxx-xxx,농협,서울 동작구 대방동 391-559,50,37.50054,126.924358,UNAUTHORIZED_MEMBER,실제사진O｜즉시 입주O｜현관보안O｜7호선 이용이 편리한 원룸,174,174,서울,동작구,empty,대방동1길 30,174,174,174,174,520,521,522,/homeImage/174/01.jpg,/homeImage/174/02.jpg,/homeImage/174/03.jpg,174,/hostImage/54.jpg,1,1,0,1,0,1,1,1,1
66060c61f5b1b2da474efb08,1,1,1,1,1,1,1,0,1,0,1,1,1,1,DDDGG,0,1,1,1,0,1,0,1,1,1,175,김지후,82,01033597486,M,박정훈,01069627821,자녀,590526-1385304,xx-xxxxx-xxx,대구,서울 동작구 본동 50-19,45,37.511402,126.954329,UNAUTHORIZED_MEMBER,방1크고  내부상태 깔끔 도배장판 새로함,175,175,서울,동작구,empty,노량진로26길 16,175,175,175,175,523,524,525,/homeImage/175/01.jpg,/homeImage/175/02.jpg,/homeImage/175/03.jpg,175,/hostImage/55.jpg,1,0,0,1,0,2,1,1,1
66060c61f5b1b2da474efb09,1,1,1,1,1,1,1,1,1,0,0,1,1,1,OR,0,1,0,1,0,0,0,1,1,1,176,박성진,66,01066989584,M,유지아,01065421827,자녀,160720-1313230,xx-xxxxx-xxx,SC제일,서울 동작구 노량진동 52-35,48,37.512087,126.940868,MEMBER,노량진역 도보 2분거리 위치굿 채광 통풍좋고 깨끗한원룸,176,176,서울,동작구,empty,장승배기로28길 16,176,176,176,176,526,527,528,/homeImage/176/01.jpg,/homeImage/176/02.jpg,/homeImage/176/03.jpg,176,/hostImage/56.jpg,1,0,0,0,0,1,1,1,1
66060c61f5b1b2da474efb0a,1,1,1,1,1,1,1,1,1,0,0,1,1,1,OR,1,0,0,1,1,1,0,1,0,0,177,박민석,82,01018407003,M,이은서,01094736055,자녀,860629-1335643,xx-xxxxx-xxx,카카오,서울 동작구 상도1동 366-1,37,37.501142,126.950621,MEMBER,상도역5분 중앙대 숭실대 치안굿 채광굿,177,177,서울,동작구,empty,상도로43길 14,177,177,177,177,529,530,531,/homeImage/177/01.jpg,/homeImage/177/02.jpg,/homeImage/177/03.jpg,177,/hostImage/57.jpg,1,1,1,1,0,0,0,1,0
66060c61f5b1b2da474efb0b,1,1,1,1,1,1,1,0,1,0,0,0,1,1,OR,1,1,1,0,1,0,0,0,1,1,178,최지우,99,01003770839,M,김은서,01052497368,자녀,260210-1578841,xx-xxxxx-xxx,우리,서울 동작구 노량진동 222-48,38,37.509749,126.945797,UNAUTHORIZED_MEMBER,2개의 큰창으로 햇빛잘들고 통풍좋으며 조용하고 깨끗한 원룸,178,178,서울,동작구,empty,만양로12길 6,178,178,178,178,532,533,534,/homeImage/178/01.jpg,/homeImage/178/02.jpg,/homeImage/178/03.jpg,178,/hostImage/58.jpg,0,1,1,0,0,2,1,0,1
66060c61f5b1b2da474efb0c,1,1,1,1,1,1,1,1,1,0,1,1,1,1,DDDGG,1,0,1,0,0,0,1,1,1,1,179,성서영,76,01011900581,M,이영식,01047809508,자녀,560701-2685374,xx-xxxxx-xxx,우체국,서울 동작구 본동 51,40,37.51077,126.955298,UNAUTHORIZED_MEMBER,풀옵션으로 방 넓고 좋습니다 빠른입주,179,179,서울,동작구,empty,노량진로26길 39,179,179,179,179,535,536,537,/homeImage/179/01.jpg,/homeImage/179/02.jpg,/homeImage/179/03.jpg,179,/hostImage/59.jpg,0,0,1,0,1,2,0,1,1
66060c61f5b1b2da474efb0d,1,1,1,1,1,1,1,1,1,0,1,0,1,1,OR,0,0,0,1,1,0,0,0,1,1,180,김상훈,90,01098092581,M,하건우,01005732931,자녀,650820-2573354,xx-xxxxx-xxx,제주,서울 동작구 흑석동 207-45,55,37.505682,126.956051,MEMBER,중문 3분 풀옵션 원룸 평지 지상층,180,180,서울,동작구,empty,흑석로6길 34,180,180,180,180,538,539,540,/homeImage/180/01.jpg,/homeImage/180/02.jpg,/homeImage/180/03.jpg,180,/hostImage/60.jpg,1,1,0,0,0,1,0,0,1
66060c61f5b1b2da474efb0e,1,1,1,1,1,1,1,1,1,0,0,0,1,1,OR,1,1,0,0,1,0,1,1,1,1,181,이현우,90,01044211065,M,장현우,01042017690,자녀,100621-2610761,xx-xxxxx-xxx,케이,서울 동작구 노량진동 218-58,38,37.508545,126.94638,MEMBER,실2층. 리모델링원룸. 깨끗하게 관리잘되는집.,181,181,서울,동작구,empty,만양로11길 3,181,181,181,181,541,542,543,/homeImage/181/01.jpg,/homeImage/181/02.jpg,/homeImage/181/03.jpg,181,/hostImage/61.jpg,0,1,1,0,1,1,1,1,1
66060c61f5b1b2da474efb0f,1,1,1,1,1,1,1,0,1,0,0,1,1,1,OR,1,1,0,0,0,1,1,0,0,1,182,고지은,84,01043793712,F,유숙자,01025875561,자녀,720701-2153732,xx-xxxxx-xxx,하나,서울 동작구 노량진동 262-4,45,37.512337,126.936131,MEMBER,"진짜 깔끔한 꿀매물,  가격도 저렴해요",182,182,서울,동작구,empty,노량진로8가길 20,182,182,182,182,544,545,546,/homeImage/182/01.jpg,/homeImage/182/02.jpg,/homeImage/182/03.jpg,182,/hostImage/62.jpg,0,0,1,1,1,1,1,0,0
66060c61f5b1b2da474efb10,1,1,1,1,1,1,1,1,1,0,0,1,1,1,OR,0,1,1,1,1,0,1,0,0,1,183,손경숙,87,01049499704,F,이민수,01092758604,자녀,140422-2679364,xx-xxxxx-xxx,우체국,서울 동작구 대방동 391-315,40,37.501504,126.924261,MEMBER,대로변 평지 정남향 채광까지 좋은 원룸,183,183,서울,동작구,empty,대방동27길 81,183,183,183,183,547,548,549,/homeImage/183/01.jpg,/homeImage/183/02.jpg,/homeImage/183/03.jpg,183,/hostImage/63.jpg,1,1,0,0,1,2,1,0,0
66060c61f5b1b2da474efb11,1,1,1,1,1,1,1,0,1,0,0,1,1,1,DDDGG,0,1,1,1,0,1,0,0,0,1,184,이은지,87,01089865459,F,이민지,01085276219,자녀,490410-1264423,xx-xxxxx-xxx,케이,서울 동작구 대방동 344-26,40,37.511294,126.926343,UNAUTHORIZED_MEMBER,"1호선 대방역 초초역세권, 샛강역 도보 15분, 풀옵션, 직장인 추천",184,184,서울,동작구,empty,여의대방로46길 34,184,184,184,184,550,551,552,/homeImage/184/01.jpg,/homeImage/184/02.jpg,/homeImage/184/03.jpg,184,/hostImage/64.jpg,1,0,0,1,0,2,1,0,0
66060c61f5b1b2da474efb12,1,1,1,1,1,1,1,1,1,0,0,0,1,1,OR,1,0,0,0,0,1,0,0,1,0,185,안광수,65,01029297274,M,강지영,01097865769,자녀,130613-2706809,xx-xxxxx-xxx,하나,서울 동작구 상도동 464-5,60,37.500217,126.952386,MEMBER,융자없는집. 엘베있는집. 리모델링완료. 화이트톤넓은집,185,185,서울,동작구,empty,상도로47나길 4,185,185,185,185,553,554,555,/homeImage/185/01.jpg,/homeImage/185/02.jpg,/homeImage/185/03.jpg,185,/hostImage/65.jpg,0,0,1,1,0,0,0,0,1
66060c61f5b1b2da474efb13,1,1,1,1,1,1,1,1,1,0,0,1,1,1,OR,0,1,0,0,1,1,0,1,1,1,186,배옥순,98,01045929251,F,손현지,01028795429,자녀,150616-2073401,xx-xxxxx-xxx,씨티,서울 동작구 상도동 361-101,40,37.503849,126.934701,MEMBER,7호선 장승배기역 도보5분 원룸,186,186,서울,동작구,empty,상도로15아길 11,186,186,186,186,556,557,558,/homeImage/186/01.jpg,/homeImage/186/02.jpg,/homeImage/186/03.jpg,186,/hostImage/66.jpg,0,1,0,1,0,1,1,1,1
66060c61f5b1b2da474efb14,1,1,1,1,1,1,1,0,1,0,0,1,1,1,DDDGG,1,0,0,1,0,1,0,0,1,0,187,김승현,88,01040656475,F,김수진,01092464001,자녀,040226-1052137,xx-xxxxx-xxx,케이,서울 동작구 대방동 344-26,40,37.511294,126.926343,MEMBER,"1호선 대방역 초초역세권, 샛강역 도보 15분, 풀옵션, 직장인 추천",187,187,서울,동작구,empty,여의대방로46길 34,187,187,187,187,559,560,561,/homeImage/187/01.jpg,/homeImage/187/02.jpg,/homeImage/187/03.jpg,187,/hostImage/67.jpg,1,0,1,1,0,0,0,0,1
66060c61f5b1b2da474efb15,1,1,1,1,1,1,1,1,1,0,0,0,1,1,OR,1,1,0,0,1,1,0,0,0,1,188,이정웅,95,01095291087,F,김영미,01018491676,자녀,920211-2667334,xx-xxxxx-xxx,제주,서울 동작구 흑석동 201-27,60,37.508188,126.95698,UNAUTHORIZED_MEMBER,신축원룸 중앙대3분거리 중대병원5분거리 흑석역8분거리 저렴한원룸,188,188,서울,동작구,empty,흑석로5길 36,188,188,188,188,562,563,564,/homeImage/188/01.jpg,/homeImage/188/02.jpg,/homeImage/188/03.jpg,188,/hostImage/68.jpg,0,1,1,1,0,1,1,0,0
66060c61f5b1b2da474efb16,1,1,1,1,1,1,1,1,1,0,0,1,1,1,OR,1,1,0,0,1,1,0,0,1,0,189,이영순,86,01092914035,F,김혜진,01088949394,자녀,630901-1381398,xx-xxxxx-xxx,케이,서울 동작구 상도동 17-51,49,37.506221,126.948326,MEMBER,신축5년된 풀옵션원룸으로 조용하고 깨끗하며 전세가능,189,189,서울,동작구,empty,만양로 20,189,189,189,189,565,566,567,/homeImage/189/01.jpg,/homeImage/189/02.jpg,/homeImage/189/03.jpg,189,/hostImage/69.jpg,0,1,1,1,0,0,1,0,1
66060c61f5b1b2da474efb17,1,1,1,1,1,1,1,0,1,0,0,0,1,1,OR,0,0,0,1,0,0,1,1,1,1,190,문성수,79,01095902723,F,오민석,01021139114,자녀,910226-1342583,xx-xxxxx-xxx,부산,서울 동작구 노량진동 218-60,40,37.50842,126.946562,MEMBER,남동향 남서향 2개의 큰창으로 햇빛 잘들고 가격이 정말 저렴한 원룸,190,190,서울,동작구,empty,만양로 51,190,190,190,190,568,569,570,/homeImage/190/01.jpg,/homeImage/190/02.jpg,/homeImage/190/03.jpg,190,/hostImage/70.jpg,1,0,0,0,1,1,0,1,1
66060c61f5b1b2da474efb18,1,1,1,1,1,1,1,1,1,0,0,0,1,1,OR,1,0,0,0,1,1,0,0,0,1,191,안상현,82,01086689206,F,김도윤,01014754026,자녀,640204-1651997,xx-xxxxx-xxx,수협,서울 동작구 노량진동 222-46,40,37.509783,126.945991,MEMBER,학원가 관리잘된 원룸,191,191,서울,동작구,empty,만양로12길 6,191,191,191,191,571,572,573,/homeImage/191/01.jpg,/homeImage/191/02.jpg,/homeImage/191/03.jpg,191,/hostImage/71.jpg,0,1,1,1,0,1,0,0,0
66060c61f5b1b2da474efb19,1,1,1,1,1,1,1,1,1,0,1,0,1,1,OR,0,1,1,0,0,0,1,0,0,1,192,이경자,87,01028426095,M,윤경희,01065812019,자녀,680307-2690049,xx-xxxxx-xxx,SC제일,서울 동작구 노량진동 215-107,35,37.508535,126.947478,UNAUTHORIZED_MEMBER,깨끗한준신축. 보안좋고 관리잘되는집. 안심대로변,192,192,서울,동작구,empty,만양로6길 10,192,192,192,192,574,575,576,/homeImage/192/01.jpg,/homeImage/192/02.jpg,/homeImage/192/03.jpg,192,/hostImage/72.jpg,0,0,0,0,1,2,1,0,0
66060c61f5b1b2da474efb1a,1,1,1,1,1,1,1,1,1,0,0,1,1,1,OR,0,1,1,0,0,1,0,0,1,1,193,김채원,98,01043939259,F,권서영,01096428005,자녀,550506-2846587,xx-xxxxx-xxx,하나,서울 동작구 노량진동 256-60,40,37.512146,126.937809,MEMBER,안심추천.깔끔.풀옵션.가성비굿.,193,193,서울,동작구,empty,노량진로10길 27,193,193,193,193,577,578,579,/homeImage/193/01.jpg,/homeImage/193/02.jpg,/homeImage/193/03.jpg,193,/hostImage/73.jpg,0,0,0,1,0,2,1,0,1
66060c61f5b1b2da474efb1b,1,1,1,1,1,1,1,0,1,0,0,1,1,1,OR,0,0,1,1,1,0,0,1,0,0,194,이현지,80,01091806930,F,최옥순,01036673205,자녀,070325-1127001,xx-xxxxx-xxx,신한,서울 동작구 노량진동 119-176,48,37.511609,126.944829,UNAUTHORIZED_MEMBER,신축4년차 보안 잘 되어 있는 원룸 월세,194,194,서울,동작구,empty,만양로16길 6,194,194,194,194,580,581,582,/homeImage/194/01.jpg,/homeImage/194/02.jpg,/homeImage/194/03.jpg,194,/hostImage/74.jpg,1,1,0,0,0,1,0,1,0
66060c61f5b1b2da474efb1c,1,1,1,1,1,1,1,1,1,0,0,1,1,1,OR,0,1,0,1,1,1,1,1,0,1,195,손현주,83,01035803606,M,홍정웅,01051472417,자녀,320208-2995469,xx-xxxxx-xxx,씨티,서울 동작구 상도1동 366-1,52,37.501142,126.950621,MEMBER,융자없는집. 상도역4분. 중앙대숭실대. 편의시설밀집. 안전한위치,195,195,서울,동작구,empty,상도로43길 14,195,195,195,195,583,584,585,/homeImage/195/01.jpg,/homeImage/195/02.jpg,/homeImage/195/03.jpg,195,/hostImage/75.jpg,1,1,0,1,1,1,1,1,0
66060c61f5b1b2da474efb1d,1,1,1,0,0,1,0,1,0,0,0,1,1,0,OR,0,0,0,1,1,0,1,0,0,0,196,김영환,98,01033960690,F,강준영,01003168359,자녀,200814-1050932,xx-xxxxx-xxx,전북,서울 동작구 상도동 247-6,50,37.500102,126.933507,MEMBER,empty,196,196,서울,동작구,empty,성대로3길 8,196,196,196,196,586,587,588,/homeImage/196/01.jpg,/homeImage/196/02.jpg,/homeImage/196/03.jpg,196,/hostImage/76.jpg,1,1,0,0,1,0,0,0,0
66060c61f5b1b2da474efb1e,1,1,1,1,1,1,1,0,1,0,0,1,1,1,DDDGG,1,0,1,0,0,1,1,0,1,0,197,홍정식,80,01068955652,F,김성진,01003384042,자녀,040112-2651756,xx-xxxxx-xxx,케이,서울 동작구 대방동 344-26,30,37.511294,126.926343,MEMBER,"1호선 대방역 초초역세권, 샛강역 도보 15분, 풀옵션, 직장인 추천",197,197,서울,동작구,empty,여의대방로46길 34,197,197,197,197,589,590,591,/homeImage/197/01.jpg,/homeImage/197/02.jpg,/homeImage/197/03.jpg,197,/hostImage/77.jpg,0,0,1,1,1,1,0,0,1
66060c61f5b1b2da474efb1f,1,1,1,1,1,1,1,1,1,0,0,1,1,1,OR,1,0,0,0,1,1,1,0,1,0,198,김동현,82,01061864787,F,한민재,01045433094,자녀,540529-2520303,xx-xxxxx-xxx,기업,서울 동작구 노량진동 87-14,42,37.512428,126.94346,UNAUTHORIZED_MEMBER,노량진역 도보 3분거리 신축4년차 원룸,198,198,서울,동작구,empty,노량진로14나길 5,198,198,198,198,592,593,594,/homeImage/198/01.jpg,/homeImage/198/02.jpg,/homeImage/198/03.jpg,198,/hostImage/78.jpg,0,1,1,1,1,0,0,0,1
66060c61f5b1b2da474efb20,1,1,1,1,1,1,1,1,1,0,0,1,1,1,DDDGG,0,0,0,0,1,0,0,0,0,1,199,김영진,66,01047394112,M,박광수,01083925253,자녀,210800-2285110,xx-xxxxx-xxx,토스,서울 동작구 대방동 344-26,30,37.511294,126.926343,UNAUTHORIZED_MEMBER,"1호선 대방역 초초역세권, 샛강역 도보 15분, 풀옵션, 직장인 추천",199,199,서울,동작구,empty,여의대방로46길 34,199,199,199,199,595,596,597,/homeImage/199/01.jpg,/homeImage/199/02.jpg,/homeImage/199/03.jpg,199,/hostImage/79.jpg,0,1,0,0,0,1,0,0,0
66060c61f5b1b2da474efb21,1,1,1,1,1,1,1,0,1,0,1,0,1,1,OR,0,1,1,0,1,1,1,1,1,0,200,김영진,88,01026394482,F,강광수,01037370808,자녀,080613-1164787,xx-xxxxx-xxx,씨티,서울 동작구 상도동 464-5,60,37.500217,126.952386,MEMBER,중대숭실대 오픈형 엘베유 주택가메인도로 위치,200,200,서울,동작구,empty,상도로47나길 4,200,200,200,200,598,599,600,/homeImage/200/01.jpg,/homeImage/200/02.jpg,/homeImage/200/03.jpg,200,/hostImage/80.jpg,0,1,0,1,1,1,1,1,1
66060c61f5b1b2da474efb22,1,1,1,1,1,1,1,0,1,0,0,1,1,1,DDDGG,1,1,1,1,1,0,1,1,1,0,201,김경숙,69,01074532704,M,한옥자,01002215538,자녀,060728-2299819,xx-xxxxx-xxx,전북,서울 동작구 대방동 344-26,40,37.511294,126.926343,UNAUTHORIZED_MEMBER,"1호선 대방역 초초역세권, 샛강역 도보 15분, 풀옵션, 직장인 추천",201,201,서울,동작구,empty,여의대방로46길 34,201,201,201,201,601,602,603,/homeImage/201/01.jpg,/homeImage/201/02.jpg,/homeImage/201/03.jpg,201,/hostImage/81.jpg,1,1,1,0,1,1,1,1,1
66060c61f5b1b2da474efb23,1,1,1,1,1,1,1,0,1,0,0,1,1,1,DDDGG,0,0,0,0,0,1,0,1,1,0,202,양현정,84,01009004076,M,서정자,01034050782,자녀,380601-1302904,xx-xxxxx-xxx,농협,서울 동작구 대방동 344-26,40,37.511294,126.926343,MEMBER,"1호선 대방역 초초역세권, 샛강역 도보 15분, 풀옵션, 직장인 추천",202,202,서울,동작구,empty,여의대방로46길 34,202,202,202,202,604,605,606,/homeImage/202/01.jpg,/homeImage/202/02.jpg,/homeImage/202/03.jpg,202,/hostImage/82.jpg,0,0,0,1,0,0,0,1,1
66060c61f5b1b2da474efb24,1,1,1,1,1,1,1,1,1,0,0,1,1,1,DDDGG,1,0,1,1,0,0,1,0,1,0,203,박영자,67,01094408070,M,최지훈,01062478560,자녀,280727-2465123,xx-xxxxx-xxx,하나,서울 동작구 노량진동 246-34,60,37.511026,126.938933,UNAUTHORIZED_MEMBER,노량진역 초역세권 도보 3분,203,203,서울,동작구,empty,장승배기로27길 30,203,203,203,203,607,608,609,/homeImage/203/01.jpg,/homeImage/203/02.jpg,/homeImage/203/03.jpg,203,/hostImage/83.jpg,1,0,1,0,1,1,0,0,1
66060c61f5b1b2da474efb25,1,1,1,1,1,1,1,0,1,0,1,0,1,1,OR,1,1,1,0,1,0,0,1,1,0,204,손도현,100,01083666079,F,강광수,01060257225,자녀,500111-2627945,xx-xxxxx-xxx,우체국,서울 동작구 노량진동 215-115,27,37.508692,126.947129,UNAUTHORIZED_MEMBER,깨끗하고 조용한데 가격이 고시텔보다 저렴한 원룸,204,204,서울,동작구,empty,만양로6길 15,204,204,204,204,610,611,612,/homeImage/204/01.jpg,/homeImage/204/02.jpg,/homeImage/204/03.jpg,204,/hostImage/84.jpg,0,1,1,0,0,1,1,1,1
66060c61f5b1b2da474efb26,1,1,1,1,1,1,1,1,1,0,1,0,1,1,OR,0,0,1,1,0,0,0,1,1,0,205,강동현,92,01005089824,F,서채원,01006533305,자녀,920521-1329972,xx-xxxxx-xxx,기업,서울 동작구 흑석동 213-1,60,37.50547,126.955937,UNAUTHORIZED_MEMBER,"중앙대 중문 30초거리 깔끔한 원룸, 젠틀 임대인 원하는거 다 들어줌",205,205,서울,동작구,empty,흑석로6길 31,205,205,205,205,613,614,615,/homeImage/205/01.jpg,/homeImage/205/02.jpg,/homeImage/205/03.jpg,205,/hostImage/85.jpg,1,0,0,0,0,1,0,1,1
66060c61f5b1b2da474efb27,1,1,1,1,1,1,1,1,1,0,0,1,1,1,OR,0,1,1,1,1,0,1,1,0,1,206,성상호,74,01089942914,M,한현지,01008573569,자녀,880318-2954526,xx-xxxxx-xxx,기업,서울 동작구 노량진동 119-149,33,37.511573,126.945076,UNAUTHORIZED_MEMBER,풀옵션입니다 단기가능합니다,206,206,서울,동작구,empty,만양로14길 13,206,206,206,206,616,617,618,/homeImage/206/01.jpg,/homeImage/206/02.jpg,/homeImage/206/03.jpg,206,/hostImage/86.jpg,1,1,0,0,1,2,1,1,0
66060c61f5b1b2da474efb28,1,1,1,1,1,1,1,0,1,0,1,1,1,1,OR,1,0,1,1,1,0,1,1,1,1,207,강준영,88,01023591108,M,이병철,01073277359,자녀,520500-2948023,xx-xxxxx-xxx,경남,서울 동작구 상도동 358-7,50,37.503765,126.935998,UNAUTHORIZED_MEMBER,7호선 역세권 풀옵션 원룸 무료주차 선착순,207,207,서울,동작구,empty,상도로19길 39,207,207,207,207,619,620,621,/homeImage/207/01.jpg,/homeImage/207/02.jpg,/homeImage/207/03.jpg,207,/hostImage/87.jpg,1,1,1,0,1,2,0,1,1
66060c61f5b1b2da474efb29,1,1,1,1,1,1,1,0,1,0,0,1,1,1,OR,0,0,1,1,1,0,1,1,0,0,208,김상철,71,01013795617,F,류재현,01048602525,자녀,340814-1953574,xx-xxxxx-xxx,우리,서울 동작구 노량진동 127-11,35,37.512498,126.946252,MEMBER,가성비굿 위치좋고 컨디션 좋은 리모델링 귀한 매물,208,208,서울,동작구,empty,만양로14길 39,208,208,208,208,622,623,624,/homeImage/208/01.jpg,/homeImage/208/02.jpg,/homeImage/208/03.jpg,208,/hostImage/88.jpg,1,1,0,0,1,1,0,1,0
66060c61f5b1b2da474efb2a,1,1,1,1,1,1,1,0,1,0,0,1,1,1,OR,1,0,0,1,1,0,1,0,0,0,209,양아름,92,01092623246,M,류진호,01075083718,자녀,990504-2292391,xx-xxxxx-xxx,기업,서울 동작구 상도1동 428-13,45,37.501948,126.950379,MEMBER,2016년 사용승인 잘 관리된 넓고 깔끔한 풀옵션 대로변 편의시설 인접,209,209,서울,동작구,empty,상도로41길 22,209,209,209,209,625,626,627,/homeImage/209/01.jpg,/homeImage/209/02.jpg,/homeImage/209/03.jpg,209,/hostImage/89.jpg,1,1,1,0,1,0,0,0,0
66060c61f5b1b2da474efb2b,1,1,1,1,1,1,1,0,1,0,0,0,1,1,OR,1,1,1,0,0,1,0,0,0,0,210,강상현,75,01088620007,F,강숙자,01010226779,자녀,580322-2191603,xx-xxxxx-xxx,산업,서울 동작구 노량진동 220-29,34,37.509222,126.945285,MEMBER,융자없는집. 학원가3분. 가성비좋은방,210,210,서울,동작구,empty,만양로 67,210,210,210,210,628,629,630,/homeImage/210/01.jpg,/homeImage/210/02.jpg,/homeImage/210/03.jpg,210,/hostImage/90.jpg,0,0,1,1,0,1,1,0,0
66060c61f5b1b2da474efb2c,1,1,1,1,1,1,1,0,1,0,0,1,1,1,OR,0,1,0,1,1,1,0,0,1,1,211,권서현,67,01086370620,M,이승민,01006386636,자녀,070623-2637402,xx-xxxxx-xxx,광주,서울 동작구 상도동 361-141,40,37.504976,126.935138,MEMBER,장승배기역 역세권 엘베있는 초저렴 원룸,211,211,서울,동작구,empty,상도로15바길 26,211,211,211,211,631,632,633,/homeImage/211/01.jpg,/homeImage/211/02.jpg,/homeImage/211/03.jpg,211,/hostImage/91.jpg,1,1,0,1,0,1,1,0,1
66060c61f5b1b2da474efb2d,1,1,1,1,1,1,1,0,1,0,0,1,1,1,OR,0,0,1,0,1,0,0,1,1,1,212,황성진,99,01013107902,F,정은영,01001482018,자녀,850803-1214783,xx-xxxxx-xxx,국민,서울 동작구 상도동 361-101,40,37.503849,126.934701,MEMBER,장승배기역 도보 5분거리 이용 가능 언제 든지 입주협의 가능 밝고환해요,212,212,서울,동작구,empty,상도로15아길 11,212,212,212,212,634,635,636,/homeImage/212/01.jpg,/homeImage/212/02.jpg,/homeImage/212/03.jpg,212,/hostImage/92.jpg,0,1,0,0,0,2,0,1,1
66060c61f5b1b2da474efb2e,1,1,1,1,1,1,1,0,1,0,1,0,1,1,OR,1,1,1,1,0,1,0,0,1,0,213,하예지,90,01011969548,M,박예원,01032230482,자녀,330912-2616838,xx-xxxxx-xxx,케이,서울 동작구 상도동 243-19,45,37.500712,126.934578,UNAUTHORIZED_MEMBER,"L신대방삼거리역, 장승배기역 도보권 극강 원룸",213,213,서울,동작구,empty,성대로29길 122,213,213,213,213,637,638,639,/homeImage/213/01.jpg,/homeImage/213/02.jpg,/homeImage/213/03.jpg,213,/hostImage/93.jpg,1,0,1,1,0,1,1,0,1
66060c61f5b1b2da474efb2f,1,1,1,1,1,1,1,0,1,0,0,1,1,1,OR,1,0,0,0,0,1,0,0,1,1,214,하재현,80,01084990867,M,김성수,01071062521,자녀,410722-2093727,xx-xxxxx-xxx,하나,서울 동작구 노량진동 119-146,48,37.511739,126.945052,UNAUTHORIZED_MEMBER,노량진 학원가 큰 원룸 실6P 내부시설 좋음 빠른입주 가능,214,214,서울,동작구,empty,만양로16길 31,214,214,214,214,640,641,642,/homeImage/214/01.jpg,/homeImage/214/02.jpg,/homeImage/214/03.jpg,214,/hostImage/94.jpg,0,0,1,1,0,1,0,0,1
66060c61f5b1b2da474efb30,1,1,1,1,1,1,1,1,1,0,0,0,1,1,OR,0,1,1,0,1,1,0,0,1,1,215,김춘자,96,01023656133,F,이영순,01087476767,자녀,200409-1533221,xx-xxxxx-xxx,기업,서울 동작구 상도1동 483-1,60,37.503738,126.951926,MEMBER,중앙대5분 남학생전용 신축급컨디션 풀옵션 원룸입니다.,215,215,서울,동작구,empty,상도로47길 102,215,215,215,215,643,644,645,/homeImage/215/01.jpg,/homeImage/215/02.jpg,/homeImage/215/03.jpg,215,/hostImage/95.jpg,0,1,0,1,0,2,1,0,1
66060c61f5b1b2da474efb31,1,1,1,1,1,1,1,0,1,0,0,0,1,1,OR,0,1,0,1,1,0,1,0,1,1,216,장영진,89,01006474639,F,권민석,01076013336,자녀,980214-2120588,xx-xxxxx-xxx,농협,서울 동작구 대방동 20-48,43,37.509296,126.931714,MEMBER,대방역도보10분 리모델링완료 옵션최고 넓은원룸 가성비최고,216,216,서울,동작구,empty,여의대방로36길 101,216,216,216,216,646,647,648,/homeImage/216/01.jpg,/homeImage/216/02.jpg,/homeImage/216/03.jpg,216,/hostImage/96.jpg,1,1,0,0,1,1,1,0,1
66060c61f5b1b2da474efb32,1,1,1,1,1,1,1,0,1,0,0,1,1,1,OR,0,1,0,1,0,0,1,1,1,0,217,이현정,66,01085244507,F,최성진,01028717918,자녀,630822-2518909,xx-xxxxx-xxx,우체국,서울 동작구 상도1동 428-13,45,37.501948,126.950379,MEMBER,상도역 큰대로변 깔끔한 신축급 원룸,217,217,서울,동작구,empty,상도로41길 22,217,217,217,217,649,650,651,/homeImage/217/01.jpg,/homeImage/217/02.jpg,/homeImage/217/03.jpg,217,/hostImage/97.jpg,1,0,0,0,1,0,1,1,1
66060c61f5b1b2da474efb33,1,1,1,1,1,1,1,0,1,0,0,0,1,1,OR,1,0,0,0,0,1,1,1,0,0,218,김정수,81,01001384891,F,문미경,01090069554,자녀,990524-2069365,xx-xxxxx-xxx,경남,서울 동작구 노량진동 215-108,43,37.508459,126.947545,MEMBER,깔끔한 풀옵션 원룸,218,218,서울,동작구,empty,만양로6길 8,218,218,218,218,652,653,654,/homeImage/218/01.jpg,/homeImage/218/02.jpg,/homeImage/218/03.jpg,218,/hostImage/98.jpg,0,0,1,1,1,0,0,1,0
66060c61f5b1b2da474efb34,1,1,1,1,1,1,1,1,1,0,0,0,1,1,OR,1,0,1,0,0,0,1,0,0,0,219,김명자,77,01004606078,M,이정순,01068170818,자녀,420207-1921724,xx-xxxxx-xxx,SC제일,서울 동작구 상도동 464-5,60,37.500217,126.952386,UNAUTHORIZED_MEMBER,융자없고 깔끔수리된 엘베있는 풀옵션 원룸입니다.,219,219,서울,동작구,empty,상도로47나길 4,219,219,219,219,655,656,657,/homeImage/219/01.jpg,/homeImage/219/02.jpg,/homeImage/219/03.jpg,219,/hostImage/99.jpg,0,0,1,0,1,1,0,0,0
66060c61f5b1b2da474efb35,1,1,1,1,1,1,1,0,1,0,0,0,1,1,OR,1,1,1,1,0,0,0,0,1,1,220,김도현,84,01039500335,F,홍윤서,01022023392,자녀,580520-1433563,xx-xxxxx-xxx,씨티,서울 동작구 대방동 20-48,38,37.509296,126.931714,MEMBER,대방역도보10분 리모델링완료 옵션최고 넓은원룸 가성비최고,220,220,서울,동작구,empty,여의대방로36길 101,220,220,220,220,658,659,660,/homeImage/220/01.jpg,/homeImage/220/02.jpg,/homeImage/220/03.jpg,220,/hostImage/100.jpg,1,0,1,0,0,2,1,0,1
66060c61f5b1b2da474efb36,1,1,1,1,1,1,1,1,1,0,0,1,1,1,OR,0,0,0,1,0,1,1,1,1,0,221,김지현,67,01001582847,F,안성민,01080225394,자녀,740904-1235788,xx-xxxxx-xxx,하나,서울 동작구 노량진동 119-241,33,37.511688,126.943687,MEMBER,"공실, 학원가 인근,신축급 깨끗한 풀옵션 원룸",221,221,서울,동작구,empty,노량진로14나길 19,221,221,221,221,661,662,663,/homeImage/221/01.jpg,/homeImage/221/02.jpg,/homeImage/221/03.jpg,221,/hostImage/101.jpg,1,0,0,1,1,0,0,1,1
66060c61f5b1b2da474efb37,1,1,1,1,1,1,1,0,1,0,0,0,1,1,OR,1,0,1,0,1,0,1,1,1,1,222,나민준,82,01094515773,F,김춘자,01005644372,자녀,890300-2236247,xx-xxxxx-xxx,광주,서울 동작구 노량진동 205-259,37,37.511523,126.947336,MEMBER,가성비최고 크기좋고 관리잘 된 풀옵션 원룸,222,222,서울,동작구,empty,만양로14사길 20,222,222,222,222,664,665,666,/homeImage/222/01.jpg,/homeImage/222/02.jpg,/homeImage/222/03.jpg,222,/hostImage/102.jpg,0,1,1,0,1,2,0,1,1
66060c61f5b1b2da474efb38,1,1,1,1,1,1,1,0,1,0,1,1,1,1,OR,0,0,1,1,1,0,1,1,1,1,223,김수진,93,01077463933,F,박예은,01029237221,자녀,110309-2126286,xx-xxxxx-xxx,우리,서울 동작구 상도동 331-86,30,37.501755,126.932957,MEMBER,"L신대방삼거리역, 장승배기역 도보권 극강 원룸",223,223,서울,동작구,empty,상도로15나길 3,223,223,223,223,667,668,669,/homeImage/223/01.jpg,/homeImage/223/02.jpg,/homeImage/223/03.jpg,223,/hostImage/103.jpg,1,1,0,0,1,2,0,1,1
66060c61f5b1b2da474efb39,1,1,1,1,1,1,1,0,1,0,1,0,1,1,OR,0,1,1,0,0,0,0,1,0,0,224,임정수,89,01095385035,F,최상호,01006037859,자녀,730508-1454553,xx-xxxxx-xxx,케이,서울 동작구 노량진동 215-100,30,37.508848,126.947218,UNAUTHORIZED_MEMBER,실1층 지상층. 금액좋은방. 학원가7분. 관리잘되는집,224,224,서울,동작구,empty,만양로6길 18,224,224,224,224,670,671,672,/homeImage/224/01.jpg,/homeImage/224/02.jpg,/homeImage/224/03.jpg,224,/hostImage/104.jpg,0,0,0,0,0,1,1,1,0
66060c61f5b1b2da474efb3a,1,1,1,1,1,1,1,0,1,0,1,0,1,1,OR,0,1,1,0,1,1,1,0,1,1,225,김윤서,98,01003841490,M,박은서,01062260149,자녀,950917-1859831,xx-xxxxx-xxx,부산,서울 동작구 노량진동 219-34,44,37.508563,126.946556,MEMBER,실제면적 훨씬 넓고 앞이 틔여있어 채광좋고 깨끗한 도시형생활주택,225,225,서울,동작구,empty,만양로 51,225,225,225,225,673,674,675,/homeImage/225/01.jpg,/homeImage/225/02.jpg,/homeImage/225/03.jpg,225,/hostImage/105.jpg,0,1,0,1,1,2,1,0,1
66060c61f5b1b2da474efb3b,1,1,1,1,1,1,1,1,1,0,0,0,1,1,DDDGG,0,0,0,1,1,1,1,0,1,0,226,남미영,74,01011336714,M,김지민,01028803170,자녀,650903-1652886,xx-xxxxx-xxx,씨티,서울 동작구 대방동 20-48,38,37.509296,126.931714,MEMBER,대방역도보10분 리모델링완료 옵션최고 넓은원룸 가성비최고,226,226,서울,동작구,empty,여의대방로36길 101,226,226,226,226,676,677,678,/homeImage/226/01.jpg,/homeImage/226/02.jpg,/homeImage/226/03.jpg,226,/hostImage/106.jpg,1,1,0,1,1,0,0,0,1
66060c61f5b1b2da474efb3c,1,1,1,1,1,1,1,0,1,0,1,0,1,1,OR,0,1,0,1,0,0,0,0,0,1,227,박미영,71,01077392378,M,최경희,01026201193,자녀,800001-2793443,xx-xxxxx-xxx,우체국,서울 동작구 노량진동 215-115,45,37.508692,126.947129,MEMBER,방크고  깨끗하며 채광좋고 조용한  원룸,227,227,서울,동작구,empty,만양로6길 15,227,227,227,227,679,680,681,/homeImage/227/01.jpg,/homeImage/227/02.jpg,/homeImage/227/03.jpg,227,/hostImage/107.jpg,1,0,0,0,0,1,1,0,0
66060c61f5b1b2da474efb3d,1,1,1,1,1,1,1,0,1,0,0,0,1,1,OR,0,1,0,0,0,1,0,1,1,0,228,김현우,90,01054296170,F,강지훈,01077491041,자녀,390607-2493109,xx-xxxxx-xxx,신한,서울 동작구 대방동 20-48,43,37.509296,126.931714,UNAUTHORIZED_MEMBER,돌침대옵션 리모델링 사이즈좋은 원룸 즉시입주,228,228,서울,동작구,empty,여의대방로36길 101,228,228,228,228,682,683,684,/homeImage/228/01.jpg,/homeImage/228/02.jpg,/homeImage/228/03.jpg,228,/hostImage/108.jpg,0,0,0,1,0,0,1,1,1
66060c61f5b1b2da474efb3e,1,1,1,1,1,1,1,0,1,0,0,1,1,1,OR,0,0,1,1,0,0,0,1,1,0,229,오성현,65,01099213476,F,신정순,01045731023,자녀,790321-1309008,xx-xxxxx-xxx,수협,서울 동작구 상도1동 696,45,37.504099,126.948156,UNAUTHORIZED_MEMBER,상도역1분.관리인상주해 안전.채광좋아요.안심대로변,229,229,서울,동작구,empty,상도로 265,229,229,229,229,685,686,687,/homeImage/229/01.jpg,/homeImage/229/02.jpg,/homeImage/229/03.jpg,229,/hostImage/109.jpg,1,0,0,0,0,1,0,1,1
66060c61f5b1b2da474efb3f,1,1,1,1,1,1,1,0,1,0,0,0,1,1,OR,1,0,0,0,1,1,0,1,0,0,230,이서영,66,01043386898,F,김민재,01086133572,자녀,300607-1198917,xx-xxxxx-xxx,우체국,서울 동작구 대방동 20-89,43,37.509193,126.931516,MEMBER,따뜻하고 조용한 방,230,230,서울,동작구,empty,여의대방로36길 101,230,230,230,230,688,689,690,/homeImage/230/01.jpg,/homeImage/230/02.jpg,/homeImage/230/03.jpg,230,/hostImage/110.jpg,0,1,1,1,0,0,0,1,0
66060c61f5b1b2da474efb40,1,1,1,1,1,1,1,0,1,0,0,1,1,1,OR,1,1,1,0,0,1,0,0,1,1,231,주상호,68,01065552137,M,손영미,01096320123,자녀,100825-2232166,xx-xxxxx-xxx,대구,서울 동작구 상도1동 428-13,45,37.501948,126.950379,UNAUTHORIZED_MEMBER,단기가능.상도역신축원룸. 안전한 대로변. 중대.숭대 통학가능.,231,231,서울,동작구,empty,상도로41길 22,231,231,231,231,691,692,693,/homeImage/231/01.jpg,/homeImage/231/02.jpg,/homeImage/231/03.jpg,231,/hostImage/111.jpg,0,0,1,1,0,2,1,0,1
66060c61f5b1b2da474efb41,1,1,1,1,1,1,1,0,1,0,0,0,1,1,OR,1,1,1,0,0,1,0,1,1,1,232,김지영,67,01035963132,F,김정호,01011231842,자녀,780517-1583921,xx-xxxxx-xxx,토스,서울 동작구 노량진동 220-11,45,37.508982,126.945225,MEMBER,실2층 베란다있는방. 신축급컨디션. 관리잘되는집. 채광좋은집,232,232,서울,동작구,empty,만양로13길 37,232,232,232,232,694,695,696,/homeImage/232/01.jpg,/homeImage/232/02.jpg,/homeImage/232/03.jpg,232,/hostImage/112.jpg,0,0,1,1,0,2,1,1,1
66060c61f5b1b2da474efb42,1,1,1,1,1,1,1,0,1,0,0,0,1,1,OR,1,1,0,1,1,1,1,0,1,0,233,김영순,66,01006257396,F,오민석,01013780470,자녀,820210-1583132,xx-xxxxx-xxx,씨티,서울 동작구 노량진동 123-43,38,37.510443,126.945963,UNAUTHORIZED_MEMBER,종일 햇살이 들어오는 노량진에서 보기 드문  가성비 좋은 정남향 원룸,233,233,서울,동작구,empty,만양로8길 64,233,233,233,233,697,698,699,/homeImage/233/01.jpg,/homeImage/233/02.jpg,/homeImage/233/03.jpg,233,/hostImage/113.jpg,1,1,1,1,1,0,1,0,1
66060c61f5b1b2da474efb43,1,1,1,1,1,1,1,1,1,0,0,1,1,1,OR,0,0,0,1,0,0,0,1,1,0,234,이성수,85,01074653062,M,문서영,01064550999,자녀,100004-2749738,xx-xxxxx-xxx,경남,서울 동작구 대방동 391-23,40,37.501686,126.927859,MEMBER,대출가능 가성비끝판왕 초저렴신축원룸,234,234,서울,동작구,empty,대방동길 21,234,234,234,234,700,701,702,/homeImage/234/01.jpg,/homeImage/234/02.jpg,/homeImage/234/03.jpg,234,/hostImage/114.jpg,1,0,0,0,0,0,0,1,1
66060c61f5b1b2da474efb44,1,1,1,1,1,1,1,1,1,0,0,1,1,1,OR,1,0,0,0,1,0,0,1,0,0,235,박예진,96,01036302377,F,박도현,01057600444,자녀,470802-1770325,xx-xxxxx-xxx,카카오,서울 동작구 상도1동 732,40,37.50259,126.947235,UNAUTHORIZED_MEMBER,상도역초역세권 보면 바로 계약가능 저렴한 신축분리형,235,235,서울,동작구,empty,상도로38나길 14,235,235,235,235,703,704,705,/homeImage/235/01.jpg,/homeImage/235/02.jpg,/homeImage/235/03.jpg,235,/hostImage/115.jpg,0,1,1,0,0,0,0,1,0
66060c61f5b1b2da474efb45,1,1,1,1,1,1,1,1,1,0,0,0,1,1,OR,1,1,0,0,1,0,0,0,0,0,236,박광수,98,01069529156,F,양상훈,01016833043,자녀,880423-2265391,xx-xxxxx-xxx,신한,서울 동작구 상도1동 312-2,35,37.500551,126.952351,UNAUTHORIZED_MEMBER,안심대로변 상도역가까운 가성비원룸,236,236,서울,동작구,empty,상도로47길 32,236,236,236,236,706,707,708,/homeImage/236/01.jpg,/homeImage/236/02.jpg,/homeImage/236/03.jpg,236,/hostImage/116.jpg,0,1,1,0,0,0,1,0,0
66060c61f5b1b2da474efb46,1,1,1,1,1,1,1,0,1,0,0,1,1,1,OR,0,0,1,1,0,0,0,1,0,0,237,문은영,91,01007337439,F,김준서,01066319707,자녀,570123-2716254,xx-xxxxx-xxx,수협,서울 동작구 상도1동 732,50,37.50259,126.947235,MEMBER,상도역1분.신축넓은분리형.위치좋아안전.집주인거주,237,237,서울,동작구,empty,상도로38나길 14,237,237,237,237,709,710,711,/homeImage/237/01.jpg,/homeImage/237/02.jpg,/homeImage/237/03.jpg,237,/hostImage/117.jpg,1,0,0,0,0,1,0,1,0
66060c61f5b1b2da474efb47,1,1,1,1,1,1,1,1,1,0,1,1,1,1,OR,0,1,0,0,1,1,1,0,0,1,238,이은주,75,01008880982,M,강재현,01004234587,자녀,470020-2310627,xx-xxxxx-xxx,부산,서울 동작구 상도1동 426-1,45,37.501511,126.950602,UNAUTHORIZED_MEMBER,"중앙대,숭실대 깔끔한 반지층 풀옵션 원룸",238,238,서울,동작구,empty,상도로47가길 38,238,238,238,238,712,713,714,/homeImage/238/01.jpg,/homeImage/238/02.jpg,/homeImage/238/03.jpg,238,/hostImage/118.jpg,0,1,0,1,1,1,1,0,0
66060c61f5b1b2da474efb48,1,1,1,1,1,1,1,1,1,0,1,1,1,1,OR,0,0,1,1,1,0,1,0,1,0,239,김성진,92,01073598035,M,김준혁,01012444585,자녀,980807-2179311,xx-xxxxx-xxx,제주,서울 동작구 상도동 22-52,45,37.506346,126.946436,MEMBER,풀옵션원룸 빠른입주가능,239,239,서울,동작구,empty,만양로1길 15,239,239,239,239,715,716,717,/homeImage/239/01.jpg,/homeImage/239/02.jpg,/homeImage/239/03.jpg,239,/hostImage/119.jpg,1,1,0,0,1,1,0,0,1
66060c61f5b1b2da474efb49,1,1,1,1,1,1,1,0,1,0,1,1,1,1,OR,1,0,1,1,1,1,1,1,0,0,240,김지후,88,01018535638,M,장재호,01073179383,자녀,980805-1670812,xx-xxxxx-xxx,농협,서울 동작구 상도동 356-140,45,37.502288,126.933696,MEMBER,채광좋은 깔끔한 원룸 전세가능 주차가능,240,240,서울,동작구,empty,상도로15길 33,240,240,240,240,718,719,720,/homeImage/240/01.jpg,/homeImage/240/02.jpg,/homeImage/240/03.jpg,240,/hostImage/120.jpg,1,1,1,1,1,1,0,1,0
66060c61f5b1b2da474efb4a,1,1,1,1,1,1,1,0,1,0,1,0,1,1,OR,1,1,1,0,0,0,1,1,0,0,241,김현지,76,01031228518,M,성영호,01097029067,자녀,610109-1518321,xx-xxxxx-xxx,국민,서울 동작구 대방동 20-87,40,37.509329,126.931514,MEMBER,"집앞이 마을버스 정류장, 월세가 저렴한 집,",241,241,서울,동작구,empty,여의대방로36길 101,241,241,241,241,721,722,723,/homeImage/241/01.jpg,/homeImage/241/02.jpg,/homeImage/241/03.jpg,241,/hostImage/1.jpg,0,0,1,0,1,1,1,1,0
66060c61f5b1b2da474efb4b,1,1,1,1,1,1,1,0,1,0,1,0,1,1,OR,0,1,1,0,0,1,1,0,1,1,242,이승민,77,01069546728,M,김옥순,01008804799,자녀,500903-1965693,xx-xxxxx-xxx,씨티,서울 동작구 대방동 20-48,38,37.509296,126.931714,UNAUTHORIZED_MEMBER,"넓은 원룸, 침대있음,  상태 아주깨끗하고  저렴",242,242,서울,동작구,empty,여의대방로36길 101,242,242,242,242,724,725,726,/homeImage/242/01.jpg,/homeImage/242/02.jpg,/homeImage/242/03.jpg,242,/hostImage/2.jpg,0,0,0,1,1,2,1,0,1
66060c61f5b1b2da474efb4c,1,1,1,1,1,1,1,0,1,0,1,0,1,1,OR,0,1,1,1,1,1,1,1,0,0,243,최예진,99,01097639869,M,김경희,01052888963,자녀,570315-1528257,xx-xxxxx-xxx,카카오,서울 동작구 대방동 17-39,50,37.509138,126.93186,UNAUTHORIZED_MEMBER,역세권신축급의 채광조은 큰 방,243,243,서울,동작구,empty,등용로9길 1,243,243,243,243,727,728,729,/homeImage/243/01.jpg,/homeImage/243/02.jpg,/homeImage/243/03.jpg,243,/hostImage/3.jpg,1,1,0,1,1,1,1,1,0
66060c61f5b1b2da474efb4d,1,1,1,1,1,1,1,0,1,0,1,1,1,1,OR,0,0,1,1,1,1,1,0,1,1,244,황순자,94,01098986641,F,오성진,01051393590,자녀,280606-1474674,xx-xxxxx-xxx,SC제일,서울 동작구 노량진동 270,40,37.512297,126.935181,UNAUTHORIZED_MEMBER,햇살맛집넉넉한평수깔끔한내실,244,244,서울,동작구,empty,등용로14길 66,244,244,244,244,730,731,732,/homeImage/244/01.jpg,/homeImage/244/02.jpg,/homeImage/244/03.jpg,244,/hostImage/4.jpg,1,1,0,1,1,2,0,0,1
66060c61f5b1b2da474efb4e,1,1,1,1,1,1,1,0,1,0,1,0,1,1,OR,1,0,1,0,0,0,1,0,1,1,245,강명자,75,01015541602,M,문순옥,01067270532,자녀,460010-2327451,xx-xxxxx-xxx,광주,서울 동작구 대방동 20-87,40,37.509329,126.931514,UNAUTHORIZED_MEMBER,역세권 신축급의 햇살조은 깔끔한 원룸,245,245,서울,동작구,empty,여의대방로36길 101,245,245,245,245,733,734,735,/homeImage/245/01.jpg,/homeImage/245/02.jpg,/homeImage/245/03.jpg,245,/hostImage/5.jpg,0,0,1,0,1,2,0,0,1
66060c61f5b1b2da474efb4f,1,1,1,1,1,1,1,0,1,0,0,0,1,1,OR,1,0,1,1,0,1,1,0,1,0,246,장지우,81,01015982083,F,이준영,01087692264,자녀,150218-2847864,xx-xxxxx-xxx,우체국,서울 동작구 대방동 20-48,43,37.509296,126.931714,MEMBER,"넓은방 아주 깨끗함, 바로 입주, 침대도 있음",246,246,서울,동작구,empty,여의대방로36길 101,246,246,246,246,736,737,738,/homeImage/246/01.jpg,/homeImage/246/02.jpg,/homeImage/246/03.jpg,246,/hostImage/6.jpg,1,0,1,1,1,1,0,0,1
66060c61f5b1b2da474efb50,1,1,1,1,1,1,1,0,1,0,1,0,1,1,OR,1,1,1,0,1,0,0,0,1,0,247,김예지,67,01071354352,M,김아름,01074585745,자녀,260225-2375162,xx-xxxxx-xxx,국민,서울 동작구 노량진동 206-8,45,37.512176,126.946913,MEMBER,깔끔하고 학원가에 인접한 원룸입니다,247,247,서울,동작구,empty,만양로14바길 5,247,247,247,247,739,740,741,/homeImage/247/01.jpg,/homeImage/247/02.jpg,/homeImage/247/03.jpg,247,/hostImage/7.jpg,0,1,1,0,0,1,1,0,1
66060c61f5b1b2da474efb51,0,1,1,0,1,1,0,1,1,0,1,0,1,0,OR,1,1,1,0,1,0,1,0,0,0,248,박영호,84,01064759314,F,이은주,01026174428,자녀,090303-2915304,xx-xxxxx-xxx,신한,서울 동작구 대방동 391-80,30,37.502483,126.924278,MEMBER,empty,248,248,서울,동작구,empty,대방동27길 61,248,248,248,248,742,743,744,/homeImage/248/01.jpg,/homeImage/248/02.jpg,/homeImage/248/03.jpg,248,/hostImage/8.jpg,0,1,1,0,1,1,1,0,0
66060c61f5b1b2da474efb52,1,1,0,0,0,0,1,0,0,0,1,1,0,0,OR,0,0,0,1,1,1,0,0,1,1,249,문성호,94,01021033258,F,박채원,01071434397,자녀,880609-2538610,xx-xxxxx-xxx,부산,서울 동작구 대방동 392-4,40,37.502583,126.927677,MEMBER,empty,249,249,서울,동작구,empty,대방동2길 33,249,249,249,249,745,746,747,/homeImage/249/01.jpg,/homeImage/249/02.jpg,/homeImage/249/03.jpg,249,/hostImage/9.jpg,1,1,0,1,0,1,0,0,1
66060c61f5b1b2da474efb53,1,1,0,1,1,0,1,0,1,1,1,0,1,1,OR,1,1,0,1,0,0,1,1,0,1,250,김진우,77,01002275963,F,최영희,01065038286,자녀,880009-2041898,xx-xxxxx-xxx,농협,서울 동작구 대방동 391-245,35,37.502724,126.924984,UNAUTHORIZED_MEMBER,empty,250,250,서울,동작구,empty,대방동15길 5,250,250,250,250,748,749,750,/homeImage/250/01.jpg,/homeImage/250/02.jpg,/homeImage/250/03.jpg,250,/hostImage/10.jpg,1,0,1,0,1,1,1,1,0
66060c61f5b1b2da474efb54,1,0,1,0,0,0,1,1,0,1,1,1,1,0,OR,0,1,1,0,1,1,0,1,1,1,251,이수빈,76,01040573552,F,김영희,01093171274,자녀,390414-2362795,xx-xxxxx-xxx,우리,서울 동작구 대방동 391-540,35,37.501324,126.927407,MEMBER,empty,251,251,서울,동작구,empty,대방동5길 4,251,251,251,251,751,752,753,/homeImage/251/01.jpg,/homeImage/251/02.jpg,/homeImage/251/03.jpg,251,/hostImage/11.jpg,0,1,0,1,0,2,1,1,1
66060c61f5b1b2da474efb55,1,1,1,1,1,1,1,0,1,0,0,1,1,1,DDDGG,0,0,0,0,1,0,0,1,1,0,252,김재호,92,01054570187,F,김미숙,01006245048,자녀,710214-2548568,xx-xxxxx-xxx,농협,서울 동작구 대방동 391-152,45,37.501173,126.925904,MEMBER,초역세권 합리적인 금액에 좋은 컨디션을 보여주는 원룸 소개해드립니다,252,252,서울,동작구,empty,대방동3길 29,252,252,252,252,754,755,756,/homeImage/252/01.jpg,/homeImage/252/02.jpg,/homeImage/252/03.jpg,252,/hostImage/12.jpg,0,1,0,0,0,0,0,1,1
66060c61f5b1b2da474efb56,1,1,1,1,1,1,1,1,1,0,0,1,1,1,DDDGG,1,1,1,0,1,1,1,0,0,0,253,이성수,96,01031437467,F,성건우,01017178856,자녀,210701-2245024,xx-xxxxx-xxx,우리,서울 동작구 상도동 248-24,40,37.500373,126.933337,MEMBER,채광 좋은 가성비 꿀 매물,253,253,서울,동작구,empty,성대로3길 17,253,253,253,253,757,758,759,/homeImage/253/01.jpg,/homeImage/253/02.jpg,/homeImage/253/03.jpg,253,/hostImage/13.jpg,0,1,1,1,1,1,1,0,0
