_id,internet,gas,washing_machine,air_conditioner,refrigerator,elevator,microwave,breakfast,toilet,heating,parking,station,move_in_date,sink,type,smoke,pet,clean,daytime,nighttime,extrovert,introvert,cold,hot,no_touch,home_no,host_age,host_phone,host_gender,host_name,guardian_name,guardian_phone,relation,host_register_no,host_bank,host_account_no,address,rent,lat,lng,register_member_role,introduce,host_personality_no,home_option_no,si,sgg,emd,ro,home_image_no,home_image[0].home_no,home_image[1].home_no,home_image[2].home_no,home_image[0].home_image_no,home_image[1].home_image_no,home_image[2].home_image_no,home_image[0].home_image_url,home_image[1].home_image_url,home_image[2].home_image_url,host_image_no,host_image_url,host_vector.day_element,host_vector.night_element,host_vector.smoke_element,host_vector.extro_element,host_vector.intro_element,host_vector.mannered_element,host_vector.pet_lover_element,host_vector.cold_element,host_vector.hot_element
660a420e9fbac23c9842c7a8,1,1,1,1,1,1,1,0,1,0,0,1,1,1,OR,1,0,0,1,0,1,0,1,0,0,1,92,01049724699,M,이현우,강준서,01056084505,자녀,330626-2174362,토스,012-924690846232,서울 성동구 성수동1가 7-3,70,37.548342,127.046468,USER,"뚝섬역 도보 3분, 컨디션 좋은 풀옵션 원룸",1,1,서울,성동구,empty,왕십리로14길 28,1,1,1,1,1,2,3,/homeImage/1/01.jpg,/homeImage/1/02.jpg,/homeImage/1/03.jpg,1,/hostImage/1.jpg,1,0,1,1,0,0,0,1,0
660a420e9fbac23c9842c7a9,1,1,1,1,1,1,1,1,1,0,1,0,1,1,VL,0,0,1,0,0,0,1,0,1,1,2,72,01088169864,F,이현지,이정자,01005525472,자녀,300727-2049725,제주,020-884492558342,서울 성동구 응봉동 265-96,35,37.552341,127.029985,UNAUTHORIZED_MEMBER,올수리 깨끗함,2,2,서울,성동구,empty,독서당로59가길 27,2,2,2,2,4,5,6,/homeImage/2/01.jpg,/homeImage/2/02.jpg,/homeImage/2/03.jpg,2,/hostImage/2.jpg,0,0,0,0,1,2,0,0,1
660a420e9fbac23c9842c7aa,1,1,1,1,1,1,1,0,1,0,0,1,1,1,OR,0,0,0,0,0,1,0,1,0,1,3,97,01010224090,F,노경자,김현지,01059818342,자녀,730607-2821929,전북,016-776752066551,서울 성동구 용답동 24-13,50,37.561471,127.054653,USER,풀옵션의 깔끔한 분리형 원룸 더블 역세권으로 교통편리,3,3,서울,성동구,empty,용답25길 4,3,3,3,3,7,8,9,/homeImage/3/01.jpg,/homeImage/3/02.jpg,/homeImage/3/03.jpg,3,/hostImage/3.jpg,0,0,0,1,0,1,0,1,0
660a420e9fbac23c9842c7ab,1,1,1,1,1,1,1,0,1,0,0,1,1,1,OR,1,0,1,0,1,1,1,1,1,0,4,91,01021351659,F,박선영,김영일,01055596634,자녀,070402-2013773,부산,013-375635537380,서울 성동구 용답동 24-13,25,37.561471,127.054653,UNAUTHORIZED_MEMBER,풀옵션의 깔끔한 분리형 원룸 더블 역세권으로 교통편리,4,4,서울,성동구,empty,용답25길 4,4,4,4,4,10,11,12,/homeImage/4/01.jpg,/homeImage/4/02.jpg,/homeImage/4/03.jpg,4,/hostImage/4.jpg,0,1,1,1,1,1,0,1,1
660a420e9fbac23c9842c7ac,1,1,1,1,1,1,1,0,1,0,1,0,1,1,DDDGG,0,0,1,1,1,1,1,1,1,1,5,86,01021687300,F,이서윤,김성민,01033090139,자녀,670509-1993736,경남,014-936782127315,서울 성동구 성수동2가 566-27,60,37.537809,127.055521,USER,투룸. 풀옵션. 수리된. 컨디션우수,5,5,서울,성동구,empty,성덕정17길 4,5,5,5,5,13,14,15,/homeImage/5/01.jpg,/homeImage/5/02.jpg,/homeImage/5/03.jpg,5,/hostImage/5.jpg,1,1,0,1,1,2,0,1,1
660a420e9fbac23c9842c7ad,1,1,1,1,1,1,1,0,1,0,0,1,1,1,DDDGG,0,1,1,0,0,1,1,0,0,1,6,93,01095420312,M,김영수,김춘자,01018975053,자녀,470428-1158428,국민,001-447287210643,서울 성동구 성수동2가 301-27,60,37.544543,127.050563,USER,"내부컨디션 깔끔한 분리형 원룸, 풀옵션",6,6,서울,성동구,성수동2가,empty,6,6,6,6,16,17,18,/homeImage/6/01.jpg,/homeImage/6/02.jpg,/homeImage/6/03.jpg,6,/hostImage/6.jpg,0,0,0,1,1,2,1,0,0
660a420e9fbac23c9842c7ae,1,1,1,1,1,1,1,0,1,0,0,1,1,1,DDDGG,1,1,0,0,1,1,1,0,1,1,7,78,01021774216,M,이광수,김혜진,01097053366,자녀,300206-2370877,케이,023-768442922084,서울 성동구 성수동1가 7-3,70,37.548342,127.046468,UNAUTHORIZED_MEMBER,뚝섬역 초역세권 분리형 원룸 풀옵션,7,7,서울,성동구,empty,왕십리로14길 28,7,7,7,7,19,20,21,/homeImage/7/01.jpg,/homeImage/7/02.jpg,/homeImage/7/03.jpg,7,/hostImage/7.jpg,0,1,1,1,1,1,1,0,1
660a420e9fbac23c9842c7af,1,1,1,1,1,1,1,0,1,0,0,1,1,1,DDDGG,0,0,1,0,1,1,0,0,1,0,8,93,01068662835,M,고승현,나승민,01059517400,자녀,980502-1762569,농협,005-088650214411,서울 성동구 성수동1가 656-342,55,37.551234,127.045418,USER,"뚝섬역7분거리, 3층, 오픈형원룸, 풀옵션,4월14일이후,직장인,한양대생",8,8,서울,성동구,성수동1가,empty,8,8,8,8,22,23,24,/homeImage/8/01.jpg,/homeImage/8/02.jpg,/homeImage/8/03.jpg,8,/hostImage/8.jpg,0,1,0,1,0,1,0,0,1
660a420e9fbac23c9842c7b0,1,1,1,1,1,1,1,0,1,0,1,1,1,1,OR,1,1,1,0,1,1,1,0,1,1,9,77,01009007620,M,김도현,이현준,01020177367,자녀,260924-2028655,전북,016-947331269085,서울 성동구 성수동1가 656-1010,70,37.542166,127.047105,UNAUTHORIZED_MEMBER,서울숲 맞은편 새촌 저렴한 월세 분당선 이용편리 더블역세권,9,9,서울,성동구,empty,성수일로1길 16,9,9,9,9,25,26,27,/homeImage/9/01.jpg,/homeImage/9/02.jpg,/homeImage/9/03.jpg,9,/hostImage/9.jpg,0,1,1,1,1,2,1,0,1
660a420e9fbac23c9842c7b1,1,1,1,1,1,1,1,0,1,0,0,1,1,1,DDDGG,1,0,1,0,0,1,0,1,0,0,10,66,01032938438,F,심경자,주은지,01058045052,자녀,500928-1644744,토스,012-939405627090,서울 성동구 성수동1가 656-827,55,37.548281,127.046287,USER,"뚝섬역 초역세권, 수리되어 깨끗한집, 방2개, 도배장판완료",10,10,서울,성동구,empty,왕십리로14길 26,10,10,10,10,28,29,30,/homeImage/10/01.jpg,/homeImage/10/02.jpg,/homeImage/10/03.jpg,10,/hostImage/10.jpg,0,0,1,1,0,1,0,1,0
660a420e9fbac23c9842c7b2,1,1,1,1,1,1,1,0,1,0,0,1,1,1,DDDGG,0,1,0,0,1,1,0,1,1,0,11,98,01075749487,F,노은영,김상호,01061960090,자녀,070812-2206879,우체국,009-007910493508,서울 성동구 성수동1가 656-342,55,37.551234,127.045418,UNAUTHORIZED_MEMBER,내부 넓고 깨끗한 풀옵션 원룸,11,11,서울,성동구,성수동1가,empty,11,11,11,11,31,32,33,/homeImage/11/01.jpg,/homeImage/11/02.jpg,/homeImage/11/03.jpg,11,/hostImage/11.jpg,0,1,0,1,0,0,1,1,1
660a420e9fbac23c9842c7b3,1,1,1,1,1,1,1,0,1,0,0,0,1,1,OR,0,1,1,1,0,0,0,1,1,0,12,70,01015491973,F,김현숙,이정순,01037529982,자녀,840900-2487524,SC제일,008-279771998097,서울 성동구 성수동2가 396,50,37.536861,127.050765,USER,"성수동 저렴한 월세, 넓직한 원룸, 주방 분리형 원룸",12,12,서울,성동구,empty,둘레9길 10,12,12,12,12,34,35,36,/homeImage/12/01.jpg,/homeImage/12/02.jpg,/homeImage/12/03.jpg,12,/hostImage/12.jpg,1,0,0,0,0,1,1,1,1
660a420e9fbac23c9842c7b4,1,1,1,1,1,1,1,0,1,0,0,1,1,1,OR,1,0,0,0,0,1,0,1,0,1,13,96,01035587889,F,이옥순,김미숙,01077043615,자녀,160503-1552856,국민,001-600411450238,서울 성동구 성수동1가 656-342,55,37.551234,127.045418,USER,내부 넓고 깨끗한 풀옵션 원룸 밝은 집,13,13,서울,성동구,성수동1가,empty,13,13,13,13,37,38,39,/homeImage/13/01.jpg,/homeImage/13/02.jpg,/homeImage/13/03.jpg,13,/hostImage/13.jpg,0,0,1,1,0,1,0,1,0
660a420e9fbac23c9842c7b5,1,1,1,1,1,1,1,0,1,0,0,1,1,1,OR,1,0,0,0,0,1,0,0,0,1,14,95,01033378725,F,김서연,이영수,01088115540,자녀,450302-2367843,우리,002-960922910079,서울 성동구 마장동 388-25,60,37.562444,127.042052,UNAUTHORIZED_MEMBER,채광되는 미니멀 투룸,14,14,서울,성동구,empty,마조로12길 1,14,14,14,14,40,41,42,/homeImage/14/01.jpg,/homeImage/14/02.jpg,/homeImage/14/03.jpg,14,/hostImage/14.jpg,0,0,1,1,0,1,0,0,0
660a420e9fbac23c9842c7b6,1,1,1,1,1,1,1,1,1,0,1,0,1,1,VL,1,0,0,1,0,0,1,0,1,1,15,79,01023778065,M,류영길,김영미,01067668719,자녀,160420-1130860,토스,012-492160432148,서울 성동구 응봉동 265-96,35,37.552341,127.029985,USER,올수리 깨끗,15,15,서울,성동구,empty,독서당로59가길 27,15,15,15,15,43,44,45,/homeImage/15/01.jpg,/homeImage/15/02.jpg,/homeImage/15/03.jpg,15,/hostImage/15.jpg,1,0,1,0,1,1,0,0,1
660a420e9fbac23c9842c7b7,1,1,1,1,1,1,1,0,1,0,0,0,1,1,OR,1,0,0,1,0,0,1,1,1,0,16,83,01085174429,F,박유진,김정훈,01059640842,자녀,940003-2742290,우체국,009-726821652115,서울 성동구 성수동2가 576-2,55,37.536906,127.055638,USER,"사진O 성수동 엘베O 풀옵션 원룸형,실5",16,16,서울,성동구,empty,둘레15길 24,16,16,16,16,46,47,48,/homeImage/16/01.jpg,/homeImage/16/02.jpg,/homeImage/16/03.jpg,16,/hostImage/16.jpg,1,0,1,0,1,0,0,1,1
660a420e9fbac23c9842c7b8,1,1,1,1,1,1,1,1,1,0,0,1,1,1,DDDGG,0,0,0,1,1,1,0,0,1,1,17,83,01004234216,M,이예준,문진우,01091889348,자녀,960320-1293797,케이,023-298014595625,서울 성동구 행당동 70-23,55,37.556268,127.041601,USER,"한양대정문 도보 3분, 리모델링 컨디션 좋음, 주택가 위치 조용합니다.",17,17,서울,성동구,empty,살곶이4길 8,17,17,17,17,49,50,51,/homeImage/17/01.jpg,/homeImage/17/02.jpg,/homeImage/17/03.jpg,17,/hostImage/17.jpg,1,1,0,1,0,1,0,0,1
660a420e9fbac23c9842c7b9,1,1,1,1,1,1,1,1,1,0,0,1,1,1,OR,0,1,1,0,1,0,0,1,1,1,18,88,01075107579,F,문현숙,최예준,01034812682,자녀,670422-1293442,씨티,007-343905931513,서울 성동구 행당동 20-17,45,37.558331,127.040211,UNAUTHORIZED_MEMBER,왕십리역 역세권 한양대인접 풀옵션원룸 즉시입주,18,18,서울,성동구,empty,마조로1길 2,18,18,18,18,52,53,54,/homeImage/18/01.jpg,/homeImage/18/02.jpg,/homeImage/18/03.jpg,18,/hostImage/18.jpg,0,1,0,0,0,2,1,1,1
660a420e9fbac23c9842c7ba,1,1,1,1,1,1,1,0,1,0,0,0,1,1,DDDGG,0,0,0,1,1,0,1,0,0,0,19,80,01022444569,M,심준영,조승현,01070737557,자녀,490608-2271810,씨티,007-376272170760,서울 성동구 성수동2가 566-27,60,37.537809,127.055521,UNAUTHORIZED_MEMBER,즉시입주. 수리된 2룸 월세,19,19,서울,성동구,empty,성덕정17길 4,19,19,19,19,55,56,57,/homeImage/19/01.jpg,/homeImage/19/02.jpg,/homeImage/19/03.jpg,19,/hostImage/19.jpg,1,1,0,0,1,0,0,0,0
660a420e9fbac23c9842c7bb,1,1,1,1,1,1,1,1,1,0,0,1,1,1,OR,0,0,1,0,1,0,1,1,0,0,20,74,01070318257,F,이경희,권영수,01080381877,자녀,380711-1082935,경남,014-136685782062,서울 성동구 마장동 797-7,35,37.563771,127.039048,USER,왕십리역 도보5분거리 조용한 원룸입니다.,20,20,서울,성동구,empty,마조로15길 24,20,20,20,20,58,59,60,/homeImage/20/01.jpg,/homeImage/20/02.jpg,/homeImage/20/03.jpg,20,/hostImage/20.jpg,0,1,0,0,1,1,0,1,0
660a420e9fbac23c9842c7bc,1,1,1,1,1,1,1,1,1,0,0,1,1,1,OPST,0,1,1,1,0,1,1,1,0,0,21,81,01064923831,M,심정수,김명자,01094687349,자녀,220224-2193879,우체국,009-555544989275,서울 성동구 마장동 777-3,60,37.567407,127.045813,USER,대로변 초역세권 복층 오피스텔,21,21,서울,성동구,empty,마장로46길 4,21,21,21,21,61,62,63,/homeImage/21/01.jpg,/homeImage/21/02.jpg,/homeImage/21/03.jpg,21,/hostImage/21.jpg,1,0,0,1,1,1,1,1,0
660a420e9fbac23c9842c7bd,1,1,1,1,1,1,1,0,1,0,1,1,1,1,OR,0,0,1,1,1,0,1,0,1,1,22,99,01023495007,M,김정훈,안성현,01065830919,자녀,370327-2320632,카카오,090-120680058266,서울 성동구 하왕십리동 956-2,66,37.563635,127.030671,USER,5월입주 대로변 엘베O 고층뷰 전입x 레지던스,22,22,서울,성동구,empty,왕십리로 353,22,22,22,22,64,65,66,/homeImage/22/01.jpg,/homeImage/22/02.jpg,/homeImage/22/03.jpg,22,/hostImage/22.jpg,1,1,0,0,1,2,0,0,1
660a420e9fbac23c9842c7be,1,1,1,1,1,1,1,1,1,0,0,1,1,1,OR,1,1,1,0,0,0,0,0,0,0,23,85,01091574859,M,김영길,김채원,01010473780,자녀,160125-1309498,케이,023-126789353073,서울 성동구 홍익동 398-6,55,37.565557,127.030744,USER,상왕십리역 인근 풀옵션 원룸,23,23,서울,성동구,empty,왕십리로30길 13,23,23,23,23,67,68,69,/homeImage/23/01.jpg,/homeImage/23/02.jpg,/homeImage/23/03.jpg,23,/hostImage/23.jpg,0,0,1,0,0,1,1,0,0
660a420e9fbac23c9842c7bf,1,1,1,1,1,1,1,0,1,0,1,0,1,1,DDDGG,0,0,1,1,1,0,0,0,1,1,24,70,01085989647,M,서주원,박상호,01069773377,자녀,030415-1885617,대구,015-233213234701,서울 성동구 마장동 559-6,50,37.567735,127.035215,UNAUTHORIZED_MEMBER,거실도있는 분리형원룸 풀옵션 저렴한월세,24,24,서울,성동구,empty,청계천로12나길 4,24,24,24,24,70,71,72,/homeImage/24/01.jpg,/homeImage/24/02.jpg,/homeImage/24/03.jpg,24,/hostImage/24.jpg,1,1,0,0,0,2,0,0,1
660a420e9fbac23c9842c7c0,1,1,1,1,1,1,1,1,1,0,1,1,1,1,DDDGG,1,0,0,1,1,1,1,0,1,0,25,92,01040753923,M,이정남,김민서,01087073796,자녀,390919-2308056,우체국,009-258641071253,서울 성동구 홍익동 398-6,70,37.565557,127.030744,UNAUTHORIZED_MEMBER,즉시입주 가능한 전용넓은 원룸입니다,25,25,서울,성동구,empty,왕십리로30길 13,25,25,25,25,73,74,75,/homeImage/25/01.jpg,/homeImage/25/02.jpg,/homeImage/25/03.jpg,25,/hostImage/25.jpg,1,1,1,1,1,0,0,0,1
660a420e9fbac23c9842c7c1,1,1,1,1,1,1,1,0,1,0,0,1,1,1,DDDGG,0,0,0,0,1,0,1,1,0,0,26,65,01081605109,M,김시우,김현정,01046294855,자녀,650009-1512864,부산,013-384662242038,서울 성동구 마장동 797-74,50,37.563896,127.039992,UNAUTHORIZED_MEMBER,"왕십리역세권, 조용한 주택가, 깨끗한 풀옵션 원룸",26,26,서울,성동구,empty,마조로15나길 5,26,26,26,26,76,77,78,/homeImage/26/01.jpg,/homeImage/26/02.jpg,/homeImage/26/03.jpg,26,/hostImage/26.jpg,0,1,0,0,1,0,0,1,0
660a420e9fbac23c9842c7c2,0,1,0,0,1,1,1,0,1,0,0,1,0,0,OR,0,1,0,0,0,1,1,0,1,0,27,83,01041635747,M,김도윤,홍영진,01039438029,자녀,480025-2533951,우체국,009-704215446626,서울 성동구 마장동 797-74,50,37.563896,127.039992,USER,empty,27,27,서울,성동구,empty,마조로15나길 5,27,27,27,27,79,80,81,/homeImage/27/01.jpg,/homeImage/27/02.jpg,/homeImage/27/03.jpg,27,/hostImage/27.jpg,0,0,0,1,1,0,1,0,1
660a420e9fbac23c9842c7c3,1,1,1,1,1,1,1,1,1,0,0,1,1,1,OR,1,1,0,0,0,1,0,0,1,1,28,82,01044077764,F,김혜진,박옥순,01016191176,자녀,350308-2774565,토스,012-124873212162,서울 성동구 마장동 797-6,35,37.564283,127.040484,USER,사이즈 정말좋은 깨끗한 풀옵션,28,28,서울,성동구,empty,마조로15나길 9,28,28,28,28,82,83,84,/homeImage/28/01.jpg,/homeImage/28/02.jpg,/homeImage/28/03.jpg,28,/hostImage/28.jpg,0,0,1,1,0,1,1,0,1
660a420e9fbac23c9842c7c4,1,1,1,1,1,1,1,1,1,0,0,1,1,1,OR,1,1,1,1,0,1,0,1,1,0,29,70,01000400486,F,윤수진,이도윤,01089881694,자녀,810425-2370174,국민,001-316352472314,서울 성동구 마장동 797-29,50,37.564646,127.038897,UNAUTHORIZED_MEMBER,즉시입주가능한 풀옵션,29,29,서울,성동구,empty,마조로19길 21,29,29,29,29,85,86,87,/homeImage/29/01.jpg,/homeImage/29/02.jpg,/homeImage/29/03.jpg,29,/hostImage/29.jpg,1,0,1,1,0,1,1,1,1
660a420e9fbac23c9842c7c5,1,1,1,1,1,1,1,1,1,0,0,0,1,1,OR,1,1,1,1,1,1,0,0,1,0,30,77,01076791288,F,한수민,박옥자,01089474359,자녀,590924-1424364,SC제일,008-030441128676,서울 성동구 마장동 566-34,60,37.566629,127.034902,USER,도선사거리 인접 컨디션좋은 풀옵션원룸 즉시입주,30,30,서울,성동구,empty,마장로27길 2,30,30,30,30,88,89,90,/homeImage/30/01.jpg,/homeImage/30/02.jpg,/homeImage/30/03.jpg,30,/hostImage/30.jpg,1,1,1,1,0,1,1,0,1
660a420e9fbac23c9842c7c6,1,1,1,1,1,1,1,1,1,0,1,0,1,1,APT,1,0,1,1,0,1,0,1,0,0,31,100,01045496346,F,장지아,이명숙,01051117111,자녀,440120-2456595,씨티,007-735440342278,서울 성동구 하왕십리동 258,45,37.568214,127.031981,UNAUTHORIZED_MEMBER,방2개 월세  화장실단독사용 여성분만가능 주차가능,31,31,서울,성동구,empty,무학로 50,31,31,31,31,91,92,93,/homeImage/31/01.jpg,/homeImage/31/02.jpg,/homeImage/31/03.jpg,31,/hostImage/31.jpg,1,0,1,1,0,1,0,1,0
660a420e9fbac23c9842c7c7,1,1,1,1,1,1,1,1,1,0,1,1,1,1,OR,1,1,0,1,1,1,1,0,0,0,32,95,01020505870,M,백영환,박보람,01002968283,자녀,170302-1527764,국민,001-567701778719,서울 성동구 홍익동 398-6,55,37.565557,127.030744,USER,즉시입주가능 저렴한 오픈형 풀옵션,32,32,서울,성동구,empty,왕십리로30길 13,32,32,32,32,94,95,96,/homeImage/32/01.jpg,/homeImage/32/02.jpg,/homeImage/32/03.jpg,32,/hostImage/32.jpg,1,1,1,1,1,0,1,0,0
660a420e9fbac23c9842c7c8,1,1,1,1,1,1,1,0,1,0,1,0,1,1,OR,1,0,0,0,1,1,0,0,0,0,33,79,01040890954,F,이영미,이준영,01049894967,자녀,210314-1461024,씨티,007-506054256869,서울 성동구 마장동 382-30,25,37.563012,127.044494,USER,통풍 잘 되고 햇빛이 잘 들어 쾌적한 2층 원룸,33,33,서울,성동구,empty,살곶이2가길 76,33,33,33,33,97,98,99,/homeImage/33/01.jpg,/homeImage/33/02.jpg,/homeImage/33/03.jpg,33,/hostImage/33.jpg,0,1,1,1,0,0,0,0,0
660a420e9fbac23c9842c7c9,1,1,1,1,1,1,1,0,1,0,0,0,1,1,DDDGG,1,1,0,1,1,0,0,0,1,0,34,93,01056720763,F,이순옥,우춘자,01070051469,자녀,740904-1496387,경남,014-369579344335,서울 성동구 마장동 556,40,37.567885,127.035843,USER,2층 방1칸 분리형 원룸 옵션x,34,34,서울,성동구,empty,마장로29길 29,34,34,34,34,100,101,102,/homeImage/34/01.jpg,/homeImage/34/02.jpg,/homeImage/34/03.jpg,34,/hostImage/34.jpg,1,1,1,0,0,0,1,0,1
660a420e9fbac23c9842c7ca,1,1,1,1,1,1,1,0,1,0,0,1,1,1,OR,1,1,1,0,1,1,0,1,0,1,35,93,01080450686,F,박영희,이영자,01038022479,자녀,770809-2675716,기업,006-021686708747,서울 성동구 하왕십리동 955-1,30,37.563538,127.030482,USER,풀옵션 원룸,35,35,서울,성동구,empty,무학봉15길 26,35,35,35,35,103,104,105,/homeImage/35/01.jpg,/homeImage/35/02.jpg,/homeImage/35/03.jpg,35,/hostImage/35.jpg,0,1,1,1,0,2,1,1,0
660a420e9fbac23c9842c7cb,1,1,1,1,1,1,1,1,1,0,1,1,1,1,OPST,0,1,0,0,0,1,0,1,1,1,36,90,01039369002,F,장혜진,곽민준,01023665840,자녀,680402-1717718,대구,015-309452988686,서울 성동구 행당동 192-29,70,37.565189,127.03674,USER,왕십리초역세권 도보3분 성동구청 바로옆 빠른 입주협의,36,36,서울,성동구,empty,고산자로 284,36,36,36,36,106,107,108,/homeImage/36/01.jpg,/homeImage/36/02.jpg,/homeImage/36/03.jpg,36,/hostImage/36.jpg,0,0,0,1,0,1,1,1,1
660a420e9fbac23c9842c7cc,1,1,1,1,1,1,1,1,1,0,0,1,1,1,OR,1,0,0,0,0,0,1,0,0,1,37,77,01066088087,M,이성민,윤정순,01029850200,자녀,760911-2590572,신한,003-933853691942,서울 성동구 마장동 800-1,65,37.563626,127.040083,USER,왕십리역 역세권 넓고 채광좋은 풀옵션원룸,37,37,서울,성동구,empty,마조로15길 13,37,37,37,37,109,110,111,/homeImage/37/01.jpg,/homeImage/37/02.jpg,/homeImage/37/03.jpg,37,/hostImage/37.jpg,0,0,1,0,1,1,0,0,0
660a420e9fbac23c9842c7cd,1,1,1,1,1,1,1,1,1,0,0,1,1,1,OR,1,0,0,1,0,0,1,0,0,1,38,99,01070323725,M,김승민,우현숙,01043539198,자녀,230327-1450118,농협,005-685563440132,서울 성동구 홍익동 398-6,70,37.565557,127.030744,UNAUTHORIZED_MEMBER,즉시입주 8P넓은 원룸 풀옵션 남향세대 공동보안,38,38,서울,성동구,empty,왕십리로30길 13,38,38,38,38,112,113,114,/homeImage/38/01.jpg,/homeImage/38/02.jpg,/homeImage/38/03.jpg,38,/hostImage/38.jpg,1,0,1,0,1,1,0,0,0
660a420e9fbac23c9842c7ce,1,1,1,1,1,1,1,0,1,0,0,1,1,1,DDDGG,0,1,1,0,1,0,1,1,1,1,39,71,01001172495,M,진정식,박미경,01096929818,자녀,900917-2098407,케이,023-298083424535,서울 성동구 마장동 777-6,60,37.567531,127.0456,USER,"마장역,답십리역5호선 신답역2호석 더블 역세권 원룸 즉시입주",39,39,서울,성동구,empty,마장로 328,39,39,39,39,115,116,117,/homeImage/39/01.jpg,/homeImage/39/02.jpg,/homeImage/39/03.jpg,39,/hostImage/39.jpg,0,1,0,0,1,2,1,1,1
660a420e9fbac23c9842c7cf,1,1,1,1,1,1,1,0,1,0,1,0,1,1,DDDGG,1,1,1,0,1,1,1,0,1,1,40,69,01018074510,M,허영길,이하윤,01047581384,자녀,010626-1976159,씨티,007-955307949051,서울 성동구 마장동 444-5,50,37.569326,127.033743,USER,도배장판 해드립니다 층간소음없는집,40,40,서울,성동구,empty,청계천로10나길 12,40,40,40,40,118,119,120,/homeImage/40/01.jpg,/homeImage/40/02.jpg,/homeImage/40/03.jpg,40,/hostImage/40.jpg,0,1,1,1,1,2,1,0,1
660a420e9fbac23c9842c7d0,1,1,1,1,1,1,1,0,1,0,1,0,1,1,DDDGG,0,0,1,0,1,0,0,1,0,0,41,82,01056278254,M,김광수,백영숙,01042746744,자녀,250423-2936383,광주,017-487857766022,서울 성동구 홍익동 268,40,37.565735,127.033513,UNAUTHORIZED_MEMBER,홍익동 넓은 다가구 1.5룸,41,41,서울,성동구,empty,무학로10길 24,41,41,41,41,121,122,123,/homeImage/41/01.jpg,/homeImage/41/02.jpg,/homeImage/41/03.jpg,41,/hostImage/41.jpg,0,1,0,0,0,1,0,1,0
660a420e9fbac23c9842c7d1,1,1,1,1,1,1,1,1,1,0,1,1,1,1,OPST,0,0,1,1,0,0,1,0,0,1,42,99,01087292735,F,홍순자,이현지,01071277780,자녀,970409-1616752,케이,023-193223439191,서울 성동구 용답동 238-12,63,37.559906,127.069378,UNAUTHORIZED_MEMBER,"중랑천고층뷰,저렴한월세 장한평역서희스타힐스오피스텔",42,42,서울,성동구,용답동,empty,42,42,42,42,124,125,126,/homeImage/42/01.jpg,/homeImage/42/02.jpg,/homeImage/42/03.jpg,42,/hostImage/42.jpg,1,0,0,0,1,2,0,0,0
660a420e9fbac23c9842c7d2,1,1,1,1,1,1,1,0,1,0,0,1,1,1,OPST,0,0,0,0,0,1,0,0,0,1,43,71,01025899917,M,백성민,윤정식,01053689833,자녀,390103-1581753,씨티,007-348938562988,서울 성동구 용답동 233-8,70,37.560731,127.065465,UNAUTHORIZED_MEMBER,장한평역 초역세권 전입 가능한 풀옵션 신축급 오피스텔 부라다,43,43,서울,성동구,empty,자동차시장1길 73,43,43,43,43,127,128,129,/homeImage/43/01.jpg,/homeImage/43/02.jpg,/homeImage/43/03.jpg,43,/hostImage/43.jpg,0,0,0,1,0,1,0,0,0
660a420e9fbac23c9842c7d3,1,1,1,1,1,1,1,1,1,0,1,0,1,1,OR,1,1,0,1,0,0,1,1,0,0,44,76,01031083558,M,박현준,김지후,01091534543,자녀,530607-1001851,신한,003-721336834442,서울 성동구 성수동2가 211-18,30,37.535879,127.059636,USER,"삼정 실5, 깔끔한 1층 원룸",44,44,서울,성동구,성수동2가,empty,44,44,44,44,130,131,132,/homeImage/44/01.jpg,/homeImage/44/02.jpg,/homeImage/44/03.jpg,44,/hostImage/44.jpg,1,0,1,0,1,0,1,1,0
660a420e9fbac23c9842c7d4,1,1,1,1,1,1,1,1,1,0,0,0,1,1,OR,0,1,0,0,1,0,1,0,1,1,45,70,01097400502,F,이윤서,이수민,01022155468,자녀,350209-2137631,수협,018-640102283191,서울 성동구 송정동 66-127,38,37.548881,127.067075,UNAUTHORIZED_MEMBER,"화양사거리 위치, 즉시입주가능, 풀옵션 반지층 분리형 원룸",45,45,서울,성동구,empty,송정10길 22,45,45,45,45,133,134,135,/homeImage/45/01.jpg,/homeImage/45/02.jpg,/homeImage/45/03.jpg,45,/hostImage/45.jpg,0,1,0,0,1,1,1,0,1
660a420e9fbac23c9842c7d5,1,1,1,1,1,1,1,1,1,0,0,1,1,1,DDDGG,1,0,0,1,1,1,0,1,0,0,46,91,01097622132,M,김영환,성옥순,01062944806,자녀,600305-2482993,카카오,090-150809983202,서울 마포구 노고산동 12-154,50,37.553671,126.9401,UNAUTHORIZED_MEMBER,"주방분리형원룸, 풀옵션, 신촌역 도보6분, 버스정류장 도보 6분, 이마트",46,46,서울,마포구,empty,고산2길 48,46,46,46,46,136,137,138,/homeImage/46/01.jpg,/homeImage/46/02.jpg,/homeImage/46/03.jpg,46,/hostImage/46.jpg,1,1,1,1,0,0,0,1,0
660a420e9fbac23c9842c7d6,1,1,1,1,1,1,1,1,1,0,1,0,1,1,OR,1,1,1,0,0,0,0,1,1,1,47,82,01036851530,M,이우진,김성진,01036526045,자녀,540610-2500965,우체국,009-511073988470,서울 마포구 연남동 223-98,60,37.565038,126.924926,UNAUTHORIZED_MEMBER,O 신축급 O 연남동 조용한 주택가 O,47,47,서울,마포구,empty,성미산로 165,47,47,47,47,139,140,141,/homeImage/47/01.jpg,/homeImage/47/02.jpg,/homeImage/47/03.jpg,47,/hostImage/47.jpg,0,0,1,0,0,2,1,1,1
660a420e9fbac23c9842c7d7,1,1,1,1,1,1,1,1,1,0,1,0,1,1,OR,0,1,0,1,1,1,1,0,0,1,48,71,01002689204,F,정은경,이예은,01046043245,자녀,410222-1448804,SC제일,008-843816581392,서울 마포구 연남동 223-98,60,37.565038,126.924926,USER,가성비 좋은 연남동 수리한 원룸,48,48,서울,마포구,empty,성미산로 165,48,48,48,48,142,143,144,/homeImage/48/01.jpg,/homeImage/48/02.jpg,/homeImage/48/03.jpg,48,/hostImage/48.jpg,1,1,0,1,1,1,1,0,0
660a420e9fbac23c9842c7d8,1,1,1,1,1,1,1,0,1,0,0,0,1,1,OR,1,0,1,0,1,0,1,1,0,0,49,93,01005199747,M,김영수,최미영,01079157056,자녀,010423-1403592,농협,005-446794974407,서울 마포구 연남동 228-4,46,37.563012,126.926085,UNAUTHORIZED_MEMBER,O 옥탑 옥상단독사용 O 깔끔한 분리형 O 기본옵션 O,49,49,서울,마포구,empty,성미산로 188,49,49,49,49,145,146,147,/homeImage/49/01.jpg,/homeImage/49/02.jpg,/homeImage/49/03.jpg,49,/hostImage/49.jpg,0,1,1,0,1,1,0,1,0
660a420e9fbac23c9842c7d9,1,1,1,1,1,1,1,0,1,0,0,0,1,1,OR,0,1,1,1,0,0,1,0,0,0,50,72,01004637383,M,양민석,최성민,01045262536,자녀,870910-1593602,토스,012-814940266256,서울 광진구 구의동 253-16,55,37.544241,127.084427,UNAUTHORIZED_MEMBER,"풀옵션 원룸, 어린이대공원 인근",50,50,서울,광진구,empty,자양로29길 8,50,50,50,50,148,149,150,/homeImage/50/01.jpg,/homeImage/50/02.jpg,/homeImage/50/03.jpg,50,/hostImage/50.jpg,1,0,0,0,1,1,1,0,0
660a420e9fbac23c9842c7da,1,1,1,1,1,1,1,0,1,0,0,0,1,1,OR,0,1,1,0,1,1,0,0,1,0,51,85,01062619730,F,이현주,강지민,01026216177,자녀,420717-2014199,기업,006-723856384229,서울 광진구 자양동 772-18,47,37.538407,127.079864,USER,핫한월세  풀옵션   월세에모든공과금포함요금  건대생에인기,51,51,서울,광진구,empty,자양로19길 68,51,51,51,51,151,152,153,/homeImage/51/01.jpg,/homeImage/51/02.jpg,/homeImage/51/03.jpg,51,/hostImage/51.jpg,0,1,0,1,0,1,1,0,1
660a420e9fbac23c9842c7db,1,1,1,1,1,1,1,1,1,0,0,0,1,1,DDDGG,1,0,0,1,1,1,1,0,1,0,52,86,01046255500,M,우정수,안미숙,01041621312,자녀,300511-2156898,SC제일,008-033913743519,서울 광진구 구의동 231-53,45,37.543875,127.089159,UNAUTHORIZED_MEMBER,깔끔하고 넓은 풀옵션 통원룸,52,52,서울,광진구,empty,자양로32길 70,52,52,52,52,154,155,156,/homeImage/52/01.jpg,/homeImage/52/02.jpg,/homeImage/52/03.jpg,52,/hostImage/52.jpg,1,1,1,1,1,0,0,0,1
660a420e9fbac23c9842c7dc,1,1,1,1,1,1,1,1,1,0,0,1,1,1,DDDGG,0,1,1,0,0,0,0,1,0,1,53,82,01018045835,F,김미정,김민수,01078718510,자녀,260014-1859821,부산,013-323408188720,서울 광진구 능동 224-40,45,37.555347,127.079824,USER,"군자역 초역세권 원룸, 옥상이용가능",53,53,서울,광진구,empty,능동로34길 12,53,53,53,53,157,158,159,/homeImage/53/01.jpg,/homeImage/53/02.jpg,/homeImage/53/03.jpg,53,/hostImage/53.jpg,0,0,0,0,0,2,1,1,0
660a420e9fbac23c9842c7dd,1,1,1,1,1,1,1,1,1,0,0,1,1,1,OR,1,1,1,1,1,0,0,0,1,0,54,84,01035624308,M,김민수,류민재,01050253885,자녀,490721-2709960,우체국,009-242174894713,서울 광진구 능동 221-18,50,37.555768,127.079246,USER,"지하철군자역 도보1분 교통편리, 5호선,7호선 출퇴근직장인 적합",54,54,서울,광진구,empty,천호대로110길 30,54,54,54,54,160,161,162,/homeImage/54/01.jpg,/homeImage/54/02.jpg,/homeImage/54/03.jpg,54,/hostImage/54.jpg,1,1,1,0,0,1,1,0,1
660a420e9fbac23c9842c7de,1,1,1,1,1,1,1,1,1,0,0,1,1,1,OR,0,0,1,0,1,0,0,1,1,1,55,67,01054266152,M,김주원,김상철,01048810655,자녀,180610-1339011,기업,006-249862701004,서울 광진구 구의동 246-8,60,37.537677,127.085115,USER,"리모델링한 신축급 풀옵션 원룸, 구의역 1분",55,55,서울,광진구,empty,자양로18길 26,55,55,55,55,163,164,165,/homeImage/55/01.jpg,/homeImage/55/02.jpg,/homeImage/55/03.jpg,55,/hostImage/55.jpg,0,1,0,0,0,2,0,1,1
660a420e9fbac23c9842c7df,1,1,1,1,1,1,1,0,1,0,0,1,1,1,DDDGG,0,1,0,0,1,0,1,1,1,1,56,94,01026417583,M,송정수,강성훈,01022040791,자녀,690726-2195964,토스,012-512144970089,서울 광진구 자양동 850-5,55,37.537757,127.067473,USER,올수리2년차 보증금최소월세 대출없음,56,56,서울,광진구,empty,뚝섬로23길 75,56,56,56,56,166,167,168,/homeImage/56/01.jpg,/homeImage/56/02.jpg,/homeImage/56/03.jpg,56,/hostImage/56.jpg,0,1,0,0,1,1,1,1,1
660a420e9fbac23c9842c7e0,1,1,1,1,1,1,1,1,1,0,0,1,1,1,DDDGG,0,0,1,0,0,0,0,1,0,0,57,78,01031517159,F,김서연,민재호,01075051319,자녀,980622-2878769,신한,003-781697809736,서울 광진구 자양동 12-13,60,37.539191,127.065127,USER,"옥상 단독 사용, 풀옵션 공간 활용 좋은 원룸",57,57,서울,광진구,empty,동일로18나길 6,57,57,57,57,169,170,171,/homeImage/57/01.jpg,/homeImage/57/02.jpg,/homeImage/57/03.jpg,57,/hostImage/57.jpg,0,0,0,0,0,1,0,1,0
660a420e9fbac23c9842c7e1,1,1,1,1,1,1,1,0,1,0,1,0,1,1,OR,1,1,0,1,0,0,0,0,0,1,58,76,01031047633,F,김지영,이주원,01029953756,자녀,650114-1845937,씨티,007-426118124966,서울 광진구 자양동 40-14,30,37.537696,127.064466,UNAUTHORIZED_MEMBER,건대입구역세권 도보8분 깔끔한 풀옵션 원룸,58,58,서울,광진구,empty,동일로10다길 8,58,58,58,58,172,173,174,/homeImage/58/01.jpg,/homeImage/58/02.jpg,/homeImage/58/03.jpg,58,/hostImage/58.jpg,1,0,1,0,0,1,1,0,0
660a420e9fbac23c9842c7e2,1,1,1,1,1,1,1,0,1,0,0,1,1,1,OR,0,1,1,0,1,1,0,0,0,1,59,83,01029678204,F,장옥순,이병철,01085468722,자녀,780816-2322581,광주,017-690232720259,서울 광진구 구의동 217-10,50,37.538448,127.093432,USER,풀옵션 남향 밝고 깨끗 초역세권 즉시입주가능,59,59,서울,광진구,empty,구의강변로 87,59,59,59,59,175,176,177,/homeImage/59/01.jpg,/homeImage/59/02.jpg,/homeImage/59/03.jpg,59,/hostImage/59.jpg,0,1,0,1,0,2,1,0,0
660a420e9fbac23c9842c7e3,1,1,1,1,1,1,1,1,1,0,0,0,1,1,DDDGG,1,0,1,1,1,0,1,0,1,1,60,73,01021928191,M,조정호,서상철,01029650501,자녀,900625-2914017,하나,004-884933972913,서울 광진구 중곡동 583-5,29,37.571071,127.080557,UNAUTHORIZED_MEMBER,중곡동 깔끔한 풀옵션 원룸,60,60,서울,광진구,empty,답십리로74길 11,60,60,60,60,178,179,180,/homeImage/60/01.jpg,/homeImage/60/02.jpg,/homeImage/60/03.jpg,60,/hostImage/60.jpg,1,1,1,0,1,2,0,0,1
660a420e9fbac23c9842c7e4,0,0,0,1,0,0,1,0,1,1,1,0,1,0,OR,0,1,1,0,0,0,1,0,0,1,61,83,01025675050,M,윤승현,김은지,01032182413,자녀,700106-2364267,SC제일,008-508953167007,서울 광진구 자양동 605-27,30,37.531167,127.078616,USER,empty,61,61,서울,광진구,empty,자양번영로4길 59,61,61,61,61,181,182,183,/homeImage/61/01.jpg,/homeImage/61/02.jpg,/homeImage/61/03.jpg,61,/hostImage/61.jpg,0,0,0,0,1,2,1,0,0
660a420e9fbac23c9842c7e5,1,1,1,1,1,1,1,1,1,0,1,1,1,1,OR,1,1,0,0,0,1,0,1,1,0,62,90,01011935868,F,한예지,이예진,01000954442,자녀,370716-2339387,산업,011-787893678876,서울 양천구 신정동 928-26,35,37.52506,126.853333,USER,신정역2분 풀옵션 빠른입주가능,62,62,서울,양천구,empty,오목로29길 3,62,62,62,62,184,185,186,/homeImage/62/01.jpg,/homeImage/62/02.jpg,/homeImage/62/03.jpg,62,/hostImage/62.jpg,0,0,1,1,0,0,1,1,1
660a420e9fbac23c9842c7e6,1,1,1,1,1,1,1,1,1,0,1,1,1,1,DDDGG,0,1,0,0,0,0,0,0,0,0,63,97,01060920291,F,이하윤,박지민,01027354283,자녀,240326-1466444,우리,002-524324370725,서울 양천구 신월동 503-15,40,37.523038,126.850488,UNAUTHORIZED_MEMBER,"신정네거리역,신정역 풀옵션1.5룸 주차가능 단기임대",63,63,서울,양천구,empty,중앙로49길 11,63,63,63,63,187,188,189,/homeImage/63/01.jpg,/homeImage/63/02.jpg,/homeImage/63/03.jpg,63,/hostImage/63.jpg,0,0,0,0,0,0,1,0,0
660a420e9fbac23c9842c7e7,1,1,1,1,1,1,1,0,1,0,1,0,1,1,DDDGG,1,1,0,1,1,0,1,0,0,0,64,69,01091168401,F,이경숙,김영호,01014130716,자녀,830116-2086431,우리,002-867860063218,서울 양천구 신월동 575-11,40,37.518012,126.842758,USER,"상태깨끗,이사협의,생활편리,교통이용편리",64,64,서울,양천구,empty,남부순환로79길 31,64,64,64,64,190,191,192,/homeImage/64/01.jpg,/homeImage/64/02.jpg,/homeImage/64/03.jpg,64,/hostImage/64.jpg,1,1,1,0,1,0,1,0,0
660a420e9fbac23c9842c7e8,1,1,1,1,1,1,1,0,1,0,0,1,1,1,DDDGG,1,1,0,0,1,0,0,0,1,1,65,80,01042827954,M,최승민,김지은,01051515631,자녀,960711-1138238,신한,003-345049461055,서울 양천구 신정동 1210-12,35,37.519834,126.849902,USER,방2화1 지하철도보이용 도배.장판.씽크대 수리함. 방넓고 주방공간있어요,65,65,서울,양천구,empty,중앙로39길 22,65,65,65,65,193,194,195,/homeImage/65/01.jpg,/homeImage/65/02.jpg,/homeImage/65/03.jpg,65,/hostImage/65.jpg,0,1,1,0,0,1,1,0,1
660a420e9fbac23c9842c7e9,1,1,1,1,1,1,1,1,1,0,0,1,1,1,DDDGG,1,1,1,0,0,0,1,1,1,0,66,82,01015093893,M,김광수,박정식,01050781231,자녀,630612-2058414,제주,020-160330269758,서울 양천구 신정동 1210-12,40,37.519834,126.849902,UNAUTHORIZED_MEMBER,방2화1베1 저렴한지상층 주방공간O 지하철도보이용 연식대비깔끔 언덕위치함,66,66,서울,양천구,empty,중앙로39길 22,66,66,66,66,196,197,198,/homeImage/66/01.jpg,/homeImage/66/02.jpg,/homeImage/66/03.jpg,66,/hostImage/66.jpg,0,0,1,0,1,1,1,1,1
660a420e9fbac23c9842c7ea,1,1,1,1,1,1,1,1,1,0,0,1,1,1,DDDGG,0,0,1,1,0,1,1,1,1,0,67,76,01019139558,F,김서윤,한지민,01082842418,자녀,650317-1649229,전북,016-179790600499,서울 양천구 신정동 1193-5,30,37.52194,126.849647,UNAUTHORIZED_MEMBER,신정네거리역세권. 계단없는 지층. 방1.화1. 상태깨끗해요,67,67,서울,양천구,empty,중앙로45길 28,67,67,67,67,199,200,201,/homeImage/67/01.jpg,/homeImage/67/02.jpg,/homeImage/67/03.jpg,67,/hostImage/67.jpg,1,0,0,1,1,1,0,1,1
660a420e9fbac23c9842c7eb,1,1,1,1,1,1,1,1,1,0,1,1,1,1,DDDGG,1,0,0,0,1,1,1,1,0,1,68,92,01036417627,F,오영자,김은정,01067222569,자녀,760124-2556714,경남,014-944618798172,서울 양천구 신정동 1193-5,35,37.52194,126.849647,UNAUTHORIZED_MEMBER,계단없음 지층임1층같음 방 주방 크고 깨끗함 즉시입주 신정네거리역5분,68,68,서울,양천구,empty,중앙로45길 28,68,68,68,68,202,203,204,/homeImage/68/01.jpg,/homeImage/68/02.jpg,/homeImage/68/03.jpg,68,/hostImage/68.jpg,0,1,1,1,1,1,0,1,0
660a420e9fbac23c9842c7ec,1,1,1,1,1,1,1,0,1,0,1,1,1,1,DDDGG,0,0,0,1,0,0,1,1,1,0,69,99,01009831507,F,김선영,최예준,01002608341,자녀,530809-2889987,씨티,007-503473202421,서울 양천구 신정동 1050-4,35,37.519244,126.854831,USER,"전철3분,신서학군,즉시입주,공원앞",69,69,서울,양천구,empty,중앙로36길 8,69,69,69,69,205,206,207,/homeImage/69/01.jpg,/homeImage/69/02.jpg,/homeImage/69/03.jpg,69,/hostImage/69.jpg,1,0,0,0,1,0,0,1,1
660a420e9fbac23c9842c7ed,1,1,1,1,1,1,1,1,1,0,0,0,1,1,DDDGG,0,0,1,1,0,1,0,0,1,1,70,82,01014401382,M,김건우,하춘자,01082924900,자녀,000117-1840054,토스,012-805099733249,서울 양천구 신정동 1029-7,60,37.521049,126.854274,USER,올수리 투룸 옥상마당 사용가능 사무실 공방 등 사용가능,70,70,서울,양천구,empty,신월로 300,70,70,70,70,208,209,210,/homeImage/70/01.jpg,/homeImage/70/02.jpg,/homeImage/70/03.jpg,70,/hostImage/70.jpg,1,0,0,1,0,2,0,0,1
660a420e9fbac23c9842c7ee,1,1,1,1,1,1,1,0,1,0,0,1,1,1,DDDGG,1,0,1,1,1,0,1,0,1,0,71,68,01013029951,F,이보람,이현지,01024735164,자녀,230027-1142405,케이,023-894277472058,서울 양천구 신정동 1201-7,35,37.520162,126.850106,UNAUTHORIZED_MEMBER,"깔끔수리 함,즉시입주,전철5분",71,71,서울,양천구,empty,중앙로45길 25,71,71,71,71,211,212,213,/homeImage/71/01.jpg,/homeImage/71/02.jpg,/homeImage/71/03.jpg,71,/hostImage/71.jpg,1,1,1,0,1,1,0,0,1
660a420e9fbac23c9842c7ef,1,1,1,1,1,1,1,1,1,0,0,1,1,1,DDDGG,0,1,1,0,1,1,0,1,0,0,72,78,01095339855,F,장미영,박윤서,01088624578,자녀,610918-1826691,부산,013-827942802303,서울 양천구 신정동 1206-10,25,37.519564,126.850667,UNAUTHORIZED_MEMBER,"분리형 원룸, 풀옵션, 옥상 마당 사용 가능한 옥탑",72,72,서울,양천구,empty,중앙로47길 20,72,72,72,72,214,215,216,/homeImage/72/01.jpg,/homeImage/72/02.jpg,/homeImage/72/03.jpg,72,/hostImage/72.jpg,0,1,0,1,0,1,1,1,0
660a420e9fbac23c9842c7f0,1,1,1,1,1,1,1,1,1,0,1,1,1,1,DDDGG,0,1,0,0,0,1,1,0,0,1,73,92,01086559511,F,이유진,이준호,01082411124,자녀,760902-2533983,신한,003-413247204959,서울 양천구 신정동 940-39,40,37.524496,126.851967,UNAUTHORIZED_MEMBER,역세권 I 대로변 1.5룸 월세 I 설명란 확인,73,73,서울,양천구,empty,오목로 131,73,73,73,73,217,218,219,/homeImage/73/01.jpg,/homeImage/73/02.jpg,/homeImage/73/03.jpg,73,/hostImage/73.jpg,0,0,0,1,1,1,1,0,0
660a420e9fbac23c9842c7f1,1,1,1,1,1,1,1,1,1,0,0,1,1,1,DDDGG,1,0,0,0,0,0,1,0,0,0,74,73,01084233653,F,박영희,이승현,01091933203,자녀,650704-2751211,농협,005-140392776756,서울 양천구 신정동 1210-12,35,37.519834,126.849902,USER,"도배장판,싱크대,변기교체. 지하철역인접. 계단없는바닥1층",74,74,서울,양천구,empty,중앙로39길 22,74,74,74,74,220,221,222,/homeImage/74/01.jpg,/homeImage/74/02.jpg,/homeImage/74/03.jpg,74,/hostImage/74.jpg,0,0,1,0,1,0,0,0,0
660a420e9fbac23c9842c7f2,1,1,1,1,1,1,1,1,1,1,1,1,1,1,DDDGG,0,0,0,1,1,1,0,1,1,0,75,66,01008146224,M,권성진,박지우,01010752291,자녀,820614-1056774,기업,006-604868495360,서울 양천구 신정동 1160-6,25,37.517218,126.849807,UNAUTHORIZED_MEMBER,즉시입주가 계단없는 지층 에어컨 가스렌지있음 상태 양호,75,75,서울,양천구,empty,중앙로47길 47,75,75,75,75,223,224,225,/homeImage/75/01.jpg,/homeImage/75/02.jpg,/homeImage/75/03.jpg,75,/hostImage/75.jpg,1,1,0,1,0,0,0,1,1
660a420e9fbac23c9842c7f3,1,1,1,1,1,1,1,0,1,0,1,0,1,1,VL,0,0,0,1,1,1,0,0,0,0,76,100,01019563637,M,최종수,최미영,01083347984,자녀,050200-1357142,부산,013-801331912789,서울 양천구 신정동 1216-1,40,37.519335,126.848704,UNAUTHORIZED_MEMBER,보증금 조정가능 진입이 편리하며 거주자 우선주차지역 방 오전만 볼수있음,76,76,서울,양천구,empty,중앙로29길 88,76,76,76,76,226,227,228,/homeImage/76/01.jpg,/homeImage/76/02.jpg,/homeImage/76/03.jpg,76,/hostImage/76.jpg,1,1,0,1,0,0,0,0,0
660a420e9fbac23c9842c7f4,1,1,1,1,1,1,1,1,1,0,0,1,1,1,DDDGG,0,0,1,0,0,1,0,1,1,0,77,66,01067269896,F,강현지,김하은,01083504597,자녀,340419-2474751,우체국,009-829409073513,서울 양천구 신정동 1210-12,40,37.519834,126.849902,USER,"싱크대,변기,벽지,바닥교체. 지하철역인접.보일러실 넓어요. 1.5층",77,77,서울,양천구,empty,중앙로39길 22,77,77,77,77,229,230,231,/homeImage/77/01.jpg,/homeImage/77/02.jpg,/homeImage/77/03.jpg,77,/hostImage/77.jpg,0,0,0,1,0,1,0,1,1
660a420e9fbac23c9842c7f5,1,1,1,1,1,1,1,0,1,0,0,1,1,1,OR,1,0,1,0,0,0,1,0,1,1,78,96,01070354905,F,이은정,이영철,01003710575,자녀,670427-1926897,경남,014-789874900015,서울 양천구 목동 526-17,30,37.545565,126.874293,USER,"염창역도보2분,풀옵션",78,78,서울,양천구,empty,목동중앙북로 102,78,78,78,78,232,233,234,/homeImage/78/01.jpg,/homeImage/78/02.jpg,/homeImage/78/03.jpg,78,/hostImage/78.jpg,0,0,1,0,1,2,0,0,1
660a420e9fbac23c9842c7f6,1,1,1,1,1,1,1,0,1,0,0,0,1,1,OR,1,1,1,1,0,1,0,1,1,0,79,79,01069727281,M,권상현,박건우,01061792638,자녀,720220-2235053,케이,023-169160610225,서울 양천구 목동 789-37,30,37.533452,126.865459,UNAUTHORIZED_MEMBER,목사거리인근 신축급 올수리 여성전용 원룸,79,79,서울,양천구,empty,목동중앙서로3길 20,79,79,79,79,235,236,237,/homeImage/79/01.jpg,/homeImage/79/02.jpg,/homeImage/79/03.jpg,79,/hostImage/79.jpg,1,0,1,1,0,1,1,1,1
660a420e9fbac23c9842c7f7,1,1,1,1,1,1,1,0,1,0,0,1,1,1,OR,1,0,1,1,0,0,1,0,1,1,80,67,01043212675,F,김지영,윤은영,01036435306,자녀,400519-2686684,수협,018-511862978829,서울 양천구 목동 526-17,30,37.545565,126.874293,USER,염창역 최저가 풀옵션 관리 잘해서 깔끔한 원룸,80,80,서울,양천구,empty,목동중앙북로 102,80,80,80,80,238,239,240,/homeImage/80/01.jpg,/homeImage/80/02.jpg,/homeImage/80/03.jpg,80,/hostImage/80.jpg,1,0,1,0,1,2,0,0,1
660a420e9fbac23c9842c7f8,1,1,1,1,1,1,1,1,1,0,0,0,1,1,VL,0,1,0,1,0,0,1,1,1,1,81,66,01026873561,M,조성민,이지은,01027103973,자녀,970506-1768166,산업,011-446945384043,서울 양천구 목동 779-16,47,37.534834,126.866647,UNAUTHORIZED_MEMBER,깔끔하고 실용적인 저렴한 원룸월세,81,81,서울,양천구,empty,목동중앙서로11길 65,81,81,81,81,241,242,243,/homeImage/81/01.jpg,/homeImage/81/02.jpg,/homeImage/81/03.jpg,81,/hostImage/81.jpg,1,0,0,0,1,1,1,1,1
660a420e9fbac23c9842c7f9,1,1,1,1,1,1,1,1,1,0,1,0,1,1,DDDGG,1,0,0,1,0,1,0,1,1,0,82,90,01061774713,F,김명숙,최은경,01012388935,자녀,430215-1950566,우체국,009-825599347610,서울 양천구 목동 788-5,40,37.533862,126.864318,UNAUTHORIZED_MEMBER,주차가능.옥탑방전용면적9.넓음.풀옵션.옥상씀.큰도로옆안전,82,82,서울,양천구,empty,목동중앙서로7나길 11,82,82,82,82,244,245,246,/homeImage/82/01.jpg,/homeImage/82/02.jpg,/homeImage/82/03.jpg,82,/hostImage/82.jpg,1,0,1,1,0,0,0,1,1
660a420e9fbac23c9842c7fa,1,1,1,1,0,1,1,0,1,1,0,1,0,0,OR,0,0,1,1,1,1,0,0,0,0,83,78,01095179336,F,홍미경,홍지연,01048926420,자녀,950517-1026849,우체국,009-956332834974,서울 양천구 목동 604-2,41,37.550155,126.86598,USER,empty,83,83,서울,양천구,empty,공항대로 542,83,83,83,83,247,248,249,/homeImage/83/01.jpg,/homeImage/83/02.jpg,/homeImage/83/03.jpg,83,/hostImage/83.jpg,1,1,0,1,0,1,0,0,0
660a420e9fbac23c9842c7fb,1,1,1,1,1,1,1,1,1,0,1,0,1,1,DDDGG,0,1,1,1,0,0,1,1,0,1,84,100,01096830703,F,김예원,박지혜,01085222053,자녀,110911-1935230,우리,002-717509050346,서울 양천구 목동 789-30,40,37.533696,126.865138,UNAUTHORIZED_MEMBER,조용한 주택가. 바닥층. 도배 등 수리되어깨끗. 대중교통이용편리,84,84,서울,양천구,empty,목동중앙서로7길 17,84,84,84,84,250,251,252,/homeImage/84/01.jpg,/homeImage/84/02.jpg,/homeImage/84/03.jpg,84,/hostImage/84.jpg,1,0,0,0,1,2,1,1,0
660a420e9fbac23c9842c7fc,1,1,1,1,1,1,1,1,1,0,1,0,1,1,DDDGG,0,0,1,1,1,1,0,0,1,1,85,85,01043817034,F,이예원,최성수,01005719759,자녀,910203-2639754,제주,020-145221652668,서울 양천구 목동 789-30,40,37.533696,126.865138,UNAUTHORIZED_MEMBER,올수리 깨끗한 방2,85,85,서울,양천구,empty,목동중앙서로7길 17,85,85,85,85,253,254,255,/homeImage/85/01.jpg,/homeImage/85/02.jpg,/homeImage/85/03.jpg,85,/hostImage/85.jpg,1,1,0,1,0,2,0,0,1
660a420e9fbac23c9842c7fd,1,1,1,1,1,1,1,0,1,0,0,1,1,1,OR,1,1,0,0,0,0,1,0,0,0,86,73,01040937042,M,이도현,김현우,01089737620,자녀,450023-1305556,대구,015-595319070244,서울 양천구 목동 604-2,41,37.550155,126.86598,USER,등촌역 초역세권 보증금 저렴한 원룸,86,86,서울,양천구,empty,공항대로 542,86,86,86,86,256,257,258,/homeImage/86/01.jpg,/homeImage/86/02.jpg,/homeImage/86/03.jpg,86,/hostImage/86.jpg,0,0,1,0,1,0,1,0,0
660a420e9fbac23c9842c7fe,1,1,1,1,1,1,1,1,1,0,0,1,1,1,OR,1,0,0,0,0,0,0,1,0,0,87,77,01020024577,M,장성민,이승현,01091470486,자녀,670707-1912855,카카오,090-010092532551,서울 양천구 목동 604-2,41,37.550155,126.86598,USER,"안전한 대로변위치,9호선 등촌역 깨끗한 풀옵션",87,87,서울,양천구,empty,공항대로 542,87,87,87,87,259,260,261,/homeImage/87/01.jpg,/homeImage/87/02.jpg,/homeImage/87/03.jpg,87,/hostImage/87.jpg,0,0,1,0,0,0,0,1,0
660a420e9fbac23c9842c7ff,1,1,1,1,1,1,1,0,1,0,0,1,1,1,VL,1,0,0,1,0,1,1,0,0,1,88,67,01079285294,M,박정수,한서현,01059047207,자녀,160824-1600464,대구,015-818734540191,서울 양천구 신정동 999-24,57,37.524506,126.862248,USER,풀옵션 깔끔 채광좋은 바닥층 목동역4분 빌라형 다가구,88,88,서울,양천구,empty,목동로17길 16,88,88,88,88,262,263,264,/homeImage/88/01.jpg,/homeImage/88/02.jpg,/homeImage/88/03.jpg,88,/hostImage/88.jpg,1,0,1,1,1,1,0,0,0
660a420e9fbac23c9842c800,1,1,1,1,1,1,1,1,1,0,0,1,1,1,DDDGG,0,1,1,0,1,1,0,0,0,0,89,90,01051178792,M,이병철,조영숙,01055093972,자녀,930621-2706890,농협,005-327523916743,서울 양천구 신정동 888-4,35,37.527068,126.861904,UNAUTHORIZED_MEMBER,목동역 단독주택에 있는 옥탑 입니다.,89,89,서울,양천구,empty,신정중앙로21길 12,89,89,89,89,265,266,267,/homeImage/89/01.jpg,/homeImage/89/02.jpg,/homeImage/89/03.jpg,89,/hostImage/89.jpg,0,1,0,1,0,1,1,0,0
660a420e9fbac23c9842c801,1,1,1,1,1,1,1,1,1,0,1,0,1,1,DDDGG,1,1,1,0,1,0,1,1,1,0,90,70,01026124398,M,서주원,오정호,01005992154,자녀,680424-2911925,신한,003-322691790222,서울 양천구 신월동 153-5,25,37.534563,126.824885,UNAUTHORIZED_MEMBER,신월3동옥탑방,90,90,서울,양천구,empty,가로공원로60길 8,90,90,90,90,268,269,270,/homeImage/90/01.jpg,/homeImage/90/02.jpg,/homeImage/90/03.jpg,90,/hostImage/90.jpg,0,1,1,0,1,1,1,1,1
660a420e9fbac23c9842c802,1,1,1,1,1,1,1,0,1,0,0,0,1,1,OR,1,0,1,0,1,0,1,0,1,1,91,93,01076099825,M,김성진,김성훈,01056103968,자녀,700822-2243311,대구,015-486691851098,서울 양천구 신월동 166-10,42,37.534291,126.829007,UNAUTHORIZED_MEMBER,"JS드림,대로변,복층,저렴한관리비",91,91,서울,양천구,empty,남부순환로 368,91,91,91,91,271,272,273,/homeImage/91/01.jpg,/homeImage/91/02.jpg,/homeImage/91/03.jpg,91,/hostImage/91.jpg,0,1,1,0,1,2,0,0,1
660a420e9fbac23c9842c803,1,1,1,1,1,1,1,1,1,0,0,0,1,1,OR,0,0,0,0,0,0,1,0,0,1,92,77,01026121101,M,한상철,이민수,01074946722,자녀,030427-1851137,산업,011-309328929124,서울 양천구 신월동 166-10,44,37.534291,126.829007,UNAUTHORIZED_MEMBER,"JS드림,대로변,복층,저렴한관리비",92,92,서울,양천구,empty,남부순환로 368,92,92,92,92,274,275,276,/homeImage/92/01.jpg,/homeImage/92/02.jpg,/homeImage/92/03.jpg,92,/hostImage/92.jpg,0,0,0,0,1,1,0,0,0
660a420e9fbac23c9842c804,1,1,1,1,1,1,1,0,1,0,0,0,1,1,DDDGG,0,0,0,1,0,1,1,1,0,0,93,81,01076536587,M,문준혁,강재호,01009025389,자녀,690119-1248397,농협,005-789963374266,서울 양천구 신월동 22-6,40,37.54056,126.832364,UNAUTHORIZED_MEMBER,신축수준으로 올수리 밝고 습기없는 반지층 방2,93,93,서울,양천구,empty,월정로46길 4,93,93,93,93,277,278,279,/homeImage/93/01.jpg,/homeImage/93/02.jpg,/homeImage/93/03.jpg,93,/hostImage/93.jpg,1,0,0,1,1,0,0,1,0
660a420e9fbac23c9842c805,1,1,1,1,1,1,1,0,1,0,0,0,1,1,DDDGG,0,1,1,0,1,0,1,0,1,0,94,95,01023344937,F,이미숙,문경자,01052277683,자녀,550421-2140112,수협,018-508677152863,서울 양천구 신월동 186-24,35,37.532368,126.825228,UNAUTHORIZED_MEMBER,"신월사거리 8분,다가구 지상1층 방2,벽걸이에어컨 옵션,실면적 약7",94,94,서울,양천구,empty,남부순환로40길 85,94,94,94,94,280,281,282,/homeImage/94/01.jpg,/homeImage/94/02.jpg,/homeImage/94/03.jpg,94,/hostImage/94.jpg,0,1,0,0,1,1,1,0,1
660a420e9fbac23c9842c806,1,1,1,1,1,1,1,1,1,0,0,1,1,1,OR,0,0,1,1,1,1,0,1,1,0,95,69,01087322171,M,송상훈,조영자,01057426838,자녀,930729-2335652,우체국,009-647244769380,서울 동작구 노량진동 148-62,37,37.513309,126.945607,USER,권리관계확실한 풀옵션전세원룸,95,95,서울,동작구,empty,만양로18길 19,95,95,95,95,283,284,285,/homeImage/95/01.jpg,/homeImage/95/02.jpg,/homeImage/95/03.jpg,95,/hostImage/95.jpg,1,1,0,1,0,1,0,1,1
660a420e9fbac23c9842c807,1,1,1,1,1,1,1,0,1,0,1,0,1,1,OR,1,0,0,0,0,1,0,0,0,0,96,96,01039486471,F,김지아,김영호,01002776101,자녀,400904-2482714,수협,018-912128463278,서울 동작구 노량진동 218-100,35,37.508466,126.946443,UNAUTHORIZED_MEMBER,고시원가격의 가성비좋은 풀옵션원룸,96,96,서울,동작구,empty,만양로11길 3,96,96,96,96,286,287,288,/homeImage/96/01.jpg,/homeImage/96/02.jpg,/homeImage/96/03.jpg,96,/hostImage/96.jpg,0,0,1,1,0,0,0,0,0
660a420e9fbac23c9842c808,1,1,1,1,1,1,1,0,1,0,1,0,1,1,OR,1,1,0,0,0,0,0,0,1,0,97,85,01067178284,M,고성진,이상현,01032077489,자녀,200919-1610997,SC제일,008-917782591964,서울 동작구 노량진동 215-102,32,37.508769,126.947283,UNAUTHORIZED_MEMBER,고시원가격의 풀옵션원룸,97,97,서울,동작구,empty,만양로6길 16,97,97,97,97,289,290,291,/homeImage/97/01.jpg,/homeImage/97/02.jpg,/homeImage/97/03.jpg,97,/hostImage/97.jpg,0,0,1,0,0,0,1,0,1
660a420e9fbac23c9842c809,1,1,1,1,1,1,1,0,1,0,0,0,1,1,OR,1,0,1,0,0,0,0,0,1,1,98,80,01087448704,M,서정훈,이승민,01000582492,자녀,950821-2642409,토스,012-199768934046,서울 동작구 노량진동 215-106,28,37.508613,126.947413,USER,권리관계확실한 고시원가격의 풀옵션원룸입니다,98,98,서울,동작구,empty,만양로6길 12,98,98,98,98,292,293,294,/homeImage/98/01.jpg,/homeImage/98/02.jpg,/homeImage/98/03.jpg,98,/hostImage/98.jpg,0,0,1,0,0,2,0,0,1
660a420e9fbac23c9842c80a,1,1,1,1,1,1,1,1,1,0,1,0,1,1,OR,1,1,0,0,0,0,0,1,0,1,99,74,01031013700,F,권지원,박영자,01016308746,자녀,670927-2978823,SC제일,008-148632631424,서울 동작구 노량진동 205-141,40,37.511081,126.947823,USER,노량진 학원가부근 가격대비 방크고 채광과 통풍좋은 깨끗한 원룸,99,99,서울,동작구,empty,만양로12가길 10,99,99,99,99,295,296,297,/homeImage/99/01.jpg,/homeImage/99/02.jpg,/homeImage/99/03.jpg,99,/hostImage/99.jpg,0,0,1,0,0,1,1,1,0
660a420e9fbac23c9842c80b,0,1,1,1,0,1,1,1,0,1,0,1,1,1,OR,1,0,0,0,1,1,0,1,1,0,100,97,01024560248,F,최예은,민지혜,01072604786,자녀,010121-1228426,SC제일,008-570315463835,서울 동작구 대방동 392-16,28,37.502576,126.927457,UNAUTHORIZED_MEMBER,empty,100,100,서울,동작구,empty,대방동2길 33,100,100,100,100,298,299,300,/homeImage/100/01.jpg,/homeImage/100/02.jpg,/homeImage/100/03.jpg,100,/hostImage/100.jpg,0,1,1,1,0,0,0,1,1
660a420e9fbac23c9842c80c,1,1,1,1,1,1,1,1,1,0,1,0,1,1,OR,1,0,1,0,1,1,1,0,1,1,101,75,01012236124,M,오성현,김은정,01039841424,자녀,240823-1355969,신한,003-014007734734,서울 동작구 노량진동 219-33,55,37.508682,126.946478,USER,대로변이고 동선이 안전한 창문이2개임,101,101,서울,동작구,empty,만양로 53,101,101,101,101,301,302,303,/homeImage/101/01.jpg,/homeImage/101/02.jpg,/homeImage/101/03.jpg,101,/hostImage/101.jpg,0,1,1,1,1,2,0,0,1
660a420e9fbac23c9842c80d,1,1,1,1,1,1,1,0,1,0,0,0,1,1,OR,1,1,1,1,1,1,0,0,0,0,102,69,01031446421,F,강미정,이영식,01052987953,자녀,040108-2564412,하나,004-446237013863,서울 동작구 노량진동 205-141,37,37.511081,126.947823,USER,방에 비해 정말 가격저렴하고 채광과 통풍좋은 깨끗한 원룸,102,102,서울,동작구,empty,만양로12가길 10,102,102,102,102,304,305,306,/homeImage/102/01.jpg,/homeImage/102/02.jpg,/homeImage/102/03.jpg,102,/hostImage/102.jpg,1,1,1,1,0,1,1,0,0
660a420e9fbac23c9842c80e,1,1,1,1,1,1,1,1,1,0,0,0,1,1,OR,1,0,1,1,1,1,0,1,0,1,103,85,01047713245,F,이예진,이민준,01047251901,자녀,880205-1821441,대구,015-789409168114,서울 동작구 노량진동 218-59,32,37.508376,126.946456,USER,집주인이 관리를잘해주는 권리관계확실한 매물입니다,103,103,서울,동작구,empty,만양로11길 3,103,103,103,103,307,308,309,/homeImage/103/01.jpg,/homeImage/103/02.jpg,/homeImage/103/03.jpg,103,/hostImage/103.jpg,1,1,1,1,0,2,0,1,0
660a420e9fbac23c9842c80f,1,1,1,1,1,1,1,1,1,0,1,0,1,1,OR,1,1,0,1,0,0,1,1,1,1,104,100,01002585837,M,이병철,김정남,01049008195,자녀,670416-2853339,신한,003-474052359461,서울 동작구 노량진동 214-127,47,37.50868,126.947534,UNAUTHORIZED_MEMBER,2018년신축한 방음이뛰어난풀옵션원룸,104,104,서울,동작구,empty,만양로8길 13,104,104,104,104,310,311,312,/homeImage/104/01.jpg,/homeImage/104/02.jpg,/homeImage/104/03.jpg,104,/hostImage/104.jpg,1,0,1,0,1,1,1,1,1
660a420e9fbac23c9842c810,1,1,0,0,0,1,0,0,0,0,0,1,0,1,OR,0,1,0,0,1,0,1,1,0,1,105,91,01020566694,M,김정웅,하도현,01020485716,자녀,300401-2698612,대구,015-264372200546,서울 동작구 대방동 391-87,38,37.501832,126.92791,USER,empty,105,105,서울,동작구,empty,대방동길 27,105,105,105,105,313,314,315,/homeImage/105/01.jpg,/homeImage/105/02.jpg,/homeImage/105/03.jpg,105,/hostImage/105.jpg,0,1,0,0,1,1,1,1,0
660a420e9fbac23c9842c811,1,1,1,1,1,1,1,0,1,0,0,1,1,1,OR,0,1,0,0,0,1,0,0,0,0,106,65,01061577036,M,홍정훈,최현주,01083554796,자녀,980320-2053895,씨티,007-129418088534,서울 동작구 상도동 356-86,31,37.503334,126.933507,USER,저렴한 원룸이 있다 깔끔한을 원한다면 한번 봅시다,106,106,서울,동작구,empty,상도로15마길 21,106,106,106,106,316,317,318,/homeImage/106/01.jpg,/homeImage/106/02.jpg,/homeImage/106/03.jpg,106,/hostImage/106.jpg,0,0,0,1,0,0,1,0,0
660a420e9fbac23c9842c812,1,1,1,1,1,1,1,0,1,0,0,0,1,1,OR,1,1,1,1,0,0,1,0,1,0,107,86,01027886494,F,박은서,이지후,01023060188,자녀,610922-2401632,산업,011-888517040688,서울 동작구 노량진동 222-51,34,37.509568,126.946013,UNAUTHORIZED_MEMBER,저렴하고 화이트톤의 깨끗한 매물,107,107,서울,동작구,empty,만양로12길 6,107,107,107,107,319,320,321,/homeImage/107/01.jpg,/homeImage/107/02.jpg,/homeImage/107/03.jpg,107,/hostImage/107.jpg,1,0,1,0,1,1,1,0,1
660a420e9fbac23c9842c813,1,1,1,1,1,1,1,1,1,0,1,1,1,1,OR,0,0,0,1,0,1,1,1,0,0,108,96,01030098889,M,김재호,류상훈,01007014953,자녀,420606-1791230,하나,004-930429524646,서울 동작구 상도동 247-6,50,37.500102,126.933507,USER,신대방삼거리역 1번출구 도보 3분 초역세권 저렴하고 깔끔한 원룸,108,108,서울,동작구,empty,성대로3길 8,108,108,108,108,322,323,324,/homeImage/108/01.jpg,/homeImage/108/02.jpg,/homeImage/108/03.jpg,108,/hostImage/108.jpg,1,0,0,1,1,0,0,1,0
660a420e9fbac23c9842c814,1,1,1,1,1,1,1,1,1,0,0,1,1,1,OR,0,1,0,0,0,0,0,0,1,0,109,69,01004030947,M,하준혁,이예준,01055072300,자녀,960022-1133653,우체국,009-759500144176,서울 동작구 노량진동 277-8,36,37.512204,126.936138,USER,깔끔한 가성비 좋은 원룸풀옵션,109,109,서울,동작구,empty,노량진로8가길 19,109,109,109,109,325,326,327,/homeImage/109/01.jpg,/homeImage/109/02.jpg,/homeImage/109/03.jpg,109,/hostImage/109.jpg,0,0,0,0,0,0,1,0,1
660a420e9fbac23c9842c815,1,1,1,1,1,1,1,0,1,0,0,1,1,1,OR,0,1,1,1,0,0,1,1,1,1,110,83,01091890329,M,김성진,조우진,01093049854,자녀,940411-1965382,우체국,009-769211957539,서울 동작구 상도동 361-69,35,37.504562,126.935673,UNAUTHORIZED_MEMBER,장승배기역 4번출구 도보 3분거리 초역세권 도배예정 깔끔한 원룸여기,110,110,서울,동작구,empty,상도로15차길 5,110,110,110,110,328,329,330,/homeImage/110/01.jpg,/homeImage/110/02.jpg,/homeImage/110/03.jpg,110,/hostImage/110.jpg,1,0,0,0,1,2,1,1,1
660a420e9fbac23c9842c816,1,1,1,1,1,1,1,1,1,0,0,1,1,1,OR,0,1,1,0,1,1,1,1,1,1,111,78,01017050092,M,김광수,김승현,01083558163,자녀,230202-2185298,신한,003-675671534339,서울 동작구 상도동 356-86,32,37.503334,126.933507,USER,장승배기역 도보 7분 역세권 풀옵션 가성비 좋은 원룸,111,111,서울,동작구,empty,상도로15마길 21,111,111,111,111,331,332,333,/homeImage/111/01.jpg,/homeImage/111/02.jpg,/homeImage/111/03.jpg,111,/hostImage/111.jpg,0,1,0,1,1,2,1,1,1
660a420e9fbac23c9842c817,1,1,1,1,1,1,1,1,1,0,0,1,1,1,OR,1,0,1,0,1,0,1,0,0,0,112,66,01085802617,F,이경희,김유진,01038291864,자녀,280607-2617125,하나,004-531867714497,서울 동작구 노량진동 127-3,37,37.512401,126.946188,UNAUTHORIZED_MEMBER,가성비최고 크기좋고 깨끗한 풀옵션 원룸,112,112,서울,동작구,empty,만양로14나길 19,112,112,112,112,334,335,336,/homeImage/112/01.jpg,/homeImage/112/02.jpg,/homeImage/112/03.jpg,112,/hostImage/112.jpg,0,1,1,0,1,1,0,0,0
660a420e9fbac23c9842c818,1,1,1,1,1,1,1,0,1,0,0,1,1,1,OR,1,1,0,1,1,0,0,1,0,1,113,66,01036666353,F,강예진,권명숙,01024231440,자녀,360326-2595675,제주,020-551199358636,서울 동작구 대방동 391-301,40,37.501837,126.924584,USER,보라매역 도보 8분 풀옵션 원룸,113,113,서울,동작구,empty,대방동27길 73,113,113,113,113,337,338,339,/homeImage/113/01.jpg,/homeImage/113/02.jpg,/homeImage/113/03.jpg,113,/hostImage/113.jpg,1,1,1,0,0,1,1,1,0
660a420e9fbac23c9842c819,1,1,1,1,1,1,1,0,1,0,0,1,1,1,OR,1,0,0,0,0,0,0,1,1,1,114,91,01068383859,M,김서준,김영길,01008410936,자녀,020511-2502800,우체국,009-946379698045,서울 동작구 노량진동 244-34,40,37.511596,126.938471,UNAUTHORIZED_MEMBER,노량진 학원가 인접 깔끔한방,114,114,서울,동작구,empty,장승배기로27길 16,114,114,114,114,340,341,342,/homeImage/114/01.jpg,/homeImage/114/02.jpg,/homeImage/114/03.jpg,114,/hostImage/114.jpg,0,0,1,0,0,1,0,1,1
660a420e9fbac23c9842c81a,1,1,1,1,1,1,1,1,1,0,0,1,1,1,OR,1,0,0,0,1,1,0,0,1,0,115,73,01037339901,M,이영일,이예지,01006956442,자녀,540618-2027902,우체국,009-920369749200,서울 동작구 대방동 391-540,35,37.501324,126.927407,USER,신대방삼거리역 도보 3분 깔끔하고 가성비 좋은 원룸,115,115,서울,동작구,empty,대방동5길 4,115,115,115,115,343,344,345,/homeImage/115/01.jpg,/homeImage/115/02.jpg,/homeImage/115/03.jpg,115,/hostImage/115.jpg,0,1,1,1,0,0,0,0,1
660a420e9fbac23c9842c81b,1,1,1,1,1,1,1,1,1,0,0,1,1,1,OR,1,0,1,0,1,1,0,1,0,1,116,100,01043615635,F,이민지,이현숙,01025608482,자녀,160427-2507520,우리,002-679862117086,서울 동작구 대방동 391-23,42,37.501686,126.927859,USER,신대방삼거리역 도보 4분 풀옵션 역세권 원룸,116,116,서울,동작구,empty,대방동길 21,116,116,116,116,346,347,348,/homeImage/116/01.jpg,/homeImage/116/02.jpg,/homeImage/116/03.jpg,116,/hostImage/116.jpg,0,1,1,1,0,2,0,1,0
660a420e9fbac23c9842c81c,1,1,1,1,1,1,1,0,1,0,0,0,1,1,OR,0,0,0,1,0,1,0,1,0,1,117,94,01088422375,M,오진우,장현우,01042913878,자녀,100728-1240568,농협,005-944242124872,서울 동작구 대방동 391-245,38,37.502724,126.924984,UNAUTHORIZED_MEMBER,가성비 끝판왕 풀옵션 원룸,117,117,서울,동작구,empty,대방동15길 5,117,117,117,117,349,350,351,/homeImage/117/01.jpg,/homeImage/117/02.jpg,/homeImage/117/03.jpg,117,/hostImage/117.jpg,1,0,0,1,0,1,0,1,0
660a420e9fbac23c9842c81d,1,1,1,1,1,1,1,1,1,0,0,1,1,1,OR,1,0,0,1,1,0,0,1,1,1,118,99,01033071575,M,배성호,이영자,01094983404,자녀,550906-1201873,제주,020-231519273305,서울 동작구 대방동 391-152,40,37.501173,126.925904,UNAUTHORIZED_MEMBER,신대방삼거리역 도보 4분 초역세권 풀옵션 원룸,118,118,서울,동작구,empty,대방동3길 29,118,118,118,118,352,353,354,/homeImage/118/01.jpg,/homeImage/118/02.jpg,/homeImage/118/03.jpg,118,/hostImage/1.jpg,1,1,1,0,0,1,0,1,1
660a420e9fbac23c9842c81e,1,1,1,1,1,1,1,0,1,0,0,0,1,1,OR,0,0,0,0,1,0,0,0,1,0,119,77,01076924375,M,심경수,김하은,01016886390,자녀,230524-2961083,대구,015-706404724944,서울 동작구 상도1동 483-1,60,37.503738,126.951926,USER,중앙대 초역세권 가장 넓은 원룸,119,119,서울,동작구,empty,상도로47길 102,119,119,119,119,355,356,357,/homeImage/119/01.jpg,/homeImage/119/02.jpg,/homeImage/119/03.jpg,119,/hostImage/2.jpg,0,1,0,0,0,0,0,0,1
660a420e9fbac23c9842c81f,1,1,1,1,1,1,1,1,1,0,0,1,1,1,OR,0,0,0,1,0,1,0,0,0,0,120,96,01057881061,F,최현지,지민수,01090066936,자녀,980909-1144493,경남,014-046395872958,서울 동작구 노량진동 270,40,37.512297,126.935181,UNAUTHORIZED_MEMBER,위치놓고깔끔한원룸,120,120,서울,동작구,empty,등용로14길 66,120,120,120,120,358,359,360,/homeImage/120/01.jpg,/homeImage/120/02.jpg,/homeImage/120/03.jpg,120,/hostImage/3.jpg,1,0,0,1,0,0,0,0,0
660a420e9fbac23c9842c820,1,1,1,1,1,1,1,1,1,0,0,1,1,1,OR,0,0,0,0,1,0,1,0,0,1,121,72,01093185254,F,안정희,박상현,01050368644,자녀,340318-1350991,케이,023-614813062395,서울 동작구 노량진동 270,58,37.512297,126.935181,UNAUTHORIZED_MEMBER,위치놓고깔끔한원룸,121,121,서울,동작구,empty,등용로14길 66,121,121,121,121,361,362,363,/homeImage/121/01.jpg,/homeImage/121/02.jpg,/homeImage/121/03.jpg,121,/hostImage/4.jpg,0,1,0,0,1,1,0,0,0
660a420e9fbac23c9842c821,1,1,1,1,1,1,1,1,1,0,0,1,1,1,OR,0,1,1,1,0,0,0,0,0,1,122,78,01063481709,F,이유진,김순자,01073888089,자녀,140028-1666068,산업,011-511338589691,서울 동작구 대방동 391-561,35,37.500816,126.924228,USER,보라매역 도보 5분 초역세권 풀옵션 원룸,122,122,서울,동작구,empty,대방동27길 97,122,122,122,122,364,365,366,/homeImage/122/01.jpg,/homeImage/122/02.jpg,/homeImage/122/03.jpg,122,/hostImage/5.jpg,1,0,0,0,0,2,1,0,0
660a420e9fbac23c9842c822,1,1,1,1,1,1,1,1,1,0,0,1,1,1,OR,0,1,0,0,1,1,1,1,1,0,123,67,01028660537,M,김영길,장현주,01054776607,자녀,680329-1012697,카카오,090-628132695207,서울 동작구 노량진동 270,40,37.512297,126.935181,USER,위치놓고깔끔한원룸,123,123,서울,동작구,empty,등용로14길 66,123,123,123,123,367,368,369,/homeImage/123/01.jpg,/homeImage/123/02.jpg,/homeImage/123/03.jpg,123,/hostImage/6.jpg,0,1,0,1,1,0,1,1,1
660a420e9fbac23c9842c823,1,1,1,1,1,1,1,1,1,0,0,1,1,1,OR,0,1,1,1,1,0,0,0,1,1,124,87,01090791583,M,권영길,박재호,01041809393,자녀,320413-2977777,기업,006-735142342734,서울 동작구 대방동 391-559,42,37.50054,126.924358,USER,신대방삼거리역 보라매역 도보 5분거리 역세권 풀옵션 원룸,124,124,서울,동작구,empty,대방동1길 30,124,124,124,124,370,371,372,/homeImage/124/01.jpg,/homeImage/124/02.jpg,/homeImage/124/03.jpg,124,/hostImage/7.jpg,1,1,0,0,0,2,1,0,1
660a420e9fbac23c9842c824,1,1,1,1,1,1,1,1,1,0,0,1,1,1,OR,1,1,0,1,0,1,1,1,0,1,125,74,01008789788,M,전도현,김서현,01088225118,자녀,510203-2816990,씨티,007-558937140184,서울 동작구 노량진동 120-20,40,37.510986,126.943759,UNAUTHORIZED_MEMBER,컨디션 좋은 가성비 최고매물,125,125,서울,동작구,empty,만양로15길 14,125,125,125,125,373,374,375,/homeImage/125/01.jpg,/homeImage/125/02.jpg,/homeImage/125/03.jpg,125,/hostImage/8.jpg,1,0,1,1,1,1,1,1,0
660a420e9fbac23c9842c825,1,1,1,1,1,1,1,0,1,0,0,1,1,1,OR,0,1,0,1,1,1,1,1,1,0,126,91,01076063962,M,이민석,김영호,01021169595,자녀,610815-1564542,기업,006-401230327127,서울 동작구 노량진동 127-11,43,37.512498,126.946252,UNAUTHORIZED_MEMBER,가성비굿 위치좋고 컨디션 좋은 리모델링 귀한 매물,126,126,서울,동작구,empty,만양로14길 39,126,126,126,126,376,377,378,/homeImage/126/01.jpg,/homeImage/126/02.jpg,/homeImage/126/03.jpg,126,/hostImage/9.jpg,1,1,0,1,1,0,1,1,1
660a420e9fbac23c9842c826,1,1,1,1,1,1,1,0,1,0,0,0,1,1,OR,1,1,1,1,0,0,1,0,1,1,127,80,01096278431,F,최은서,강성훈,01045990014,자녀,890302-2072351,부산,013-496276572952,서울 동작구 노량진동 219-33,43,37.508682,126.946478,USER,대로변이고 동선이 안전한 2018년신축된 방음이좋은원룸,127,127,서울,동작구,empty,만양로 53,127,127,127,127,379,380,381,/homeImage/127/01.jpg,/homeImage/127/02.jpg,/homeImage/127/03.jpg,127,/hostImage/10.jpg,1,0,1,0,1,2,1,0,1
660a420e9fbac23c9842c827,1,1,1,1,1,1,1,0,1,0,0,1,1,1,OR,0,1,0,1,0,0,0,0,1,0,128,95,01022925588,F,손현숙,류서영,01071489384,자녀,390529-2612617,기업,006-149203775483,서울 동작구 노량진동 277-8,33,37.512204,126.936138,USER,노량진에서 귀한 큰 원룸입니다,128,128,서울,동작구,empty,노량진로8가길 19,128,128,128,128,382,383,384,/homeImage/128/01.jpg,/homeImage/128/02.jpg,/homeImage/128/03.jpg,128,/hostImage/11.jpg,1,0,0,0,0,0,1,0,1
660a420e9fbac23c9842c828,1,1,1,1,1,1,1,0,1,0,1,0,1,1,OR,1,1,0,0,0,0,1,1,1,1,129,95,01006369294,F,이민서,남지아,01098960996,자녀,390006-1957071,광주,017-649136578473,서울 동작구 노량진동 219-34,44,37.508563,126.946556,USER,실제면적 훨씬 넓고 앞이 틔여있어 채광좋고 깨끗한 도시형생활주택,129,129,서울,동작구,empty,만양로 51,129,129,129,129,385,386,387,/homeImage/129/01.jpg,/homeImage/129/02.jpg,/homeImage/129/03.jpg,129,/hostImage/12.jpg,0,0,1,0,1,1,1,1,1
660a420e9fbac23c9842c829,1,1,1,1,1,1,1,0,1,0,0,1,1,1,OR,1,1,1,0,1,0,0,0,0,0,130,85,01089584250,F,박경숙,이은경,01036872400,자녀,510520-2226132,전북,016-362353772436,서울 동작구 노량진동 262-5,38,37.512443,126.936114,USER,노량진에서 보기힘든 완전깔끔한 화이트톤원룸,130,130,서울,동작구,empty,노량진로6가길 3,130,130,130,130,388,389,390,/homeImage/130/01.jpg,/homeImage/130/02.jpg,/homeImage/130/03.jpg,130,/hostImage/13.jpg,0,1,1,0,0,1,1,0,0
660a420e9fbac23c9842c82a,1,1,1,1,1,1,1,0,1,0,0,1,1,1,OR,1,1,1,0,0,1,0,1,1,1,131,94,01042827871,M,송중수,이성현,01033331519,자녀,060601-2487146,제주,020-291322493795,서울 동작구 노량진동 267-21,29,37.512535,126.934998,UNAUTHORIZED_MEMBER,깔끔하고 저렴한 원룸 찾으시는분들,131,131,서울,동작구,empty,등용로14길 63,131,131,131,131,391,392,393,/homeImage/131/01.jpg,/homeImage/131/02.jpg,/homeImage/131/03.jpg,131,/hostImage/14.jpg,0,0,1,1,0,2,1,1,1
660a420e9fbac23c9842c82b,1,1,1,1,1,1,1,0,1,0,0,1,1,1,OR,1,1,1,1,0,0,1,1,1,1,132,87,01050092776,M,박정호,안영식,01054848266,자녀,040011-2001600,경남,014-796074295642,서울 동작구 노량진동 119-113,30,37.511229,126.943678,UNAUTHORIZED_MEMBER,저렴하고 위치좋은 원룸 찾으시나,132,132,서울,동작구,empty,만양로15길 6,132,132,132,132,394,395,396,/homeImage/132/01.jpg,/homeImage/132/02.jpg,/homeImage/132/03.jpg,132,/hostImage/15.jpg,1,0,1,0,1,2,1,1,1
660a420e9fbac23c9842c82c,1,1,1,1,1,1,1,0,1,0,0,1,1,1,OR,1,1,0,1,1,1,0,0,1,1,133,99,01083621777,F,서선영,이하은,01037390245,자녀,940528-2224057,우체국,009-651063690134,서울 동작구 노량진동 253-5,45,37.51119,126.938202,UNAUTHORIZED_MEMBER,깔끔하고 단아한 원룸입니다,133,133,서울,동작구,empty,노량진로10길 45,133,133,133,133,397,398,399,/homeImage/133/01.jpg,/homeImage/133/02.jpg,/homeImage/133/03.jpg,133,/hostImage/16.jpg,1,1,1,1,0,1,1,0,1
660a420e9fbac23c9842c82d,1,1,1,1,1,1,1,0,1,0,0,1,1,1,OR,0,1,0,1,0,0,1,0,0,0,134,79,01079097288,M,박준영,오정숙,01059864049,자녀,510915-1247648,부산,013-839781365787,서울 동작구 노량진동 276-3,45,37.512043,126.936445,UNAUTHORIZED_MEMBER,깔끔한 풀옵션 원룸 월세 나왔습니다.,134,134,서울,동작구,empty,노량진로6가길 17,134,134,134,134,400,401,402,/homeImage/134/01.jpg,/homeImage/134/02.jpg,/homeImage/134/03.jpg,134,/hostImage/17.jpg,1,0,0,0,1,0,1,0,0
660a420e9fbac23c9842c82e,1,1,1,1,1,1,1,0,1,0,0,1,1,1,OR,0,0,0,0,0,1,1,0,1,1,135,89,01084284583,F,류명자,허지우,01072386743,자녀,890207-2471308,기업,006-452953761621,서울 동작구 노량진동 267-21,29,37.512535,126.934998,USER,깔끔하고 저렴한 원룸 찾으시는분들,135,135,서울,동작구,empty,등용로14길 63,135,135,135,135,403,404,405,/homeImage/135/01.jpg,/homeImage/135/02.jpg,/homeImage/135/03.jpg,135,/hostImage/18.jpg,0,0,0,1,1,1,0,0,1
660a420e9fbac23c9842c82f,1,1,1,1,1,1,1,1,1,0,1,1,1,1,OR,1,1,1,0,1,0,0,1,0,1,136,87,01076419419,F,김보람,박채원,01051437975,자녀,780622-2720238,토스,012-451202066080,서울 동작구 노량진동 233-10,30,37.510126,126.939822,USER,위치좋은 저렴한 노량진 원룸3,136,136,서울,동작구,empty,장승배기로23길 4,136,136,136,136,406,407,408,/homeImage/136/01.jpg,/homeImage/136/02.jpg,/homeImage/136/03.jpg,136,/hostImage/19.jpg,0,1,1,0,0,2,1,1,0
660a420e9fbac23c9842c830,1,1,1,1,1,1,1,0,1,0,0,1,1,1,OR,1,1,1,0,1,1,0,1,1,1,137,73,01061073952,F,이미정,김은주,01033807764,자녀,230624-2180780,케이,023-862166698103,서울 동작구 노량진동 52-30,36,37.511987,126.940915,UNAUTHORIZED_MEMBER,깔끔하고 위치 좋은 원룸입니다,137,137,서울,동작구,empty,장승배기로26길 9,137,137,137,137,409,410,411,/homeImage/137/01.jpg,/homeImage/137/02.jpg,/homeImage/137/03.jpg,137,/hostImage/20.jpg,0,1,1,1,0,2,1,1,1
660a420e9fbac23c9842c831,1,1,1,1,1,1,1,1,1,0,0,1,1,1,OR,1,0,1,1,1,1,1,1,1,0,138,98,01046978145,M,신진우,박명숙,01024432698,자녀,890800-2748172,케이,023-954887499734,서울 동작구 노량진동 225-3,46,37.508988,126.941266,USER,깔끔한 원룸 찾으시는분 구경하세요,138,138,서울,동작구,empty,장승배기로22길 29,138,138,138,138,412,413,414,/homeImage/138/01.jpg,/homeImage/138/02.jpg,/homeImage/138/03.jpg,138,/hostImage/21.jpg,1,1,1,1,1,1,0,1,1
660a420e9fbac23c9842c832,1,1,1,1,1,1,1,0,1,0,1,0,1,1,OR,0,1,0,1,0,0,0,0,0,0,139,90,01033705862,M,손정호,김정자,01010077391,자녀,150114-2407065,수협,018-542176645729,서울 동작구 노량진동 219-34,25,37.508563,126.946556,UNAUTHORIZED_MEMBER,가격저렴하고 깨끗하며 노량진역 도보 10분거리,139,139,서울,동작구,empty,만양로 51,139,139,139,139,415,416,417,/homeImage/139/01.jpg,/homeImage/139/02.jpg,/homeImage/139/03.jpg,139,/hostImage/22.jpg,1,0,0,0,0,0,1,0,0
660a420e9fbac23c9842c833,1,1,1,1,1,1,1,0,1,0,0,0,1,1,OR,1,0,1,0,0,0,0,1,0,1,140,75,01071641834,M,김상훈,김명자,01086380198,자녀,540821-1436527,토스,012-646902853122,서울 동작구 노량진동 222-46,40,37.509783,126.945991,UNAUTHORIZED_MEMBER,풀옵션 깨끗한 원룸 매물 나왔습니다.,140,140,서울,동작구,empty,만양로12길 6,140,140,140,140,418,419,420,/homeImage/140/01.jpg,/homeImage/140/02.jpg,/homeImage/140/03.jpg,140,/hostImage/23.jpg,0,0,1,0,0,2,0,1,0
660a420e9fbac23c9842c834,1,1,1,1,1,1,1,0,1,0,0,1,1,1,OR,0,1,1,1,0,0,1,0,1,1,141,73,01010295433,F,박은주,조은서,01032994059,자녀,110213-1852467,우리,002-820763167192,서울 동작구 노량진동 244-34,48,37.511596,126.938471,USER,위치좋은깔끔한원룸입니다,141,141,서울,동작구,empty,장승배기로27길 16,141,141,141,141,421,422,423,/homeImage/141/01.jpg,/homeImage/141/02.jpg,/homeImage/141/03.jpg,141,/hostImage/24.jpg,1,0,0,0,1,2,1,0,1
660a420e9fbac23c9842c835,1,1,1,1,1,1,1,0,1,0,0,1,1,1,OR,0,0,1,1,0,0,0,0,1,1,142,89,01087602495,M,장성진,백은정,01015400223,자녀,460422-2029316,제주,020-399094515436,서울 동작구 노량진동 267-48,29,37.51251,126.935118,USER,가성비최고 원룸,142,142,서울,동작구,empty,등용로14길 65,142,142,142,142,424,425,426,/homeImage/142/01.jpg,/homeImage/142/02.jpg,/homeImage/142/03.jpg,142,/hostImage/25.jpg,1,0,0,0,0,2,0,0,1
660a420e9fbac23c9842c836,1,1,1,1,1,1,1,1,1,0,0,1,1,1,OR,1,0,0,1,0,1,0,0,0,1,143,71,01071202538,M,류영길,서지아,01031139753,자녀,120315-1037598,카카오,090-237228489080,서울 동작구 노량진동 262-4,37,37.512337,126.936131,USER,"진짜 깔끔한 꿀매물,  가격도 저렴해요",143,143,서울,동작구,empty,노량진로8가길 20,143,143,143,143,427,428,429,/homeImage/143/01.jpg,/homeImage/143/02.jpg,/homeImage/143/03.jpg,143,/hostImage/26.jpg,1,0,1,1,0,1,0,0,0
660a420e9fbac23c9842c837,1,1,1,1,1,1,1,1,1,0,0,1,1,1,OR,0,1,1,0,1,0,1,1,0,0,144,85,01075762371,M,윤성민,박현숙,01047631973,자녀,670126-1088570,경남,014-515634878867,서울 동작구 노량진동 244-34,43,37.511596,126.938471,USER,위치좋은깔끔한원룸입니다,144,144,서울,동작구,empty,장승배기로27길 16,144,144,144,144,430,431,432,/homeImage/144/01.jpg,/homeImage/144/02.jpg,/homeImage/144/03.jpg,144,/hostImage/27.jpg,0,1,0,0,1,1,1,1,0
660a420e9fbac23c9842c838,1,1,1,1,1,1,1,1,1,0,0,0,1,1,OR,0,0,1,1,1,0,0,0,1,1,145,89,01049247882,M,윤상철,손윤서,01069345420,자녀,530710-2079456,씨티,007-823539889603,서울 동작구 노량진동 232-43,43,37.509735,126.941879,USER,저렴한가격에 신축느낌나는 원룸,145,145,서울,동작구,empty,장승배기로20다길 6,145,145,145,145,433,434,435,/homeImage/145/01.jpg,/homeImage/145/02.jpg,/homeImage/145/03.jpg,145,/hostImage/28.jpg,1,1,0,0,0,2,0,0,1
660a420e9fbac23c9842c839,1,1,1,1,1,1,1,0,1,0,1,1,1,1,OR,0,1,0,0,0,1,1,0,0,1,146,89,01069229150,F,구지민,조주원,01024375684,자녀,030611-1370517,우체국,009-577989044486,서울 동작구 노량진동 85-7,40,37.512109,126.943524,USER,저렴하고 치안좋은 노량진 원룸,146,146,서울,동작구,노량진동,empty,146,146,146,146,436,437,438,/homeImage/146/01.jpg,/homeImage/146/02.jpg,/homeImage/146/03.jpg,146,/hostImage/29.jpg,0,0,0,1,1,1,1,0,0
660a420e9fbac23c9842c83a,1,1,1,1,1,1,1,0,1,0,0,1,1,1,OR,1,0,0,0,0,0,0,1,0,1,147,77,01055950455,F,유지연,권정식,01073330972,자녀,340321-2114523,우체국,009-889906342857,서울 동작구 노량진동 270,45,37.512297,126.935181,UNAUTHORIZED_MEMBER,깔끔하고 넓직한 원룸입니다.,147,147,서울,동작구,empty,등용로14길 66,147,147,147,147,439,440,441,/homeImage/147/01.jpg,/homeImage/147/02.jpg,/homeImage/147/03.jpg,147,/hostImage/30.jpg,0,0,1,0,0,1,0,1,0
660a420e9fbac23c9842c83b,1,1,1,1,1,1,1,1,1,0,1,0,1,1,OR,1,0,1,1,1,0,1,0,1,0,148,96,01066268528,M,안성진,김광수,01049080890,자녀,060601-1485955,경남,014-656749109598,서울 동작구 노량진동 215-112,35,37.508452,126.947329,USER,저렴한 원룸입니다,148,148,서울,동작구,empty,만양로6길 9,148,148,148,148,442,443,444,/homeImage/148/01.jpg,/homeImage/148/02.jpg,/homeImage/148/03.jpg,148,/hostImage/31.jpg,1,1,1,0,1,1,0,0,1
660a420e9fbac23c9842c83c,1,1,1,1,1,1,1,0,1,0,1,0,1,1,OR,0,1,1,1,0,0,1,0,0,1,149,65,01013703864,M,서민수,김채원,01074052187,자녀,190401-2892523,부산,013-468582141265,서울 동작구 노량진동 215-109,42,37.508384,126.947607,USER,"노량진 깔끔하고 넓직한 원룸, 창고식 베란다도 있습니다",149,149,서울,동작구,empty,만양로6길 6,149,149,149,149,445,446,447,/homeImage/149/01.jpg,/homeImage/149/02.jpg,/homeImage/149/03.jpg,149,/hostImage/32.jpg,1,0,0,0,1,2,1,0,0
660a420e9fbac23c9842c83d,1,1,1,1,1,1,1,1,1,0,0,1,1,1,OR,1,0,0,0,1,0,0,0,1,0,150,74,01049309308,M,김광수,안성수,01075322147,자녀,210227-1509521,전북,016-849857389931,서울 동작구 노량진동 125-32,47,37.512324,126.945657,USER,위치굿 컨디션굿 풀옵션 크기좋은 가성비 원룸,150,150,서울,동작구,empty,만양로14나길 12,150,150,150,150,448,449,450,/homeImage/150/01.jpg,/homeImage/150/02.jpg,/homeImage/150/03.jpg,150,/hostImage/33.jpg,0,1,1,0,0,0,0,0,1
660a420e9fbac23c9842c83e,1,1,1,1,1,1,1,1,1,0,0,0,1,1,OR,0,0,0,1,1,0,0,1,1,0,151,74,01022225466,M,이성훈,이성수,01094849621,자녀,100512-1059050,대구,015-501210886534,서울 동작구 노량진동 222-51,37,37.509568,126.946013,UNAUTHORIZED_MEMBER,저렴하고 화이트톤의 깨끗한 매물,151,151,서울,동작구,empty,만양로12길 6,151,151,151,151,451,452,453,/homeImage/151/01.jpg,/homeImage/151/02.jpg,/homeImage/151/03.jpg,151,/hostImage/34.jpg,1,1,0,0,0,0,0,1,1
660a420e9fbac23c9842c83f,1,1,1,1,1,1,1,0,1,0,0,1,1,1,OR,0,0,1,0,0,0,0,0,0,0,152,90,01022369056,M,주재현,김민서,01012029449,자녀,270106-2261983,농협,005-972043156653,서울 동작구 노량진동 125-31,40,37.512271,126.945745,USER,위치좋은 노량진 원룸 입니다,152,152,서울,동작구,empty,만양로14나길 14,152,152,152,152,454,455,456,/homeImage/152/01.jpg,/homeImage/152/02.jpg,/homeImage/152/03.jpg,152,/hostImage/35.jpg,0,0,0,0,0,1,0,0,0
660a420e9fbac23c9842c840,1,1,1,1,1,1,1,1,1,0,0,1,1,1,OR,1,0,1,1,0,1,1,1,1,1,153,80,01093222309,M,박중수,나현우,01054099285,자녀,720502-1029173,제주,020-727210512977,서울 동작구 노량진동 35-1,50,37.512648,126.937245,USER,리모델링 깔끔하고 이쁜 공간 노량진역 큰대로변 초근접,153,153,서울,동작구,empty,노량진로8길 33,153,153,153,153,457,458,459,/homeImage/153/01.jpg,/homeImage/153/02.jpg,/homeImage/153/03.jpg,153,/hostImage/36.jpg,1,0,1,1,1,2,0,1,1
660a420e9fbac23c9842c841,1,1,1,1,1,1,1,0,1,0,0,0,1,1,OR,0,0,0,0,0,1,1,0,0,1,154,98,01066652205,F,장경희,박광수,01024079510,자녀,610505-2579519,하나,004-895443535387,서울 동작구 노량진동 222-89,43,37.510208,126.945892,USER,정남향으로 채광이 좋습니다,154,154,서울,동작구,empty,만양로6길 60,154,154,154,154,460,461,462,/homeImage/154/01.jpg,/homeImage/154/02.jpg,/homeImage/154/03.jpg,154,/hostImage/37.jpg,0,0,0,1,1,1,0,0,0
660a420e9fbac23c9842c842,1,1,1,1,1,1,1,0,1,0,0,0,1,1,OR,0,1,1,0,0,1,1,1,0,1,155,91,01035080328,F,김수진,류은영,01019887894,자녀,890126-2336993,하나,004-244587001018,서울 동작구 노량진동 215-106,30,37.508613,126.947413,UNAUTHORIZED_MEMBER,고시원가격의 풀옵션원룸,155,155,서울,동작구,empty,만양로6길 12,155,155,155,155,463,464,465,/homeImage/155/01.jpg,/homeImage/155/02.jpg,/homeImage/155/03.jpg,155,/hostImage/38.jpg,0,0,0,1,1,2,1,1,0
660a420e9fbac23c9842c843,1,1,1,1,1,1,1,1,1,0,1,0,1,1,OR,1,0,0,1,0,0,0,1,0,0,156,94,01020386670,M,김서준,오정숙,01094771593,자녀,160416-2611479,카카오,090-486622124042,서울 동작구 노량진동 215-102,37,37.508769,126.947283,UNAUTHORIZED_MEMBER,신축으로 방이크고 방음이 좋은 풀옵션원룸,156,156,서울,동작구,empty,만양로6길 16,156,156,156,156,466,467,468,/homeImage/156/01.jpg,/homeImage/156/02.jpg,/homeImage/156/03.jpg,156,/hostImage/39.jpg,1,0,1,0,0,0,0,1,0
660a420e9fbac23c9842c844,1,1,1,1,1,1,1,1,1,0,1,0,1,1,OR,0,1,1,1,0,0,1,0,1,1,157,88,01077062626,F,이현정,이하윤,01082636168,자녀,760401-1457485,광주,017-394557254609,서울 동작구 노량진동 215-116,37,37.508775,126.94706,USER,2016년신축한 방음이뛰어난풀옵션원룸,157,157,서울,동작구,empty,만양로6길 19,157,157,157,157,469,470,471,/homeImage/157/01.jpg,/homeImage/157/02.jpg,/homeImage/157/03.jpg,157,/hostImage/40.jpg,1,0,0,0,1,2,1,0,1
660a420e9fbac23c9842c845,1,1,1,1,1,1,1,1,1,0,1,1,1,1,VL,1,1,1,1,0,1,0,1,1,0,158,69,01013272117,F,주명숙,이준서,01074450761,자녀,780800-1179589,수협,018-198972622014,서울 동작구 본동 49-32,45,37.511696,126.955595,USER,귀한원룸  풀옵션원룸으로  입주협의,158,158,서울,동작구,empty,노량진로28길 30,158,158,158,158,472,473,474,/homeImage/158/01.jpg,/homeImage/158/02.jpg,/homeImage/158/03.jpg,158,/hostImage/41.jpg,1,0,1,1,0,1,1,1,1
660a420e9fbac23c9842c846,1,1,1,1,1,1,1,1,1,0,0,1,1,1,OR,1,1,1,0,0,0,0,0,0,0,159,89,01073512336,F,이은정,이수민,01035224016,자녀,530202-1784390,카카오,090-218098889504,서울 동작구 대방동 391-315,33,37.501504,126.924261,UNAUTHORIZED_MEMBER,더블역세권 대방동 원룸,159,159,서울,동작구,empty,대방동27길 81,159,159,159,159,475,476,477,/homeImage/159/01.jpg,/homeImage/159/02.jpg,/homeImage/159/03.jpg,159,/hostImage/42.jpg,0,0,1,0,0,1,1,0,0
660a420e9fbac23c9842c847,1,1,1,1,1,1,1,0,1,0,0,0,1,1,OR,1,1,1,1,1,0,1,0,1,0,160,70,01040032932,F,이은경,박정웅,01042470963,자녀,210304-2328539,제주,020-049008424787,서울 동작구 대방동 20-48,60,37.509296,126.931714,USER,"방이 아주 크고,  깨끗하며 조용한 원룸",160,160,서울,동작구,empty,여의대방로36길 101,160,160,160,160,478,479,480,/homeImage/160/01.jpg,/homeImage/160/02.jpg,/homeImage/160/03.jpg,160,/hostImage/43.jpg,1,1,1,0,1,1,1,0,1
660a420e9fbac23c9842c848,1,1,1,1,1,1,1,0,1,0,0,1,1,1,OR,0,0,0,1,0,1,1,0,1,0,161,81,01081467984,M,이민수,김성현,01078571271,자녀,920705-1142670,씨티,007-906105300431,서울 동작구 대방동 391-200,40,37.500476,126.926728,USER,실제사진 O｜즉시입주 O｜학교 인근의 조용하고 깨끗한 분리형 원룸,161,161,서울,동작구,empty,대방동1길 8,161,161,161,161,481,482,483,/homeImage/161/01.jpg,/homeImage/161/02.jpg,/homeImage/161/03.jpg,161,/hostImage/44.jpg,1,0,0,1,1,0,0,0,1
660a420e9fbac23c9842c849,1,1,1,1,1,1,1,1,1,0,0,0,1,1,OR,0,0,1,1,0,0,0,0,1,0,162,95,01048295680,F,신영숙,김정훈,01067346549,자녀,730618-2769679,수협,018-962928375896,서울 동작구 노량진동 222-46,38,37.509783,126.945991,USER,풀옵션 원룸,162,162,서울,동작구,empty,만양로12길 6,162,162,162,162,484,485,486,/homeImage/162/01.jpg,/homeImage/162/02.jpg,/homeImage/162/03.jpg,162,/hostImage/45.jpg,1,0,0,0,0,1,0,0,1
660a420e9fbac23c9842c84a,1,1,1,1,1,1,1,0,1,0,0,1,1,1,OR,1,0,0,0,0,0,1,1,1,1,163,80,01051179822,M,김상훈,홍은지,01013771154,자녀,230728-2746356,수협,018-213332698199,서울 동작구 상도1동 366-1,52,37.501142,126.950621,USER,"중앙대,숭실대 풀옵션 원룸",163,163,서울,동작구,empty,상도로43길 14,163,163,163,163,487,488,489,/homeImage/163/01.jpg,/homeImage/163/02.jpg,/homeImage/163/03.jpg,163,/hostImage/46.jpg,0,0,1,0,1,1,0,1,1
660a420e9fbac23c9842c84b,1,1,1,1,1,1,1,0,1,0,0,0,1,1,OR,1,1,0,1,0,1,0,1,0,0,164,75,01073635252,M,박영진,김시우,01033705141,자녀,600320-1429806,기업,006-236913456361,서울 동작구 상도동 242-75,30,37.501315,126.934875,UNAUTHORIZED_MEMBER,장승배기역 도보7분 원룸치고 큰방큰방 보증금조절가능 빨리보세요,164,164,서울,동작구,empty,성대로1길 18,164,164,164,164,490,491,492,/homeImage/164/01.jpg,/homeImage/164/02.jpg,/homeImage/164/03.jpg,164,/hostImage/47.jpg,1,0,1,1,0,0,1,1,0
660a420e9fbac23c9842c84c,1,1,1,1,1,1,1,0,1,0,0,0,1,1,OR,0,1,0,0,0,0,1,1,0,1,165,65,01037888901,F,김민지,김영길,01000966435,자녀,500303-1554888,산업,011-518410590343,서울 동작구 노량진동 123-43,40,37.510443,126.945963,USER,학원가인접한 대로변 치안걱정없는집,165,165,서울,동작구,empty,만양로8길 64,165,165,165,165,493,494,495,/homeImage/165/01.jpg,/homeImage/165/02.jpg,/homeImage/165/03.jpg,165,/hostImage/48.jpg,0,0,0,0,1,1,1,1,0
660a420e9fbac23c9842c84d,1,1,1,1,1,1,1,1,1,0,1,1,1,1,DDDGG,0,0,1,1,1,1,1,1,1,0,166,97,01061332816,M,김정웅,심경희,01054284410,자녀,800818-2462145,신한,003-681252776183,서울 동작구 본동 50-40,50,37.510767,126.954717,USER,노들역5분 방2 내부좋습니다,166,166,서울,동작구,empty,노량진로26길 32,166,166,166,166,496,497,498,/homeImage/166/01.jpg,/homeImage/166/02.jpg,/homeImage/166/03.jpg,166,/hostImage/49.jpg,1,1,0,1,1,1,0,1,1
660a420e9fbac23c9842c84e,1,1,1,1,1,1,1,1,1,0,0,1,1,1,OR,1,0,0,1,0,0,1,1,1,0,167,100,01092968994,F,홍경희,우준서,01057005705,자녀,130219-2681786,SC제일,008-015059306930,서울 동작구 대방동 391-315,33,37.501504,126.924261,USER,위치 컨디션 퀄리티 가격 하나도 빼놓을게 없어요,167,167,서울,동작구,empty,대방동27길 81,167,167,167,167,499,500,501,/homeImage/167/01.jpg,/homeImage/167/02.jpg,/homeImage/167/03.jpg,167,/hostImage/50.jpg,1,0,1,0,1,0,0,1,1
660a420e9fbac23c9842c84f,1,1,1,1,1,1,1,1,1,0,0,1,1,1,OR,1,1,1,1,0,1,0,0,1,0,168,80,01028296773,M,윤광수,최정식,01010212724,자녀,390606-2829347,기업,006-708078440196,서울 동작구 상도1동 696,35,37.504099,126.948156,USER,O 상도역 역세권 깔끔한 풀옵션 원룸,168,168,서울,동작구,empty,상도로 265,168,168,168,168,502,503,504,/homeImage/168/01.jpg,/homeImage/168/02.jpg,/homeImage/168/03.jpg,168,/hostImage/51.jpg,1,0,1,1,0,1,1,0,1
660a420e9fbac23c9842c850,1,1,1,1,1,1,1,1,1,0,1,1,1,1,VL,1,1,1,0,0,1,1,1,0,1,169,65,01080873882,F,이예진,김보람,01007448306,자녀,180509-1412164,농협,005-388802029937,서울 동작구 본동 49-32,50,37.511696,126.955595,USER,2014년식 풀옵션 원룸 내부좋습니다,169,169,서울,동작구,empty,노량진로28길 30,169,169,169,169,505,506,507,/homeImage/169/01.jpg,/homeImage/169/02.jpg,/homeImage/169/03.jpg,169,/hostImage/52.jpg,0,0,1,1,1,2,1,1,0
660a420e9fbac23c9842c851,1,1,1,1,1,1,1,1,1,0,1,1,1,1,OR,1,1,1,0,1,0,1,0,1,0,170,69,01071701584,M,조영길,오미정,01058002888,자녀,310220-2968509,신한,003-495133471971,서울 동작구 본동 49-32,50,37.511696,126.955595,UNAUTHORIZED_MEMBER,풀옵션으로 2013년식 내부좋습니다 빠른입주가능,170,170,서울,동작구,empty,노량진로28길 30,170,170,170,170,508,509,510,/homeImage/170/01.jpg,/homeImage/170/02.jpg,/homeImage/170/03.jpg,170,/hostImage/53.jpg,0,1,1,0,1,1,1,0,1
660a420e9fbac23c9842c852,1,1,1,1,1,1,1,0,1,0,1,1,1,1,OR,1,0,0,0,0,1,1,0,0,0,171,88,01030348598,F,최민서,윤하은,01022065178,자녀,680327-2215886,토스,012-859306209649,서울 동작구 본동 49-38,35,37.511765,126.955285,UNAUTHORIZED_MEMBER,노들역3분 방1 옵션완벽 저렴한시세,171,171,서울,동작구,empty,노량진로28길 16,171,171,171,171,511,512,513,/homeImage/171/01.jpg,/homeImage/171/02.jpg,/homeImage/171/03.jpg,171,/hostImage/54.jpg,0,0,1,1,1,0,0,0,0
660a420e9fbac23c9842c853,1,1,1,1,1,1,1,0,1,0,0,0,1,1,OR,0,0,1,0,0,0,1,0,0,0,172,87,01060877651,M,김도윤,박영진,01047982641,자녀,230328-1130182,씨티,007-623763602018,서울 동작구 노량진동 220-11,42,37.508982,126.945225,UNAUTHORIZED_MEMBER,개방감있는 양창원룸 노량진역세권,172,172,서울,동작구,empty,만양로13길 37,172,172,172,172,514,515,516,/homeImage/172/01.jpg,/homeImage/172/02.jpg,/homeImage/172/03.jpg,172,/hostImage/55.jpg,0,0,0,0,1,1,0,0,0
660a420e9fbac23c9842c854,1,1,1,1,1,1,1,0,1,0,0,0,1,1,OR,0,1,0,1,0,0,0,0,0,0,173,97,01028855963,M,김종수,김진우,01015319143,자녀,600225-1064128,산업,011-585753705525,서울 동작구 노량진동 123-43,48,37.510443,126.945963,UNAUTHORIZED_MEMBER,노량진.지상층저렴한방.위치좋아안전.편의점인근,173,173,서울,동작구,empty,만양로8길 64,173,173,173,173,517,518,519,/homeImage/173/01.jpg,/homeImage/173/02.jpg,/homeImage/173/03.jpg,173,/hostImage/56.jpg,1,0,0,0,0,0,1,0,0
660a420e9fbac23c9842c855,1,1,1,1,1,1,1,1,1,0,0,1,1,1,OR,1,1,1,1,0,0,1,1,0,0,174,83,01084800157,M,남준영,이종수,01037145925,자녀,510725-1963955,농협,005-990142094383,서울 동작구 대방동 391-559,50,37.50054,126.924358,USER,실제사진O｜즉시 입주O｜현관보안O｜7호선 이용이 편리한 원룸,174,174,서울,동작구,empty,대방동1길 30,174,174,174,174,520,521,522,/homeImage/174/01.jpg,/homeImage/174/02.jpg,/homeImage/174/03.jpg,174,/hostImage/57.jpg,1,0,1,0,1,1,1,1,0
660a420e9fbac23c9842c856,1,1,1,1,1,1,1,0,1,0,1,1,1,1,DDDGG,1,0,0,1,1,1,1,1,0,0,175,91,01002233793,F,송예진,안경수,01092531804,자녀,790824-2584497,기업,006-831196257432,서울 동작구 본동 50-19,45,37.511402,126.954329,USER,방1크고  내부상태 깔끔 도배장판 새로함,175,175,서울,동작구,empty,노량진로26길 16,175,175,175,175,523,524,525,/homeImage/175/01.jpg,/homeImage/175/02.jpg,/homeImage/175/03.jpg,175,/hostImage/58.jpg,1,1,1,1,1,0,0,1,0
660a420e9fbac23c9842c857,1,1,1,1,1,1,1,1,1,0,0,1,1,1,OR,1,1,0,0,1,1,0,1,1,0,176,93,01087767478,F,김서윤,강상호,01042729522,자녀,140125-2668531,농협,005-958711091912,서울 동작구 노량진동 52-35,48,37.512087,126.940868,UNAUTHORIZED_MEMBER,노량진역 도보 2분거리 위치굿 채광 통풍좋고 깨끗한원룸,176,176,서울,동작구,empty,장승배기로28길 16,176,176,176,176,526,527,528,/homeImage/176/01.jpg,/homeImage/176/02.jpg,/homeImage/176/03.jpg,176,/hostImage/59.jpg,0,1,1,1,0,0,1,1,1
660a420e9fbac23c9842c858,1,1,1,1,1,1,1,1,1,0,0,1,1,1,OR,0,1,0,1,1,0,1,1,0,1,177,87,01054022851,M,박정웅,이우진,01052318805,자녀,780128-2851577,우리,002-807241860894,서울 동작구 상도1동 366-1,37,37.501142,126.950621,USER,상도역5분 중앙대 숭실대 치안굿 채광굿,177,177,서울,동작구,empty,상도로43길 14,177,177,177,177,529,530,531,/homeImage/177/01.jpg,/homeImage/177/02.jpg,/homeImage/177/03.jpg,177,/hostImage/60.jpg,1,1,0,0,1,1,1,1,0
660a420e9fbac23c9842c859,1,1,1,1,1,1,1,0,1,0,0,0,1,1,OR,0,0,1,0,1,1,1,1,0,0,178,75,01093720452,M,김재현,이진우,01067447542,자녀,030417-2357891,국민,001-471246592388,서울 동작구 노량진동 222-48,38,37.509749,126.945797,UNAUTHORIZED_MEMBER,2개의 큰창으로 햇빛잘들고 통풍좋으며 조용하고 깨끗한 원룸,178,178,서울,동작구,empty,만양로12길 6,178,178,178,178,532,533,534,/homeImage/178/01.jpg,/homeImage/178/02.jpg,/homeImage/178/03.jpg,178,/hostImage/61.jpg,0,1,0,1,1,1,0,1,0
660a420e9fbac23c9842c85a,1,1,1,1,1,1,1,1,1,0,1,1,1,1,DDDGG,1,1,0,1,1,1,1,1,1,1,179,75,01020626802,F,박예진,김명자,01031226567,자녀,730624-2511841,기업,006-555697018360,서울 동작구 본동 51,40,37.51077,126.955298,UNAUTHORIZED_MEMBER,풀옵션으로 방 넓고 좋습니다 빠른입주,179,179,서울,동작구,empty,노량진로26길 39,179,179,179,179,535,536,537,/homeImage/179/01.jpg,/homeImage/179/02.jpg,/homeImage/179/03.jpg,179,/hostImage/62.jpg,1,1,1,1,1,1,1,1,1
660a420e9fbac23c9842c85b,1,1,1,1,1,1,1,1,1,0,1,0,1,1,OR,0,0,1,0,0,1,1,1,0,1,180,96,01035830679,M,강성민,강도윤,01076174267,자녀,770024-1627964,수협,018-850677198959,서울 동작구 흑석동 207-45,55,37.505682,126.956051,USER,중문 3분 풀옵션 원룸 평지 지상층,180,180,서울,동작구,empty,흑석로6길 34,180,180,180,180,538,539,540,/homeImage/180/01.jpg,/homeImage/180/02.jpg,/homeImage/180/03.jpg,180,/hostImage/63.jpg,0,0,0,1,1,2,0,1,0
660a420e9fbac23c9842c85c,1,1,1,1,1,1,1,1,1,0,0,0,1,1,OR,1,0,0,1,0,0,0,1,0,0,181,95,01088454728,M,최상훈,박민석,01061367037,자녀,540411-2151538,부산,013-025169956076,서울 동작구 노량진동 218-58,38,37.508545,126.94638,UNAUTHORIZED_MEMBER,실2층. 리모델링원룸. 깨끗하게 관리잘되는집.,181,181,서울,동작구,empty,만양로11길 3,181,181,181,181,541,542,543,/homeImage/181/01.jpg,/homeImage/181/02.jpg,/homeImage/181/03.jpg,181,/hostImage/64.jpg,1,0,1,0,0,0,0,1,0
660a420e9fbac23c9842c85d,1,1,1,1,1,1,1,0,1,0,0,1,1,1,OR,1,1,0,1,0,0,1,1,1,0,182,71,01002260161,M,김예준,이채원,01097347966,자녀,490527-2085448,국민,001-023787513265,서울 동작구 노량진동 262-4,45,37.512337,126.936131,UNAUTHORIZED_MEMBER,"진짜 깔끔한 꿀매물,  가격도 저렴해요",182,182,서울,동작구,empty,노량진로8가길 20,182,182,182,182,544,545,546,/homeImage/182/01.jpg,/homeImage/182/02.jpg,/homeImage/182/03.jpg,182,/hostImage/65.jpg,1,0,1,0,1,0,1,1,1
660a420e9fbac23c9842c85e,1,1,1,1,1,1,1,1,1,0,0,1,1,1,OR,1,0,0,0,1,1,1,0,0,0,183,95,01081364808,M,이민석,김영호,01000985714,자녀,050813-2095615,우리,002-687951879275,서울 동작구 대방동 391-315,40,37.501504,126.924261,UNAUTHORIZED_MEMBER,대로변 평지 정남향 채광까지 좋은 원룸,183,183,서울,동작구,empty,대방동27길 81,183,183,183,183,547,548,549,/homeImage/183/01.jpg,/homeImage/183/02.jpg,/homeImage/183/03.jpg,183,/hostImage/66.jpg,0,1,1,1,1,0,0,0,0
660a420e9fbac23c9842c85f,1,1,1,1,1,1,1,0,1,0,0,1,1,1,DDDGG,1,0,0,0,1,1,1,1,1,1,184,97,01053702826,F,이영미,최순옥,01094376371,자녀,560507-2123189,신한,003-442759218235,서울 동작구 대방동 344-26,40,37.511294,126.926343,UNAUTHORIZED_MEMBER,"1호선 대방역 초초역세권, 샛강역 도보 15분, 풀옵션, 직장인 추천",184,184,서울,동작구,empty,여의대방로46길 34,184,184,184,184,550,551,552,/homeImage/184/01.jpg,/homeImage/184/02.jpg,/homeImage/184/03.jpg,184,/hostImage/67.jpg,0,1,1,1,1,1,0,1,1
660a420e9fbac23c9842c860,1,1,1,1,1,1,1,1,1,0,0,0,1,1,OR,1,1,1,0,1,1,1,0,1,0,185,82,01048811465,F,이영희,권상호,01007765581,자녀,690216-2690686,제주,020-568107359633,서울 동작구 상도동 464-5,60,37.500217,126.952386,USER,융자없는집. 엘베있는집. 리모델링완료. 화이트톤넓은집,185,185,서울,동작구,empty,상도로47나길 4,185,185,185,185,553,554,555,/homeImage/185/01.jpg,/homeImage/185/02.jpg,/homeImage/185/03.jpg,185,/hostImage/68.jpg,0,1,1,1,1,1,1,0,1
660a420e9fbac23c9842c861,1,1,1,1,1,1,1,1,1,0,0,1,1,1,OR,1,0,0,1,1,1,0,1,1,0,186,100,01093609624,F,손정자,김민석,01010305360,자녀,070819-2997279,국민,001-496727516717,서울 동작구 상도동 361-101,40,37.503849,126.934701,UNAUTHORIZED_MEMBER,7호선 장승배기역 도보5분 원룸,186,186,서울,동작구,empty,상도로15아길 11,186,186,186,186,556,557,558,/homeImage/186/01.jpg,/homeImage/186/02.jpg,/homeImage/186/03.jpg,186,/hostImage/69.jpg,1,1,1,1,0,0,0,1,1
660a420e9fbac23c9842c862,1,1,1,1,1,1,1,0,1,0,0,1,1,1,DDDGG,0,1,0,1,1,0,0,0,0,1,187,95,01049097751,M,양성훈,배영호,01049778668,자녀,340912-2555601,케이,023-661516439384,서울 동작구 대방동 344-26,40,37.511294,126.926343,USER,"1호선 대방역 초초역세권, 샛강역 도보 15분, 풀옵션, 직장인 추천",187,187,서울,동작구,empty,여의대방로46길 34,187,187,187,187,559,560,561,/homeImage/187/01.jpg,/homeImage/187/02.jpg,/homeImage/187/03.jpg,187,/hostImage/70.jpg,1,1,0,0,0,1,1,0,0
660a420e9fbac23c9842c863,1,1,1,1,1,1,1,1,1,0,0,0,1,1,OR,0,0,0,1,1,1,1,0,1,1,188,84,01098588499,F,오정희,박미정,01096142453,자녀,510012-1795426,경남,014-202646975722,서울 동작구 흑석동 201-27,60,37.508188,126.95698,USER,신축원룸 중앙대3분거리 중대병원5분거리 흑석역8분거리 저렴한원룸,188,188,서울,동작구,empty,흑석로5길 36,188,188,188,188,562,563,564,/homeImage/188/01.jpg,/homeImage/188/02.jpg,/homeImage/188/03.jpg,188,/hostImage/71.jpg,1,1,0,1,1,1,0,0,1
660a420e9fbac23c9842c864,1,1,1,1,1,1,1,1,1,0,0,1,1,1,OR,1,1,1,0,1,0,1,0,0,1,189,66,01037404176,F,황서영,양재호,01056797187,자녀,270502-1503793,국민,001-611507773759,서울 동작구 상도동 17-51,49,37.506221,126.948326,UNAUTHORIZED_MEMBER,신축5년된 풀옵션원룸으로 조용하고 깨끗하며 전세가능,189,189,서울,동작구,empty,만양로 20,189,189,189,189,565,566,567,/homeImage/189/01.jpg,/homeImage/189/02.jpg,/homeImage/189/03.jpg,189,/hostImage/72.jpg,0,1,1,0,1,2,1,0,0
660a420e9fbac23c9842c865,1,1,1,1,1,1,1,0,1,0,0,0,1,1,OR,0,1,0,0,0,1,0,1,0,1,190,76,01078857698,F,한지아,김성호,01060565920,자녀,530408-2753905,우체국,009-509515994355,서울 동작구 노량진동 218-60,40,37.50842,126.946562,USER,남동향 남서향 2개의 큰창으로 햇빛 잘들고 가격이 정말 저렴한 원룸,190,190,서울,동작구,empty,만양로 51,190,190,190,190,568,569,570,/homeImage/190/01.jpg,/homeImage/190/02.jpg,/homeImage/190/03.jpg,190,/hostImage/73.jpg,0,0,0,1,0,1,1,1,0
660a420e9fbac23c9842c866,1,1,1,1,1,1,1,1,1,0,0,0,1,1,OR,0,0,1,1,0,0,1,0,0,0,191,90,01061719626,F,최정숙,김현정,01007405172,자녀,250518-2047363,산업,011-753695638160,서울 동작구 노량진동 222-46,40,37.509783,126.945991,USER,학원가 관리잘된 원룸,191,191,서울,동작구,empty,만양로12길 6,191,191,191,191,571,572,573,/homeImage/191/01.jpg,/homeImage/191/02.jpg,/homeImage/191/03.jpg,191,/hostImage/74.jpg,1,0,0,0,1,1,0,0,0
660a420e9fbac23c9842c867,1,1,1,1,1,1,1,1,1,0,1,0,1,1,OR,0,1,1,1,0,1,1,1,1,0,192,65,01057959598,M,홍정수,박재현,01088694788,자녀,980918-2147535,경남,014-659091471682,서울 동작구 노량진동 215-107,35,37.508535,126.947478,USER,깨끗한준신축. 보안좋고 관리잘되는집. 안심대로변,192,192,서울,동작구,empty,만양로6길 10,192,192,192,192,574,575,576,/homeImage/192/01.jpg,/homeImage/192/02.jpg,/homeImage/192/03.jpg,192,/hostImage/75.jpg,1,0,0,1,1,1,1,1,1
660a420e9fbac23c9842c868,1,1,1,1,1,1,1,1,1,0,0,1,1,1,OR,0,1,1,1,1,0,0,0,1,1,193,78,01017153989,M,구성진,송영자,01072689635,자녀,730111-1030834,케이,023-800552959549,서울 동작구 노량진동 256-60,40,37.512146,126.937809,USER,안심추천.깔끔.풀옵션.가성비굿.,193,193,서울,동작구,empty,노량진로10길 27,193,193,193,193,577,578,579,/homeImage/193/01.jpg,/homeImage/193/02.jpg,/homeImage/193/03.jpg,193,/hostImage/76.jpg,1,1,0,0,0,2,1,0,1
660a420e9fbac23c9842c869,1,1,1,1,1,1,1,0,1,0,0,1,1,1,OR,0,1,0,1,0,1,1,0,0,1,194,78,01074794756,F,이지아,오우진,01003956049,자녀,670528-1606041,제주,020-413212229882,서울 동작구 노량진동 119-176,48,37.511609,126.944829,UNAUTHORIZED_MEMBER,신축4년차 보안 잘 되어 있는 원룸 월세,194,194,서울,동작구,empty,만양로16길 6,194,194,194,194,580,581,582,/homeImage/194/01.jpg,/homeImage/194/02.jpg,/homeImage/194/03.jpg,194,/hostImage/77.jpg,1,0,0,1,1,1,1,0,0
660a420e9fbac23c9842c86a,1,1,1,1,1,1,1,1,1,0,0,1,1,1,OR,0,0,1,0,0,1,0,1,0,0,195,70,01029023809,F,이지현,윤유진,01030649460,자녀,600211-2937219,우리,002-737410837866,서울 동작구 상도1동 366-1,52,37.501142,126.950621,UNAUTHORIZED_MEMBER,융자없는집. 상도역4분. 중앙대숭실대. 편의시설밀집. 안전한위치,195,195,서울,동작구,empty,상도로43길 14,195,195,195,195,583,584,585,/homeImage/195/01.jpg,/homeImage/195/02.jpg,/homeImage/195/03.jpg,195,/hostImage/78.jpg,0,0,0,1,0,1,0,1,0
660a420e9fbac23c9842c86b,1,1,1,0,0,1,0,1,0,0,0,1,1,0,OR,0,1,1,1,1,1,0,1,1,0,196,87,01083104235,M,김정남,이은정,01010331168,자녀,190628-1768021,경남,014-555134680878,서울 동작구 상도동 247-6,50,37.500102,126.933507,USER,empty,196,196,서울,동작구,empty,성대로3길 8,196,196,196,196,586,587,588,/homeImage/196/01.jpg,/homeImage/196/02.jpg,/homeImage/196/03.jpg,196,/hostImage/79.jpg,1,1,0,1,0,1,1,1,1
660a420e9fbac23c9842c86c,1,1,1,1,1,1,1,0,1,0,0,1,1,1,DDDGG,1,0,1,0,0,1,0,1,1,1,197,75,01074647884,F,이서현,조도현,01093137228,자녀,270029-1876546,우리,002-046877987174,서울 동작구 대방동 344-26,30,37.511294,126.926343,UNAUTHORIZED_MEMBER,"1호선 대방역 초초역세권, 샛강역 도보 15분, 풀옵션, 직장인 추천",197,197,서울,동작구,empty,여의대방로46길 34,197,197,197,197,589,590,591,/homeImage/197/01.jpg,/homeImage/197/02.jpg,/homeImage/197/03.jpg,197,/hostImage/80.jpg,0,0,1,1,0,2,0,1,1
660a420e9fbac23c9842c86d,1,1,1,1,1,1,1,1,1,0,0,1,1,1,OR,1,0,0,1,1,1,0,0,0,1,198,76,01082958740,M,이현준,한예진,01012961935,자녀,000704-1016687,경남,014-263340163433,서울 동작구 노량진동 87-14,42,37.512428,126.94346,UNAUTHORIZED_MEMBER,노량진역 도보 3분거리 신축4년차 원룸,198,198,서울,동작구,empty,노량진로14나길 5,198,198,198,198,592,593,594,/homeImage/198/01.jpg,/homeImage/198/02.jpg,/homeImage/198/03.jpg,198,/hostImage/81.jpg,1,1,1,1,0,1,0,0,0
660a420e9fbac23c9842c86e,1,1,1,1,1,1,1,1,1,0,0,1,1,1,DDDGG,1,1,1,0,0,0,0,0,0,1,199,72,01094874811,F,최선영,김미숙,01095678461,자녀,440416-1683984,국민,001-717465163386,서울 동작구 대방동 344-26,30,37.511294,126.926343,USER,"1호선 대방역 초초역세권, 샛강역 도보 15분, 풀옵션, 직장인 추천",199,199,서울,동작구,empty,여의대방로46길 34,199,199,199,199,595,596,597,/homeImage/199/01.jpg,/homeImage/199/02.jpg,/homeImage/199/03.jpg,199,/hostImage/82.jpg,0,0,1,0,0,2,1,0,0
660a420e9fbac23c9842c86f,1,1,1,1,1,1,1,0,1,0,1,0,1,1,OR,0,1,1,0,1,0,0,1,0,1,200,70,01076299566,F,박지원,지경자,01034900978,자녀,300005-2628586,대구,015-673462349226,서울 동작구 상도동 464-5,60,37.500217,126.952386,USER,중대숭실대 오픈형 엘베유 주택가메인도로 위치,200,200,서울,동작구,empty,상도로47나길 4,200,200,200,200,598,599,600,/homeImage/200/01.jpg,/homeImage/200/02.jpg,/homeImage/200/03.jpg,200,/hostImage/83.jpg,0,1,0,0,0,2,1,1,0
660a420e9fbac23c9842c870,1,1,1,1,1,1,1,0,1,0,0,1,1,1,DDDGG,0,0,1,1,0,1,1,1,0,0,201,84,01093254184,F,강경숙,이민재,01010546234,자녀,190611-2100995,광주,017-132870850880,서울 동작구 대방동 344-26,40,37.511294,126.926343,UNAUTHORIZED_MEMBER,"1호선 대방역 초초역세권, 샛강역 도보 15분, 풀옵션, 직장인 추천",201,201,서울,동작구,empty,여의대방로46길 34,201,201,201,201,601,602,603,/homeImage/201/01.jpg,/homeImage/201/02.jpg,/homeImage/201/03.jpg,201,/hostImage/84.jpg,1,0,0,1,1,1,0,1,0
660a420e9fbac23c9842c871,1,1,1,1,1,1,1,0,1,0,0,1,1,1,DDDGG,1,1,1,0,0,1,0,0,0,0,202,67,01078290911,F,안미영,권종수,01083484078,자녀,500016-2004699,부산,013-877664309952,서울 동작구 대방동 344-26,40,37.511294,126.926343,USER,"1호선 대방역 초초역세권, 샛강역 도보 15분, 풀옵션, 직장인 추천",202,202,서울,동작구,empty,여의대방로46길 34,202,202,202,202,604,605,606,/homeImage/202/01.jpg,/homeImage/202/02.jpg,/homeImage/202/03.jpg,202,/hostImage/85.jpg,0,0,1,1,0,1,1,0,0
660a420e9fbac23c9842c872,1,1,1,1,1,1,1,1,1,0,0,1,1,1,DDDGG,0,1,0,1,0,0,0,0,0,1,203,68,01093434622,M,나준서,김은영,01057760365,자녀,270305-2611247,씨티,007-136991747240,서울 동작구 노량진동 246-34,60,37.511026,126.938933,USER,노량진역 초역세권 도보 3분,203,203,서울,동작구,empty,장승배기로27길 30,203,203,203,203,607,608,609,/homeImage/203/01.jpg,/homeImage/203/02.jpg,/homeImage/203/03.jpg,203,/hostImage/86.jpg,1,0,0,0,0,1,1,0,0
660a420e9fbac23c9842c873,1,1,1,1,1,1,1,0,1,0,1,0,1,1,OR,1,0,1,0,0,1,0,0,1,1,204,91,01039994485,M,류정남,장도현,01020375572,자녀,460227-2444030,광주,017-479831508324,서울 동작구 노량진동 215-115,27,37.508692,126.947129,UNAUTHORIZED_MEMBER,깨끗하고 조용한데 가격이 고시텔보다 저렴한 원룸,204,204,서울,동작구,empty,만양로6길 15,204,204,204,204,610,611,612,/homeImage/204/01.jpg,/homeImage/204/02.jpg,/homeImage/204/03.jpg,204,/hostImage/87.jpg,0,0,1,1,0,2,0,0,1
660a420e9fbac23c9842c874,1,1,1,1,1,1,1,1,1,0,1,0,1,1,OR,0,0,0,1,0,1,1,0,1,1,205,100,01094279942,M,허광수,배서영,01050040433,자녀,270324-2196598,부산,013-505248500216,서울 동작구 흑석동 213-1,60,37.50547,126.955937,USER,"중앙대 중문 30초거리 깔끔한 원룸, 젠틀 임대인 원하는거 다 들어줌",205,205,서울,동작구,empty,흑석로6길 31,205,205,205,205,613,614,615,/homeImage/205/01.jpg,/homeImage/205/02.jpg,/homeImage/205/03.jpg,205,/hostImage/88.jpg,1,0,0,1,1,1,0,0,1
660a420e9fbac23c9842c875,1,1,1,1,1,1,1,1,1,0,0,1,1,1,OR,1,0,0,0,1,0,0,1,0,1,206,82,01038430232,M,오정남,배지은,01012485077,자녀,190902-2897336,국민,001-211710146620,서울 동작구 노량진동 119-149,33,37.511573,126.945076,USER,풀옵션입니다 단기가능합니다,206,206,서울,동작구,empty,만양로14길 13,206,206,206,206,616,617,618,/homeImage/206/01.jpg,/homeImage/206/02.jpg,/homeImage/206/03.jpg,206,/hostImage/89.jpg,0,1,1,0,0,1,0,1,0
660a420e9fbac23c9842c876,1,1,1,1,1,1,1,0,1,0,1,1,1,1,OR,1,0,1,1,0,1,1,0,0,1,207,72,01042685512,M,이성현,양준영,01022623466,자녀,860613-1089987,케이,023-607693980942,서울 동작구 상도동 358-7,50,37.503765,126.935998,USER,7호선 역세권 풀옵션 원룸 무료주차 선착순,207,207,서울,동작구,empty,상도로19길 39,207,207,207,207,619,620,621,/homeImage/207/01.jpg,/homeImage/207/02.jpg,/homeImage/207/03.jpg,207,/hostImage/90.jpg,1,0,1,1,1,2,0,0,0
660a420e9fbac23c9842c877,1,1,1,1,1,1,1,0,1,0,0,1,1,1,OR,0,1,1,1,1,0,0,0,1,1,208,89,01089295308,M,이서준,이정남,01045523713,자녀,220823-2741589,하나,004-752657771523,서울 동작구 노량진동 127-11,35,37.512498,126.946252,USER,가성비굿 위치좋고 컨디션 좋은 리모델링 귀한 매물,208,208,서울,동작구,empty,만양로14길 39,208,208,208,208,622,623,624,/homeImage/208/01.jpg,/homeImage/208/02.jpg,/homeImage/208/03.jpg,208,/hostImage/91.jpg,1,1,0,0,0,2,1,0,1
660a420e9fbac23c9842c878,1,1,1,1,1,1,1,0,1,0,0,1,1,1,OR,0,0,0,0,1,1,0,0,1,0,209,78,01065969322,M,김영수,김서준,01060787965,자녀,360027-1942976,대구,015-108087096516,서울 동작구 상도1동 428-13,45,37.501948,126.950379,USER,2016년 사용승인 잘 관리된 넓고 깔끔한 풀옵션 대로변 편의시설 인접,209,209,서울,동작구,empty,상도로41길 22,209,209,209,209,625,626,627,/homeImage/209/01.jpg,/homeImage/209/02.jpg,/homeImage/209/03.jpg,209,/hostImage/92.jpg,0,1,0,1,0,0,0,0,1
660a420e9fbac23c9842c879,1,1,1,1,1,1,1,0,1,0,0,0,1,1,OR,1,0,1,0,1,0,1,1,0,1,210,81,01064967858,F,윤영숙,안지훈,01031249863,자녀,660301-1006378,카카오,090-569126320645,서울 동작구 노량진동 220-29,34,37.509222,126.945285,USER,융자없는집. 학원가3분. 가성비좋은방,210,210,서울,동작구,empty,만양로 67,210,210,210,210,628,629,630,/homeImage/210/01.jpg,/homeImage/210/02.jpg,/homeImage/210/03.jpg,210,/hostImage/93.jpg,0,1,1,0,1,2,0,1,0
660a420e9fbac23c9842c87a,1,1,1,1,1,1,1,0,1,0,0,1,1,1,OR,1,0,1,0,0,1,1,1,1,0,211,90,01097655696,F,이영순,박영미,01018711577,자녀,360218-2052591,카카오,090-688488454000,서울 동작구 상도동 361-141,40,37.504976,126.935138,UNAUTHORIZED_MEMBER,장승배기역 역세권 엘베있는 초저렴 원룸,211,211,서울,동작구,empty,상도로15바길 26,211,211,211,211,631,632,633,/homeImage/211/01.jpg,/homeImage/211/02.jpg,/homeImage/211/03.jpg,211,/hostImage/94.jpg,0,0,1,1,1,1,0,1,1
660a420e9fbac23c9842c87b,1,1,1,1,1,1,1,0,1,0,0,1,1,1,OR,0,0,1,1,1,1,1,1,0,0,212,91,01095668754,M,이민준,김도윤,01069794829,자녀,660005-1006237,하나,004-210216387699,서울 동작구 상도동 361-101,40,37.503849,126.934701,UNAUTHORIZED_MEMBER,장승배기역 도보 5분거리 이용 가능 언제 든지 입주협의 가능 밝고환해요,212,212,서울,동작구,empty,상도로15아길 11,212,212,212,212,634,635,636,/homeImage/212/01.jpg,/homeImage/212/02.jpg,/homeImage/212/03.jpg,212,/hostImage/95.jpg,1,1,0,1,1,1,0,1,0
660a420e9fbac23c9842c87c,1,1,1,1,1,1,1,0,1,0,1,0,1,1,OR,1,1,0,0,0,0,0,0,0,0,213,74,01002261099,F,노보람,윤영진,01065469108,자녀,490728-2771928,농협,005-648226292496,서울 동작구 상도동 243-19,45,37.500712,126.934578,UNAUTHORIZED_MEMBER,"L신대방삼거리역, 장승배기역 도보권 극강 원룸",213,213,서울,동작구,empty,성대로29길 122,213,213,213,213,637,638,639,/homeImage/213/01.jpg,/homeImage/213/02.jpg,/homeImage/213/03.jpg,213,/hostImage/96.jpg,0,0,1,0,0,0,1,0,0
660a420e9fbac23c9842c87d,1,1,1,1,1,1,1,0,1,0,0,1,1,1,OR,1,1,1,0,0,1,0,1,1,1,214,68,01065039635,M,장도현,심수빈,01070678918,자녀,200320-2845967,경남,014-333909008396,서울 동작구 노량진동 119-146,48,37.511739,126.945052,UNAUTHORIZED_MEMBER,노량진 학원가 큰 원룸 실6P 내부시설 좋음 빠른입주 가능,214,214,서울,동작구,empty,만양로16길 31,214,214,214,214,640,641,642,/homeImage/214/01.jpg,/homeImage/214/02.jpg,/homeImage/214/03.jpg,214,/hostImage/97.jpg,0,0,1,1,0,2,1,1,1
660a420e9fbac23c9842c87e,1,1,1,1,1,1,1,1,1,0,0,0,1,1,OR,1,0,0,0,0,1,0,0,1,1,215,67,01050342196,M,김병철,서정수,01050412513,자녀,080522-2226785,전북,016-908445164536,서울 동작구 상도1동 483-1,60,37.503738,126.951926,UNAUTHORIZED_MEMBER,중앙대5분 남학생전용 신축급컨디션 풀옵션 원룸입니다.,215,215,서울,동작구,empty,상도로47길 102,215,215,215,215,643,644,645,/homeImage/215/01.jpg,/homeImage/215/02.jpg,/homeImage/215/03.jpg,215,/hostImage/98.jpg,0,0,1,1,0,1,0,0,1
660a420e9fbac23c9842c87f,1,1,1,1,1,1,1,0,1,0,0,0,1,1,OR,1,1,1,1,1,1,0,1,0,0,216,71,01072360833,F,이은주,최정훈,01096402378,자녀,810029-2344115,전북,016-243462287617,서울 동작구 대방동 20-48,43,37.509296,126.931714,UNAUTHORIZED_MEMBER,대방역도보10분 리모델링완료 옵션최고 넓은원룸 가성비최고,216,216,서울,동작구,empty,여의대방로36길 101,216,216,216,216,646,647,648,/homeImage/216/01.jpg,/homeImage/216/02.jpg,/homeImage/216/03.jpg,216,/hostImage/99.jpg,1,1,1,1,0,1,1,1,0
660a420e9fbac23c9842c880,1,1,1,1,1,1,1,0,1,0,0,1,1,1,OR,1,1,0,0,0,1,0,0,1,0,217,65,01080325880,F,송지아,강서윤,01086686839,자녀,610420-2209919,전북,016-499407583263,서울 동작구 상도1동 428-13,45,37.501948,126.950379,UNAUTHORIZED_MEMBER,상도역 큰대로변 깔끔한 신축급 원룸,217,217,서울,동작구,empty,상도로41길 22,217,217,217,217,649,650,651,/homeImage/217/01.jpg,/homeImage/217/02.jpg,/homeImage/217/03.jpg,217,/hostImage/100.jpg,0,0,1,1,0,0,1,0,1
660a420e9fbac23c9842c881,1,1,1,1,1,1,1,0,1,0,0,0,1,1,OR,0,1,1,0,0,0,1,1,0,1,218,72,01035886652,F,박지민,노미정,01084216919,자녀,660011-1022735,토스,012-794286353403,서울 동작구 노량진동 215-108,43,37.508459,126.947545,USER,깔끔한 풀옵션 원룸,218,218,서울,동작구,empty,만양로6길 8,218,218,218,218,652,653,654,/homeImage/218/01.jpg,/homeImage/218/02.jpg,/homeImage/218/03.jpg,218,/hostImage/101.jpg,0,0,0,0,1,2,1,1,0
660a420e9fbac23c9842c882,1,1,1,1,1,1,1,1,1,0,0,0,1,1,OR,1,0,0,0,0,1,1,1,0,0,219,67,01053728972,M,김진우,김현우,01035054260,자녀,710707-1462193,농협,005-126054170780,서울 동작구 상도동 464-5,60,37.500217,126.952386,USER,융자없고 깔끔수리된 엘베있는 풀옵션 원룸입니다.,219,219,서울,동작구,empty,상도로47나길 4,219,219,219,219,655,656,657,/homeImage/219/01.jpg,/homeImage/219/02.jpg,/homeImage/219/03.jpg,219,/hostImage/102.jpg,0,0,1,1,1,0,0,1,0
660a420e9fbac23c9842c883,1,1,1,1,1,1,1,0,1,0,0,0,1,1,OR,1,0,0,1,0,0,0,1,0,1,220,78,01003691734,F,서지혜,이지영,01008209274,자녀,370210-2657253,하나,004-224090417883,서울 동작구 대방동 20-48,38,37.509296,126.931714,UNAUTHORIZED_MEMBER,대방역도보10분 리모델링완료 옵션최고 넓은원룸 가성비최고,220,220,서울,동작구,empty,여의대방로36길 101,220,220,220,220,658,659,660,/homeImage/220/01.jpg,/homeImage/220/02.jpg,/homeImage/220/03.jpg,220,/hostImage/103.jpg,1,0,1,0,0,1,0,1,0
660a420e9fbac23c9842c884,1,1,1,1,1,1,1,1,1,0,0,1,1,1,OR,1,0,0,0,1,0,0,0,1,1,221,90,01043926802,M,지승현,한서연,01052064994,자녀,680720-2930315,우리,002-465753521987,서울 동작구 노량진동 119-241,33,37.511688,126.943687,UNAUTHORIZED_MEMBER,"공실, 학원가 인근,신축급 깨끗한 풀옵션 원룸",221,221,서울,동작구,empty,노량진로14나길 19,221,221,221,221,661,662,663,/homeImage/221/01.jpg,/homeImage/221/02.jpg,/homeImage/221/03.jpg,221,/hostImage/104.jpg,0,1,1,0,0,1,0,0,1
660a420e9fbac23c9842c885,1,1,1,1,1,1,1,0,1,0,0,0,1,1,OR,0,0,1,0,1,1,1,1,0,0,222,79,01069822698,M,이지훈,박정숙,01086145047,자녀,070319-1496743,하나,004-653076670766,서울 동작구 노량진동 205-259,37,37.511523,126.947336,USER,가성비최고 크기좋고 관리잘 된 풀옵션 원룸,222,222,서울,동작구,empty,만양로14사길 20,222,222,222,222,664,665,666,/homeImage/222/01.jpg,/homeImage/222/02.jpg,/homeImage/222/03.jpg,222,/hostImage/105.jpg,0,1,0,1,1,1,0,1,0
660a420e9fbac23c9842c886,1,1,1,1,1,1,1,0,1,0,1,1,1,1,OR,0,1,1,1,0,0,1,1,1,1,223,76,01094482434,M,이지훈,양성민,01027401371,자녀,430606-1884667,대구,015-683661716841,서울 동작구 상도동 331-86,30,37.501755,126.932957,UNAUTHORIZED_MEMBER,"L신대방삼거리역, 장승배기역 도보권 극강 원룸",223,223,서울,동작구,empty,상도로15나길 3,223,223,223,223,667,668,669,/homeImage/223/01.jpg,/homeImage/223/02.jpg,/homeImage/223/03.jpg,223,/hostImage/106.jpg,1,0,0,0,1,2,1,1,1
660a420e9fbac23c9842c887,1,1,1,1,1,1,1,0,1,0,1,0,1,1,OR,0,1,1,1,1,0,0,0,0,0,224,85,01065759390,F,장서영,류영철,01031927641,자녀,760625-2082530,제주,020-163642024342,서울 동작구 노량진동 215-100,30,37.508848,126.947218,USER,실1층 지상층. 금액좋은방. 학원가7분. 관리잘되는집,224,224,서울,동작구,empty,만양로6길 18,224,224,224,224,670,671,672,/homeImage/224/01.jpg,/homeImage/224/02.jpg,/homeImage/224/03.jpg,224,/hostImage/107.jpg,1,1,0,0,0,1,1,0,0
660a420e9fbac23c9842c888,1,1,1,1,1,1,1,0,1,0,1,0,1,1,OR,1,1,1,0,1,1,0,0,0,1,225,80,01074137429,M,이영진,김영미,01006799937,자녀,420615-1798186,광주,017-618923194209,서울 동작구 노량진동 219-34,44,37.508563,126.946556,USER,실제면적 훨씬 넓고 앞이 틔여있어 채광좋고 깨끗한 도시형생활주택,225,225,서울,동작구,empty,만양로 51,225,225,225,225,673,674,675,/homeImage/225/01.jpg,/homeImage/225/02.jpg,/homeImage/225/03.jpg,225,/hostImage/108.jpg,0,1,1,1,0,2,1,0,0
660a420e9fbac23c9842c889,1,1,1,1,1,1,1,1,1,0,0,0,1,1,DDDGG,1,1,0,1,1,1,0,0,0,1,226,81,01006012795,M,배영식,한영진,01045980187,자녀,940507-1710224,SC제일,008-458288352303,서울 동작구 대방동 20-48,38,37.509296,126.931714,UNAUTHORIZED_MEMBER,대방역도보10분 리모델링완료 옵션최고 넓은원룸 가성비최고,226,226,서울,동작구,empty,여의대방로36길 101,226,226,226,226,676,677,678,/homeImage/226/01.jpg,/homeImage/226/02.jpg,/homeImage/226/03.jpg,226,/hostImage/109.jpg,1,1,1,1,0,1,1,0,0
660a420e9fbac23c9842c88a,1,1,1,1,1,1,1,0,1,0,1,0,1,1,OR,1,0,0,0,0,1,0,1,0,1,227,77,01066894174,M,이준호,강영수,01058908248,자녀,460026-1272637,신한,003-481412721264,서울 동작구 노량진동 215-115,45,37.508692,126.947129,UNAUTHORIZED_MEMBER,방크고  깨끗하며 채광좋고 조용한  원룸,227,227,서울,동작구,empty,만양로6길 15,227,227,227,227,679,680,681,/homeImage/227/01.jpg,/homeImage/227/02.jpg,/homeImage/227/03.jpg,227,/hostImage/110.jpg,0,0,1,1,0,1,0,1,0
660a420e9fbac23c9842c88b,1,1,1,1,1,1,1,0,1,0,0,0,1,1,OR,1,1,0,0,1,1,0,0,0,1,228,68,01008095867,M,이영길,최영철,01037633461,자녀,810021-1598611,하나,004-391884278558,서울 동작구 대방동 20-48,43,37.509296,126.931714,UNAUTHORIZED_MEMBER,돌침대옵션 리모델링 사이즈좋은 원룸 즉시입주,228,228,서울,동작구,empty,여의대방로36길 101,228,228,228,228,682,683,684,/homeImage/228/01.jpg,/homeImage/228/02.jpg,/homeImage/228/03.jpg,228,/hostImage/111.jpg,0,1,1,1,0,1,1,0,0
660a420e9fbac23c9842c88c,1,1,1,1,1,1,1,0,1,0,0,1,1,1,OR,0,1,1,0,0,1,1,0,1,1,229,99,01044333857,F,노현지,김현우,01041210329,자녀,540305-1819522,농협,005-960820832928,서울 동작구 상도1동 696,45,37.504099,126.948156,UNAUTHORIZED_MEMBER,상도역1분.관리인상주해 안전.채광좋아요.안심대로변,229,229,서울,동작구,empty,상도로 265,229,229,229,229,685,686,687,/homeImage/229/01.jpg,/homeImage/229/02.jpg,/homeImage/229/03.jpg,229,/hostImage/112.jpg,0,0,0,1,1,2,1,0,1
660a420e9fbac23c9842c88d,1,1,1,1,1,1,1,0,1,0,0,0,1,1,OR,1,1,1,0,1,1,1,1,1,1,230,83,01009415305,F,송미경,김현주,01004786135,자녀,400409-1246374,토스,012-652349985665,서울 동작구 대방동 20-89,43,37.509193,126.931516,USER,따뜻하고 조용한 방,230,230,서울,동작구,empty,여의대방로36길 101,230,230,230,230,688,689,690,/homeImage/230/01.jpg,/homeImage/230/02.jpg,/homeImage/230/03.jpg,230,/hostImage/113.jpg,0,1,1,1,1,2,1,1,1
660a420e9fbac23c9842c88e,1,1,1,1,1,1,1,0,1,0,0,1,1,1,OR,1,0,0,1,0,0,0,1,0,0,231,82,01066557216,F,서순자,문경숙,01059708899,자녀,230305-2460280,케이,023-124774837207,서울 동작구 상도1동 428-13,45,37.501948,126.950379,USER,단기가능.상도역신축원룸. 안전한 대로변. 중대.숭대 통학가능.,231,231,서울,동작구,empty,상도로41길 22,231,231,231,231,691,692,693,/homeImage/231/01.jpg,/homeImage/231/02.jpg,/homeImage/231/03.jpg,231,/hostImage/114.jpg,1,0,1,0,0,0,0,1,0
660a420e9fbac23c9842c88f,1,1,1,1,1,1,1,0,1,0,0,0,1,1,OR,0,0,1,1,1,0,0,1,1,0,232,88,01036521359,F,박미숙,우지민,01003389744,자녀,990700-1010581,카카오,090-689914359667,서울 동작구 노량진동 220-11,45,37.508982,126.945225,UNAUTHORIZED_MEMBER,실2층 베란다있는방. 신축급컨디션. 관리잘되는집. 채광좋은집,232,232,서울,동작구,empty,만양로13길 37,232,232,232,232,694,695,696,/homeImage/232/01.jpg,/homeImage/232/02.jpg,/homeImage/232/03.jpg,232,/hostImage/115.jpg,1,1,0,0,0,1,0,1,1
660a420e9fbac23c9842c890,1,1,1,1,1,1,1,0,1,0,0,0,1,1,OR,1,0,1,0,1,0,1,1,1,1,233,67,01071895963,F,조아름,박성호,01069120708,자녀,780807-2659859,씨티,007-828682910515,서울 동작구 노량진동 123-43,38,37.510443,126.945963,UNAUTHORIZED_MEMBER,종일 햇살이 들어오는 노량진에서 보기 드문  가성비 좋은 정남향 원룸,233,233,서울,동작구,empty,만양로8길 64,233,233,233,233,697,698,699,/homeImage/233/01.jpg,/homeImage/233/02.jpg,/homeImage/233/03.jpg,233,/hostImage/116.jpg,0,1,1,0,1,2,0,1,1
660a420e9fbac23c9842c891,1,1,1,1,1,1,1,1,1,0,0,1,1,1,OR,1,1,1,1,1,0,1,0,1,1,234,83,01083616187,M,최영호,류보람,01088687128,자녀,170804-1338489,농협,005-785425205317,서울 동작구 대방동 391-23,40,37.501686,126.927859,USER,대출가능 가성비끝판왕 초저렴신축원룸,234,234,서울,동작구,empty,대방동길 21,234,234,234,234,700,701,702,/homeImage/234/01.jpg,/homeImage/234/02.jpg,/homeImage/234/03.jpg,234,/hostImage/117.jpg,1,1,1,0,1,2,1,0,1
660a420e9fbac23c9842c892,1,1,1,1,1,1,1,1,1,0,0,1,1,1,OR,0,1,0,0,1,1,0,1,1,1,235,78,01021463565,M,이주원,김현우,01070587620,자녀,420511-2122015,하나,004-369873716891,서울 동작구 상도1동 732,40,37.50259,126.947235,UNAUTHORIZED_MEMBER,상도역초역세권 보면 바로 계약가능 저렴한 신축분리형,235,235,서울,동작구,empty,상도로38나길 14,235,235,235,235,703,704,705,/homeImage/235/01.jpg,/homeImage/235/02.jpg,/homeImage/235/03.jpg,235,/hostImage/1.jpg,0,1,0,1,0,1,1,1,1
660a420e9fbac23c9842c893,1,1,1,1,1,1,1,1,1,0,0,0,1,1,OR,0,1,0,1,0,0,0,0,1,0,236,79,01069054648,M,김주원,백민준,01065968138,자녀,790307-1542597,부산,013-498801024464,서울 동작구 상도1동 312-2,35,37.500551,126.952351,USER,안심대로변 상도역가까운 가성비원룸,236,236,서울,동작구,empty,상도로47길 32,236,236,236,236,706,707,708,/homeImage/236/01.jpg,/homeImage/236/02.jpg,/homeImage/236/03.jpg,236,/hostImage/2.jpg,1,0,0,0,0,0,1,0,1
660a420e9fbac23c9842c894,1,1,1,1,1,1,1,0,1,0,0,1,1,1,OR,0,1,0,1,0,1,1,0,1,1,237,97,01081784169,F,김아름,강지아,01029476052,자녀,790023-2764275,대구,015-515701332437,서울 동작구 상도1동 732,50,37.50259,126.947235,USER,상도역1분.신축넓은분리형.위치좋아안전.집주인거주,237,237,서울,동작구,empty,상도로38나길 14,237,237,237,237,709,710,711,/homeImage/237/01.jpg,/homeImage/237/02.jpg,/homeImage/237/03.jpg,237,/hostImage/3.jpg,1,0,0,1,1,1,1,0,1
660a420e9fbac23c9842c895,1,1,1,1,1,1,1,1,1,0,1,1,1,1,OR,1,1,1,0,1,0,1,0,0,0,238,98,01055759878,F,김하은,김성훈,01002415807,자녀,690526-2620059,기업,006-616153691103,서울 동작구 상도1동 426-1,45,37.501511,126.950602,UNAUTHORIZED_MEMBER,"중앙대,숭실대 깔끔한 반지층 풀옵션 원룸",238,238,서울,동작구,empty,상도로47가길 38,238,238,238,238,712,713,714,/homeImage/238/01.jpg,/homeImage/238/02.jpg,/homeImage/238/03.jpg,238,/hostImage/4.jpg,0,1,1,0,1,1,1,0,0
660a420e9fbac23c9842c896,1,1,1,1,1,1,1,1,1,0,1,1,1,1,OR,1,0,1,1,0,0,0,1,1,1,239,86,01000824775,F,이지혜,조하윤,01096662387,자녀,570214-1221494,하나,004-195988636246,서울 동작구 상도동 22-52,45,37.506346,126.946436,UNAUTHORIZED_MEMBER,풀옵션원룸 빠른입주가능,239,239,서울,동작구,empty,만양로1길 15,239,239,239,239,715,716,717,/homeImage/239/01.jpg,/homeImage/239/02.jpg,/homeImage/239/03.jpg,239,/hostImage/5.jpg,1,0,1,0,0,2,0,1,1
660a420e9fbac23c9842c897,1,1,1,1,1,1,1,0,1,0,1,1,1,1,OR,0,1,0,0,1,1,0,0,1,1,240,100,01003700077,M,김민재,박영진,01042910230,자녀,710007-2425254,우리,002-796781636790,서울 동작구 상도동 356-140,45,37.502288,126.933696,USER,채광좋은 깔끔한 원룸 전세가능 주차가능,240,240,서울,동작구,empty,상도로15길 33,240,240,240,240,718,719,720,/homeImage/240/01.jpg,/homeImage/240/02.jpg,/homeImage/240/03.jpg,240,/hostImage/6.jpg,0,1,0,1,0,1,1,0,1
660a420e9fbac23c9842c898,1,1,1,1,1,1,1,0,1,0,1,0,1,1,OR,1,1,1,1,0,1,0,0,0,0,241,74,01054693190,M,한성훈,김서윤,01027380550,자녀,190720-2272967,우체국,009-351188611354,서울 동작구 대방동 20-87,40,37.509329,126.931514,USER,"집앞이 마을버스 정류장, 월세가 저렴한 집,",241,241,서울,동작구,empty,여의대방로36길 101,241,241,241,241,721,722,723,/homeImage/241/01.jpg,/homeImage/241/02.jpg,/homeImage/241/03.jpg,241,/hostImage/7.jpg,1,0,1,1,0,1,1,0,0
660a420e9fbac23c9842c899,1,1,1,1,1,1,1,0,1,0,1,0,1,1,OR,1,0,0,0,1,1,0,1,0,0,242,91,01089946948,M,홍성진,최서현,01003287333,자녀,390428-1261861,토스,012-891450440492,서울 동작구 대방동 20-48,38,37.509296,126.931714,USER,"넓은 원룸, 침대있음,  상태 아주깨끗하고  저렴",242,242,서울,동작구,empty,여의대방로36길 101,242,242,242,242,724,725,726,/homeImage/242/01.jpg,/homeImage/242/02.jpg,/homeImage/242/03.jpg,242,/hostImage/8.jpg,0,1,1,1,0,0,0,1,0
660a420e9fbac23c9842c89a,1,1,1,1,1,1,1,0,1,0,1,0,1,1,OR,0,1,0,0,0,1,0,0,1,0,243,96,01058236644,M,이지후,이도윤,01067850113,자녀,640729-1035730,우리,002-808162150262,서울 동작구 대방동 17-39,50,37.509138,126.93186,USER,역세권신축급의 채광조은 큰 방,243,243,서울,동작구,empty,등용로9길 1,243,243,243,243,727,728,729,/homeImage/243/01.jpg,/homeImage/243/02.jpg,/homeImage/243/03.jpg,243,/hostImage/9.jpg,0,0,0,1,0,0,1,0,1
660a420e9fbac23c9842c89b,1,1,1,1,1,1,1,0,1,0,1,1,1,1,OR,1,1,0,0,0,0,0,0,0,0,244,92,01032440670,F,손지민,이보람,01030457056,자녀,870124-2659873,케이,023-780676451881,서울 동작구 노량진동 270,40,37.512297,126.935181,USER,햇살맛집넉넉한평수깔끔한내실,244,244,서울,동작구,empty,등용로14길 66,244,244,244,244,730,731,732,/homeImage/244/01.jpg,/homeImage/244/02.jpg,/homeImage/244/03.jpg,244,/hostImage/10.jpg,0,0,1,0,0,0,1,0,0
660a420e9fbac23c9842c89c,1,1,1,1,1,1,1,0,1,0,1,0,1,1,OR,0,0,0,0,1,1,0,1,1,0,245,74,01090000363,F,최영자,김예진,01016290041,자녀,630604-1133839,기업,006-005242991835,서울 동작구 대방동 20-87,40,37.509329,126.931514,USER,역세권 신축급의 햇살조은 깔끔한 원룸,245,245,서울,동작구,empty,여의대방로36길 101,245,245,245,245,733,734,735,/homeImage/245/01.jpg,/homeImage/245/02.jpg,/homeImage/245/03.jpg,245,/hostImage/11.jpg,0,1,0,1,0,0,0,1,1
660a420e9fbac23c9842c89d,1,1,1,1,1,1,1,0,1,0,0,0,1,1,OR,1,1,1,1,0,0,1,0,1,0,246,84,01021699182,F,한수빈,이정호,01074774062,자녀,540602-1061143,카카오,090-087190772448,서울 동작구 대방동 20-48,43,37.509296,126.931714,UNAUTHORIZED_MEMBER,"넓은방 아주 깨끗함, 바로 입주, 침대도 있음",246,246,서울,동작구,empty,여의대방로36길 101,246,246,246,246,736,737,738,/homeImage/246/01.jpg,/homeImage/246/02.jpg,/homeImage/246/03.jpg,246,/hostImage/12.jpg,1,0,1,0,1,1,1,0,1
660a420e9fbac23c9842c89e,1,1,1,1,1,1,1,0,1,0,1,0,1,1,OR,1,0,0,1,1,0,0,0,0,1,247,89,01068737861,M,김병철,노정숙,01031694994,자녀,440018-1444272,SC제일,008-705471794043,서울 동작구 노량진동 206-8,45,37.512176,126.946913,USER,깔끔하고 학원가에 인접한 원룸입니다,247,247,서울,동작구,empty,만양로14바길 5,247,247,247,247,739,740,741,/homeImage/247/01.jpg,/homeImage/247/02.jpg,/homeImage/247/03.jpg,247,/hostImage/13.jpg,1,1,1,0,0,1,0,0,0
660a420e9fbac23c9842c89f,0,1,1,0,1,1,0,1,1,0,1,0,1,0,OR,1,0,1,0,1,0,0,1,1,1,248,99,01001145415,F,김영희,김종수,01027934547,자녀,720408-2274610,우체국,009-964541222753,서울 동작구 대방동 391-80,30,37.502483,126.924278,UNAUTHORIZED_MEMBER,empty,248,248,서울,동작구,empty,대방동27길 61,248,248,248,248,742,743,744,/homeImage/248/01.jpg,/homeImage/248/02.jpg,/homeImage/248/03.jpg,248,/hostImage/14.jpg,0,1,1,0,0,2,0,1,1
660a420e9fbac23c9842c8a0,1,1,0,0,0,0,1,0,0,0,1,1,0,0,OR,1,1,0,1,0,0,0,1,0,0,249,70,01056386491,F,김민지,강지현,01078244636,자녀,340523-2505087,신한,003-505783278712,서울 동작구 대방동 392-4,40,37.502583,126.927677,UNAUTHORIZED_MEMBER,empty,249,249,서울,동작구,empty,대방동2길 33,249,249,249,249,745,746,747,/homeImage/249/01.jpg,/homeImage/249/02.jpg,/homeImage/249/03.jpg,249,/hostImage/15.jpg,1,0,1,0,0,0,1,1,0
660a420e9fbac23c9842c8a1,1,1,0,1,1,0,1,0,1,1,1,0,1,1,OR,0,0,0,0,0,1,1,1,1,0,250,91,01032333597,F,박은지,김미숙,01060153132,자녀,120017-2589235,우리,002-243159242740,서울 동작구 대방동 391-245,35,37.502724,126.924984,USER,empty,250,250,서울,동작구,empty,대방동15길 5,250,250,250,250,748,749,750,/homeImage/250/01.jpg,/homeImage/250/02.jpg,/homeImage/250/03.jpg,250,/hostImage/16.jpg,0,0,0,1,1,0,0,1,1
660a420e9fbac23c9842c8a2,1,0,1,0,0,0,1,1,0,1,1,1,1,0,OR,1,0,1,0,1,0,0,0,1,0,251,65,01011219217,M,이경수,양수빈,01013540415,자녀,140319-2708222,수협,018-722144810945,서울 동작구 대방동 391-540,35,37.501324,126.927407,USER,empty,251,251,서울,동작구,empty,대방동5길 4,251,251,251,251,751,752,753,/homeImage/251/01.jpg,/homeImage/251/02.jpg,/homeImage/251/03.jpg,251,/hostImage/17.jpg,0,1,1,0,0,1,0,0,1
