_id,internet,gas,washing_machine,air_conditioner,refrigerator,elevator,microwave,breakfast,toilet,heating,parking,station,move_in_date,sink,type,smoke,pet,clean,daytime,nighttime,extrovert,introvert,cold,hot,no_touch,home_no,host_name,host_age,host_phone,host_gender,guardian_name,guardian_phone,relation,host_register_no,host_account_no,host_bank,address,rent,lat,lng,role,introduce,host_personality_no,home_option_no,si,sgg,emd,ro,home_image_no,home_image[0].home_no,home_image[1].home_no,home_image[2].home_no,home_image[0].home_image_no,home_image[1].home_image_no,home_image[2].home_image_no,home_image[0].home_image_url,home_image[1].home_image_url,home_image[2].home_image_url,host_image_no,host_image_url,host_vector.day_element,host_vector.night_element,host_vector.smoke_element,host_vector.extro_element,host_vector.intro_element,host_vector.mannered_element,host_vector.pet_lover_element,host_vector.cold_element,host_vector.hot_element
6604e47d5a3bbf6a87dcf961,1,1,1,1,1,1,1,0,1,0,0,1,1,1,OR,1,1,1,1,1,0,0,1,0,1,1,최미정,93,01003135102,F,김승현,01079790398,자녀,600610-1916882,xx-xxxxx-xxx,우리,서울 성동구 성수동1가 7-3,70,37.548342,127.046468,UNAUTHORIZED_MEMBER,"뚝섬역 도보 3분, 컨디션 좋은 풀옵션 원룸",1,1,서울,성동구,empty,왕십리로14길 28,1,1,1,1,1,2,3,/homeImage/1/01.jpg,/homeImage/1/02.jpg,/homeImage/1/03.jpg,1,/hostImage/1.jpg,1,1,1,0,0,2,1,1,0
6604e47d5a3bbf6a87dcf962,1,1,1,1,1,1,1,1,1,0,1,0,1,1,VL,1,1,0,1,0,0,1,0,0,1,2,이성수,79,01021887179,F,김정남,01090285506,자녀,290524-1736228,xx-xxxxx-xxx,카카오,서울 성동구 응봉동 265-96,35,37.552341,127.029985,UNAUTHORIZED_MEMBER,올수리 깨끗함,2,2,서울,성동구,empty,독서당로59가길 27,2,2,2,2,4,5,6,/homeImage/2/01.jpg,/homeImage/2/02.jpg,/homeImage/2/03.jpg,2,/hostImage/2.jpg,1,0,1,0,1,1,1,0,0
6604e47d5a3bbf6a87dcf963,1,1,1,1,1,1,1,0,1,0,0,1,1,1,OR,1,1,1,1,0,1,1,0,1,1,3,최영숙,77,01013136006,M,박병철,01081668161,자녀,150315-1267432,xx-xxxxx-xxx,부산,서울 성동구 용답동 24-13,50,37.561471,127.054653,UNAUTHORIZED_MEMBER,풀옵션의 깔끔한 분리형 원룸 더블 역세권으로 교통편리,3,3,서울,성동구,empty,용답25길 4,3,3,3,3,7,8,9,/homeImage/3/01.jpg,/homeImage/3/02.jpg,/homeImage/3/03.jpg,3,/hostImage/3.jpg,1,0,1,1,1,2,1,0,1
6604e47d5a3bbf6a87dcf964,1,1,1,1,1,1,1,0,1,0,0,1,1,1,OR,1,0,1,1,0,0,0,0,0,0,4,박순자,96,01005264497,M,장재호,01054778722,자녀,430110-2712238,xx-xxxxx-xxx,광주,서울 성동구 용답동 24-13,25,37.561471,127.054653,MEMBER,풀옵션의 깔끔한 분리형 원룸 더블 역세권으로 교통편리,4,4,서울,성동구,empty,용답25길 4,4,4,4,4,10,11,12,/homeImage/4/01.jpg,/homeImage/4/02.jpg,/homeImage/4/03.jpg,4,/hostImage/4.jpg,1,0,1,0,0,1,0,0,0
6604e47d5a3bbf6a87dcf965,1,1,1,1,1,1,1,0,1,0,1,0,1,1,DDDGG,0,1,0,0,0,1,0,1,1,0,5,김예지,81,01021503954,M,김정호,01068690987,자녀,480019-2972339,xx-xxxxx-xxx,우체국,서울 성동구 성수동2가 566-27,60,37.537809,127.055521,MEMBER,투룸. 풀옵션. 수리된. 컨디션우수,5,5,서울,성동구,empty,성덕정17길 4,5,5,5,5,13,14,15,/homeImage/5/01.jpg,/homeImage/5/02.jpg,/homeImage/5/03.jpg,5,/hostImage/5.jpg,0,0,0,1,0,0,1,1,1
6604e47d5a3bbf6a87dcf966,1,1,1,1,1,1,1,0,1,0,0,1,1,1,DDDGG,0,1,1,0,0,1,1,1,0,0,6,구건우,76,01076810309,M,김성훈,01057894523,자녀,100421-2745298,xx-xxxxx-xxx,제주,서울 성동구 성수동2가 301-27,60,37.544543,127.050563,MEMBER,"내부컨디션 깔끔한 분리형 원룸, 풀옵션",6,6,서울,성동구,성수동2가,empty,6,6,6,6,16,17,18,/homeImage/6/01.jpg,/homeImage/6/02.jpg,/homeImage/6/03.jpg,6,/hostImage/6.jpg,0,0,0,1,1,1,1,1,0
6604e47d5a3bbf6a87dcf967,1,1,1,1,1,1,1,0,1,0,0,1,1,1,DDDGG,1,1,1,0,0,0,0,1,0,1,7,김민서,88,01006586882,M,강상훈,01039080956,자녀,220803-2345514,xx-xxxxx-xxx,수협,서울 성동구 성수동1가 7-3,70,37.548342,127.046468,UNAUTHORIZED_MEMBER,뚝섬역 초역세권 분리형 원룸 풀옵션,7,7,서울,성동구,empty,왕십리로14길 28,7,7,7,7,19,20,21,/homeImage/7/01.jpg,/homeImage/7/02.jpg,/homeImage/7/03.jpg,7,/hostImage/7.jpg,0,0,1,0,0,2,1,1,0
6604e47d5a3bbf6a87dcf968,1,1,1,1,1,1,1,0,1,0,0,1,1,1,DDDGG,1,0,1,0,1,1,0,0,0,1,8,최정순,82,01075114681,F,김도현,01069722572,자녀,410900-2453221,xx-xxxxx-xxx,농협,서울 성동구 성수동1가 656-342,55,37.551234,127.045418,UNAUTHORIZED_MEMBER,"뚝섬역7분거리, 3층, 오픈형원룸, 풀옵션,4월14일이후,직장인,한양대생",8,8,서울,성동구,성수동1가,empty,8,8,8,8,22,23,24,/homeImage/8/01.jpg,/homeImage/8/02.jpg,/homeImage/8/03.jpg,8,/hostImage/8.jpg,0,1,1,1,0,2,0,0,0
6604e47d5a3bbf6a87dcf969,1,1,1,1,1,1,1,0,1,0,1,1,1,1,OR,1,1,0,0,0,1,0,0,0,0,9,권예은,74,01025399327,M,나예준,01033623371,자녀,360923-2024630,xx-xxxxx-xxx,산업,서울 성동구 성수동1가 656-1010,70,37.542166,127.047105,UNAUTHORIZED_MEMBER,서울숲 맞은편 새촌 저렴한 월세 분당선 이용편리 더블역세권,9,9,서울,성동구,empty,성수일로1길 16,9,9,9,9,25,26,27,/homeImage/9/01.jpg,/homeImage/9/02.jpg,/homeImage/9/03.jpg,9,/hostImage/9.jpg,0,0,1,1,0,0,1,0,0
6604e47d5a3bbf6a87dcf96a,1,1,1,1,1,1,1,0,1,0,0,1,1,1,DDDGG,1,0,1,1,0,1,1,1,1,1,10,이성민,74,01022871839,F,김은서,01025486052,자녀,560101-2182363,xx-xxxxx-xxx,수협,서울 성동구 성수동1가 656-827,55,37.548281,127.046287,UNAUTHORIZED_MEMBER,"뚝섬역 초역세권, 수리되어 깨끗한집, 방2개, 도배장판완료",10,10,서울,성동구,empty,왕십리로14길 26,10,10,10,10,28,29,30,/homeImage/10/01.jpg,/homeImage/10/02.jpg,/homeImage/10/03.jpg,10,/hostImage/10.jpg,1,0,1,1,1,2,0,1,1
6604e47d5a3bbf6a87dcf96b,1,1,1,1,1,1,1,0,1,0,0,1,1,1,DDDGG,1,0,1,1,0,1,0,0,1,0,11,안준혁,76,01098851256,F,김보람,01014998295,자녀,950800-1882511,xx-xxxxx-xxx,케이,서울 성동구 성수동1가 656-342,55,37.551234,127.045418,MEMBER,내부 넓고 깨끗한 풀옵션 원룸,11,11,서울,성동구,성수동1가,empty,11,11,11,11,31,32,33,/homeImage/11/01.jpg,/homeImage/11/02.jpg,/homeImage/11/03.jpg,11,/hostImage/11.jpg,1,0,1,1,0,1,0,0,1
6604e47d5a3bbf6a87dcf96c,1,1,1,1,1,1,1,0,1,0,0,0,1,1,OR,1,0,0,0,1,1,0,1,0,0,12,김영환,69,01000954937,F,하병철,01074254396,자녀,290107-1835505,xx-xxxxx-xxx,전북,서울 성동구 성수동2가 396,50,37.536861,127.050765,MEMBER,"성수동 저렴한 월세, 넓직한 원룸, 주방 분리형 원룸",12,12,서울,성동구,empty,둘레9길 10,12,12,12,12,34,35,36,/homeImage/12/01.jpg,/homeImage/12/02.jpg,/homeImage/12/03.jpg,12,/hostImage/12.jpg,0,1,1,1,0,0,0,1,0
6604e47d5a3bbf6a87dcf96d,1,1,1,1,1,1,1,0,1,0,0,1,1,1,OR,0,1,1,1,1,1,1,0,1,1,13,이종수,98,01003829973,F,이현지,01044421577,자녀,450803-2125320,xx-xxxxx-xxx,SC제일,서울 성동구 성수동1가 656-342,55,37.551234,127.045418,UNAUTHORIZED_MEMBER,내부 넓고 깨끗한 풀옵션 원룸 밝은 집,13,13,서울,성동구,성수동1가,empty,13,13,13,13,37,38,39,/homeImage/13/01.jpg,/homeImage/13/02.jpg,/homeImage/13/03.jpg,13,/hostImage/13.jpg,1,1,0,1,1,2,1,0,1
6604e47d5a3bbf6a87dcf96e,1,1,1,1,1,1,1,0,1,0,0,1,1,1,OR,0,0,0,1,0,1,1,1,0,1,14,서지우,67,01029345665,F,황명자,01016362702,자녀,200705-2867056,xx-xxxxx-xxx,광주,서울 성동구 마장동 388-25,60,37.562444,127.042052,UNAUTHORIZED_MEMBER,채광되는 미니멀 투룸,14,14,서울,성동구,empty,마조로12길 1,14,14,14,14,40,41,42,/homeImage/14/01.jpg,/homeImage/14/02.jpg,/homeImage/14/03.jpg,14,/hostImage/14.jpg,1,0,0,1,1,1,0,1,0
6604e47d5a3bbf6a87dcf96f,1,1,1,1,1,1,1,1,1,0,1,0,1,1,VL,0,1,0,0,0,0,1,0,0,1,15,고준서,94,01067798515,M,김광수,01022947214,자녀,170918-1917834,xx-xxxxx-xxx,광주,서울 성동구 응봉동 265-96,35,37.552341,127.029985,UNAUTHORIZED_MEMBER,올수리 깨끗,15,15,서울,성동구,empty,독서당로59가길 27,15,15,15,15,43,44,45,/homeImage/15/01.jpg,/homeImage/15/02.jpg,/homeImage/15/03.jpg,15,/hostImage/15.jpg,0,0,0,0,1,1,1,0,0
6604e47d5a3bbf6a87dcf970,1,1,1,1,1,1,1,0,1,0,0,0,1,1,OR,1,0,0,0,1,1,0,0,0,0,16,이민재,81,01072282574,M,조옥순,01044948024,자녀,500825-1712869,xx-xxxxx-xxx,기업,서울 성동구 성수동2가 576-2,55,37.536906,127.055638,MEMBER,"사진O 성수동 엘베O 풀옵션 원룸형,실5",16,16,서울,성동구,empty,둘레15길 24,16,16,16,16,46,47,48,/homeImage/16/01.jpg,/homeImage/16/02.jpg,/homeImage/16/03.jpg,16,/hostImage/16.jpg,0,1,1,1,0,0,0,0,0
6604e47d5a3bbf6a87dcf971,1,1,1,1,1,1,1,1,1,0,0,1,1,1,DDDGG,1,0,0,1,0,1,0,0,0,1,17,강진우,87,01073918935,F,김지우,01002666603,자녀,890400-1243007,xx-xxxxx-xxx,경남,서울 성동구 행당동 70-23,55,37.556268,127.041601,MEMBER,"한양대정문 도보 3분, 리모델링 컨디션 좋음, 주택가 위치 조용합니다.",17,17,서울,성동구,empty,살곶이4길 8,17,17,17,17,49,50,51,/homeImage/17/01.jpg,/homeImage/17/02.jpg,/homeImage/17/03.jpg,17,/hostImage/17.jpg,1,0,1,1,0,1,0,0,0
6604e47d5a3bbf6a87dcf972,1,1,1,1,1,1,1,1,1,0,0,1,1,1,OR,1,0,1,0,0,0,1,1,0,1,18,권정순,73,01038038262,F,이병철,01031967381,자녀,350323-2567995,xx-xxxxx-xxx,농협,서울 성동구 행당동 20-17,45,37.558331,127.040211,UNAUTHORIZED_MEMBER,왕십리역 역세권 한양대인접 풀옵션원룸 즉시입주,18,18,서울,성동구,empty,마조로1길 2,18,18,18,18,52,53,54,/homeImage/18/01.jpg,/homeImage/18/02.jpg,/homeImage/18/03.jpg,18,/hostImage/18.jpg,0,0,1,0,1,2,0,1,0
6604e47d5a3bbf6a87dcf973,1,1,1,1,1,1,1,0,1,0,0,0,1,1,DDDGG,1,1,0,1,1,1,1,0,0,0,19,김옥자,98,01086776474,M,이현준,01080406581,자녀,870821-1781513,xx-xxxxx-xxx,하나,서울 성동구 성수동2가 566-27,60,37.537809,127.055521,MEMBER,즉시입주. 수리된 2룸 월세,19,19,서울,성동구,empty,성덕정17길 4,19,19,19,19,55,56,57,/homeImage/19/01.jpg,/homeImage/19/02.jpg,/homeImage/19/03.jpg,19,/hostImage/19.jpg,1,1,1,1,1,0,1,0,0
6604e47d5a3bbf6a87dcf974,1,1,1,1,1,1,1,1,1,0,0,1,1,1,OR,1,1,0,0,0,0,1,0,1,1,20,황민서,86,01030521224,M,박미영,01032811428,자녀,270206-2765911,xx-xxxxx-xxx,카카오,서울 성동구 마장동 797-7,35,37.563771,127.039048,UNAUTHORIZED_MEMBER,왕십리역 도보5분거리 조용한 원룸입니다.,20,20,서울,성동구,empty,마조로15길 24,20,20,20,20,58,59,60,/homeImage/20/01.jpg,/homeImage/20/02.jpg,/homeImage/20/03.jpg,20,/hostImage/20.jpg,0,0,1,0,1,1,1,0,1
6604e47d5a3bbf6a87dcf975,1,1,1,1,1,1,1,1,1,0,0,1,1,1,OPST,0,0,1,1,0,0,1,0,0,0,21,임성호,74,01093868894,M,송정훈,01073501270,자녀,070712-1301829,xx-xxxxx-xxx,수협,서울 성동구 마장동 777-3,60,37.567407,127.045813,UNAUTHORIZED_MEMBER,대로변 초역세권 복층 오피스텔,21,21,서울,성동구,empty,마장로46길 4,21,21,21,21,61,62,63,/homeImage/21/01.jpg,/homeImage/21/02.jpg,/homeImage/21/03.jpg,21,/hostImage/21.jpg,1,0,0,0,1,1,0,0,0
6604e47d5a3bbf6a87dcf976,1,1,1,1,1,1,1,0,1,0,1,1,1,1,OR,0,1,1,0,0,1,1,1,0,0,22,류순자,72,01047228038,M,우옥순,01015317814,자녀,370608-2718397,xx-xxxxx-xxx,국민,서울 성동구 하왕십리동 956-2,66,37.563635,127.030671,UNAUTHORIZED_MEMBER,5월입주 대로변 엘베O 고층뷰 전입x 레지던스,22,22,서울,성동구,empty,왕십리로 353,22,22,22,22,64,65,66,/homeImage/22/01.jpg,/homeImage/22/02.jpg,/homeImage/22/03.jpg,22,/hostImage/22.jpg,0,0,0,1,1,1,1,1,0
6604e47d5a3bbf6a87dcf977,1,1,1,1,1,1,1,1,1,0,0,1,1,1,OR,0,0,0,0,0,1,0,1,1,0,23,김병철,80,01027370665,M,박은지,01061702800,자녀,120111-2947671,xx-xxxxx-xxx,농협,서울 성동구 홍익동 398-6,55,37.565557,127.030744,MEMBER,상왕십리역 인근 풀옵션 원룸,23,23,서울,성동구,empty,왕십리로30길 13,23,23,23,23,67,68,69,/homeImage/23/01.jpg,/homeImage/23/02.jpg,/homeImage/23/03.jpg,23,/hostImage/23.jpg,0,0,0,1,0,0,0,1,1
6604e47d5a3bbf6a87dcf978,1,1,1,1,1,1,1,0,1,0,1,0,1,1,DDDGG,0,1,1,1,0,1,0,0,0,1,24,문성호,65,01001721700,M,차지아,01086584487,자녀,430005-2174943,xx-xxxxx-xxx,수협,서울 성동구 마장동 559-6,50,37.567735,127.035215,MEMBER,거실도있는 분리형원룸 풀옵션 저렴한월세,24,24,서울,성동구,empty,청계천로12나길 4,24,24,24,24,70,71,72,/homeImage/24/01.jpg,/homeImage/24/02.jpg,/homeImage/24/03.jpg,24,/hostImage/24.jpg,1,0,0,1,0,2,1,0,0
6604e47d5a3bbf6a87dcf979,1,1,1,1,1,1,1,1,1,0,1,1,1,1,DDDGG,1,1,0,1,0,1,1,1,0,0,25,나예진,99,01069982004,M,최현우,01064424634,자녀,000906-1372483,xx-xxxxx-xxx,광주,서울 성동구 홍익동 398-6,70,37.565557,127.030744,MEMBER,즉시입주 가능한 전용넓은 원룸입니다,25,25,서울,성동구,empty,왕십리로30길 13,25,25,25,25,73,74,75,/homeImage/25/01.jpg,/homeImage/25/02.jpg,/homeImage/25/03.jpg,25,/hostImage/25.jpg,1,0,1,1,1,0,1,1,0
6604e47d5a3bbf6a87dcf97a,1,1,1,1,1,1,1,0,1,0,0,1,1,1,DDDGG,1,0,0,0,0,1,1,1,0,0,26,김지후,84,01061198073,F,임수민,01041308517,자녀,990615-2745143,xx-xxxxx-xxx,경남,서울 성동구 마장동 797-74,50,37.563896,127.039992,UNAUTHORIZED_MEMBER,"왕십리역세권, 조용한 주택가, 깨끗한 풀옵션 원룸",26,26,서울,성동구,empty,마조로15나길 5,26,26,26,26,76,77,78,/homeImage/26/01.jpg,/homeImage/26/02.jpg,/homeImage/26/03.jpg,26,/hostImage/26.jpg,0,0,1,1,1,0,0,1,0
6604e47d5a3bbf6a87dcf97b,0,1,0,0,1,1,1,0,1,0,0,1,0,0,OR,1,1,0,1,1,1,1,0,1,0,27,박정숙,86,01037258613,F,양유진,01050097006,자녀,920421-1004095,xx-xxxxx-xxx,카카오,서울 성동구 마장동 797-74,50,37.563896,127.039992,UNAUTHORIZED_MEMBER,empty,27,27,서울,성동구,empty,마조로15나길 5,27,27,27,27,79,80,81,/homeImage/27/01.jpg,/homeImage/27/02.jpg,/homeImage/27/03.jpg,27,/hostImage/27.jpg,1,1,1,1,1,0,1,0,1
6604e47d5a3bbf6a87dcf97c,1,1,1,1,1,1,1,1,1,0,0,1,1,1,OR,1,1,1,0,1,0,1,0,1,1,28,최경수,66,01088319762,M,김지영,01015843388,자녀,300101-2652976,xx-xxxxx-xxx,우리,서울 성동구 마장동 797-6,35,37.564283,127.040484,UNAUTHORIZED_MEMBER,사이즈 정말좋은 깨끗한 풀옵션,28,28,서울,성동구,empty,마조로15나길 9,28,28,28,28,82,83,84,/homeImage/28/01.jpg,/homeImage/28/02.jpg,/homeImage/28/03.jpg,28,/hostImage/28.jpg,0,1,1,0,1,2,1,0,1
6604e47d5a3bbf6a87dcf97d,1,1,1,1,1,1,1,1,1,0,0,1,1,1,OR,0,1,0,0,0,0,1,0,1,1,29,홍성호,65,01086570770,F,박경자,01039813699,자녀,850004-1389192,xx-xxxxx-xxx,씨티,서울 성동구 마장동 797-29,50,37.564646,127.038897,UNAUTHORIZED_MEMBER,즉시입주가능한 풀옵션,29,29,서울,성동구,empty,마조로19길 21,29,29,29,29,85,86,87,/homeImage/29/01.jpg,/homeImage/29/02.jpg,/homeImage/29/03.jpg,29,/hostImage/29.jpg,0,0,0,0,1,1,1,0,1
6604e47d5a3bbf6a87dcf97e,1,1,1,1,1,1,1,1,1,0,0,0,1,1,OR,1,1,1,0,0,0,0,1,1,1,30,박미경,92,01017410614,M,문은영,01067102512,자녀,320212-2324660,xx-xxxxx-xxx,제주,서울 성동구 마장동 566-34,60,37.566629,127.034902,MEMBER,도선사거리 인접 컨디션좋은 풀옵션원룸 즉시입주,30,30,서울,성동구,empty,마장로27길 2,30,30,30,30,88,89,90,/homeImage/30/01.jpg,/homeImage/30/02.jpg,/homeImage/30/03.jpg,30,/hostImage/30.jpg,0,0,1,0,0,2,1,1,1
6604e47d5a3bbf6a87dcf97f,1,1,1,1,1,1,1,1,1,0,1,0,1,1,APT,0,0,0,0,1,1,1,1,0,1,31,고광수,68,01070412548,M,김광수,01078127569,자녀,000208-2544520,xx-xxxxx-xxx,전북,서울 성동구 하왕십리동 258,45,37.568214,127.031981,UNAUTHORIZED_MEMBER,방2개 월세  화장실단독사용 여성분만가능 주차가능,31,31,서울,성동구,empty,무학로 50,31,31,31,31,91,92,93,/homeImage/31/01.jpg,/homeImage/31/02.jpg,/homeImage/31/03.jpg,31,/hostImage/31.jpg,0,1,0,1,1,1,0,1,0
6604e47d5a3bbf6a87dcf980,1,1,1,1,1,1,1,1,1,0,1,1,1,1,OR,0,0,1,0,1,0,0,0,0,0,32,권정순,77,01005438304,F,강영길,01033023942,자녀,270229-2272456,xx-xxxxx-xxx,케이,서울 성동구 홍익동 398-6,55,37.565557,127.030744,MEMBER,즉시입주가능 저렴한 오픈형 풀옵션,32,32,서울,성동구,empty,왕십리로30길 13,32,32,32,32,94,95,96,/homeImage/32/01.jpg,/homeImage/32/02.jpg,/homeImage/32/03.jpg,32,/hostImage/32.jpg,0,1,0,0,0,1,0,0,0
6604e47d5a3bbf6a87dcf981,1,1,1,1,1,1,1,0,1,0,1,0,1,1,OR,1,0,1,1,0,1,0,0,0,0,33,송민재,76,01017906101,F,이영길,01023969049,자녀,850013-1989831,xx-xxxxx-xxx,케이,서울 성동구 마장동 382-30,25,37.563012,127.044494,MEMBER,통풍 잘 되고 햇빛이 잘 들어 쾌적한 2층 원룸,33,33,서울,성동구,empty,살곶이2가길 76,33,33,33,33,97,98,99,/homeImage/33/01.jpg,/homeImage/33/02.jpg,/homeImage/33/03.jpg,33,/hostImage/33.jpg,1,0,1,1,0,1,0,0,0
6604e47d5a3bbf6a87dcf982,1,1,1,1,1,1,1,0,1,0,0,0,1,1,DDDGG,0,0,0,1,1,0,1,0,1,0,34,장정훈,83,01050682374,M,김정호,01033047659,자녀,750905-2871915,xx-xxxxx-xxx,기업,서울 성동구 마장동 556,40,37.567885,127.035843,MEMBER,2층 방1칸 분리형 원룸 옵션x,34,34,서울,성동구,empty,마장로29길 29,34,34,34,34,100,101,102,/homeImage/34/01.jpg,/homeImage/34/02.jpg,/homeImage/34/03.jpg,34,/hostImage/34.jpg,1,1,0,0,1,0,0,0,1
6604e47d5a3bbf6a87dcf983,1,1,1,1,1,1,1,0,1,0,0,1,1,1,OR,0,1,0,1,1,1,0,0,0,1,35,서지은,81,01074514588,M,성시우,01039579838,자녀,820113-2422099,xx-xxxxx-xxx,제주,서울 성동구 하왕십리동 955-1,30,37.563538,127.030482,UNAUTHORIZED_MEMBER,풀옵션 원룸,35,35,서울,성동구,empty,무학봉15길 26,35,35,35,35,103,104,105,/homeImage/35/01.jpg,/homeImage/35/02.jpg,/homeImage/35/03.jpg,35,/hostImage/35.jpg,1,1,0,1,0,1,1,0,0
6604e47d5a3bbf6a87dcf984,1,1,1,1,1,1,1,1,1,0,1,1,1,1,OPST,1,1,1,1,0,1,1,1,1,0,36,문영환,76,01067077595,M,김현숙,01084780392,자녀,710423-2822613,xx-xxxxx-xxx,케이,서울 성동구 행당동 192-29,70,37.565189,127.03674,UNAUTHORIZED_MEMBER,왕십리초역세권 도보3분 성동구청 바로옆 빠른 입주협의,36,36,서울,성동구,empty,고산자로 284,36,36,36,36,106,107,108,/homeImage/36/01.jpg,/homeImage/36/02.jpg,/homeImage/36/03.jpg,36,/hostImage/36.jpg,1,0,1,1,1,1,1,1,1
6604e47d5a3bbf6a87dcf985,1,1,1,1,1,1,1,1,1,0,0,1,1,1,OR,0,0,0,1,1,1,1,0,1,0,37,정영자,86,01069757810,F,황민석,01052439622,자녀,730509-2533228,xx-xxxxx-xxx,SC제일,서울 성동구 마장동 800-1,65,37.563626,127.040083,MEMBER,왕십리역 역세권 넓고 채광좋은 풀옵션원룸,37,37,서울,성동구,empty,마조로15길 13,37,37,37,37,109,110,111,/homeImage/37/01.jpg,/homeImage/37/02.jpg,/homeImage/37/03.jpg,37,/hostImage/37.jpg,1,1,0,1,1,0,0,0,1
6604e47d5a3bbf6a87dcf986,1,1,1,1,1,1,1,1,1,0,0,1,1,1,OR,1,1,0,1,0,0,0,0,0,0,38,송승현,99,01094489841,M,윤우진,01029284796,자녀,530602-1718222,xx-xxxxx-xxx,광주,서울 성동구 홍익동 398-6,70,37.565557,127.030744,MEMBER,즉시입주 8P넓은 원룸 풀옵션 남향세대 공동보안,38,38,서울,성동구,empty,왕십리로30길 13,38,38,38,38,112,113,114,/homeImage/38/01.jpg,/homeImage/38/02.jpg,/homeImage/38/03.jpg,38,/hostImage/38.jpg,1,0,1,0,0,0,1,0,0
6604e47d5a3bbf6a87dcf987,1,1,1,1,1,1,1,0,1,0,0,1,1,1,DDDGG,1,1,0,0,0,1,0,1,0,0,39,백정호,90,01077984860,F,황현우,01078782741,자녀,330610-1551944,xx-xxxxx-xxx,케이,서울 성동구 마장동 777-6,60,37.567531,127.0456,MEMBER,"마장역,답십리역5호선 신답역2호석 더블 역세권 원룸 즉시입주",39,39,서울,성동구,empty,마장로 328,39,39,39,39,115,116,117,/homeImage/39/01.jpg,/homeImage/39/02.jpg,/homeImage/39/03.jpg,39,/hostImage/39.jpg,0,0,1,1,0,0,1,1,0
6604e47d5a3bbf6a87dcf988,1,1,1,1,1,1,1,0,1,0,1,0,1,1,DDDGG,1,0,0,1,1,1,0,0,1,0,40,김영철,73,01070684334,M,김준영,01048789844,자녀,260213-1690959,xx-xxxxx-xxx,케이,서울 성동구 마장동 444-5,50,37.569326,127.033743,MEMBER,도배장판 해드립니다 층간소음없는집,40,40,서울,성동구,empty,청계천로10나길 12,40,40,40,40,118,119,120,/homeImage/40/01.jpg,/homeImage/40/02.jpg,/homeImage/40/03.jpg,40,/hostImage/40.jpg,1,1,1,1,0,0,0,0,1
6604e47d5a3bbf6a87dcf989,1,1,1,1,1,1,1,0,1,0,1,0,1,1,DDDGG,1,0,0,0,0,0,1,0,1,1,41,이준혁,73,01002579712,M,김경숙,01064733256,자녀,430622-2372410,xx-xxxxx-xxx,우리,서울 성동구 홍익동 268,40,37.565735,127.033513,MEMBER,홍익동 넓은 다가구 1.5룸,41,41,서울,성동구,empty,무학로10길 24,41,41,41,41,121,122,123,/homeImage/41/01.jpg,/homeImage/41/02.jpg,/homeImage/41/03.jpg,41,/hostImage/41.jpg,0,0,1,0,1,1,0,0,1
6604e47d5a3bbf6a87dcf98a,1,1,1,1,1,1,1,1,1,0,1,1,1,1,OPST,0,1,0,0,1,1,1,0,0,1,42,박명숙,85,01048843649,F,이영희,01094123566,자녀,750008-1601443,xx-xxxxx-xxx,씨티,서울 성동구 용답동 238-12,63,37.559906,127.069378,MEMBER,"중랑천고층뷰,저렴한월세 장한평역서희스타힐스오피스텔",42,42,서울,성동구,용답동,empty,42,42,42,42,124,125,126,/homeImage/42/01.jpg,/homeImage/42/02.jpg,/homeImage/42/03.jpg,42,/hostImage/42.jpg,0,1,0,1,1,1,1,0,0
6604e47d5a3bbf6a87dcf98b,1,1,1,1,1,1,1,0,1,0,0,1,1,1,OPST,1,0,0,0,0,0,1,1,1,0,43,송성호,84,01092258742,F,이은영,01038267533,자녀,320314-2931487,xx-xxxxx-xxx,기업,서울 성동구 용답동 233-8,70,37.560731,127.065465,MEMBER,장한평역 초역세권 전입 가능한 풀옵션 신축급 오피스텔 부라다,43,43,서울,성동구,empty,자동차시장1길 73,43,43,43,43,127,128,129,/homeImage/43/01.jpg,/homeImage/43/02.jpg,/homeImage/43/03.jpg,43,/hostImage/43.jpg,0,0,1,0,1,0,0,1,1
6604e47d5a3bbf6a87dcf98c,1,1,1,1,1,1,1,1,1,0,1,0,1,1,OR,1,0,1,1,1,1,1,0,0,0,44,하지후,82,01008843200,M,한정웅,01014373972,자녀,130015-2231635,xx-xxxxx-xxx,카카오,서울 성동구 성수동2가 211-18,30,37.535879,127.059636,MEMBER,"삼정 실5, 깔끔한 1층 원룸",44,44,서울,성동구,성수동2가,empty,44,44,44,44,130,131,132,/homeImage/44/01.jpg,/homeImage/44/02.jpg,/homeImage/44/03.jpg,44,/hostImage/44.jpg,1,1,1,1,1,1,0,0,0
6604e47d5a3bbf6a87dcf98d,1,1,1,1,1,1,1,1,1,0,0,0,1,1,OR,1,0,1,1,0,0,1,0,1,1,45,김영환,67,01071981067,F,안지현,01091540039,자녀,220515-1940989,xx-xxxxx-xxx,신한,서울 성동구 송정동 66-127,38,37.548881,127.067075,UNAUTHORIZED_MEMBER,"화양사거리 위치, 즉시입주가능, 풀옵션 반지층 분리형 원룸",45,45,서울,성동구,empty,송정10길 22,45,45,45,45,133,134,135,/homeImage/45/01.jpg,/homeImage/45/02.jpg,/homeImage/45/03.jpg,45,/hostImage/45.jpg,1,0,1,0,1,2,0,0,1
6604e47d5a3bbf6a87dcf98e,1,1,1,1,1,1,1,1,1,0,0,1,1,1,DDDGG,0,0,0,1,1,1,1,1,0,0,46,심정훈,82,01024256402,F,곽혜진,01023397992,자녀,960826-2995884,xx-xxxxx-xxx,산업,서울 마포구 노고산동 12-154,50,37.553671,126.9401,MEMBER,"주방분리형원룸, 풀옵션, 신촌역 도보6분, 버스정류장 도보 6분, 이마트",46,46,서울,마포구,empty,고산2길 48,46,46,46,46,136,137,138,/homeImage/46/01.jpg,/homeImage/46/02.jpg,/homeImage/46/03.jpg,46,/hostImage/46.jpg,1,1,0,1,1,0,0,1,0
6604e47d5a3bbf6a87dcf98f,1,1,1,1,1,1,1,1,1,0,1,0,1,1,OR,0,1,0,0,0,1,1,1,1,0,47,김영호,77,01064196841,M,김진우,01069751948,자녀,820423-1276081,xx-xxxxx-xxx,하나,서울 마포구 연남동 223-98,60,37.565038,126.924926,UNAUTHORIZED_MEMBER,O 신축급 O 연남동 조용한 주택가 O,47,47,서울,마포구,empty,성미산로 165,47,47,47,47,139,140,141,/homeImage/47/01.jpg,/homeImage/47/02.jpg,/homeImage/47/03.jpg,47,/hostImage/47.jpg,0,0,0,1,1,0,1,1,1
6604e47d5a3bbf6a87dcf990,1,1,1,1,1,1,1,1,1,0,1,0,1,1,OR,0,1,1,1,1,1,1,1,1,1,48,권동현,72,01031932235,M,허정식,01023427218,자녀,880324-1043517,xx-xxxxx-xxx,제주,서울 마포구 연남동 223-98,60,37.565038,126.924926,MEMBER,가성비 좋은 연남동 수리한 원룸,48,48,서울,마포구,empty,성미산로 165,48,48,48,48,142,143,144,/homeImage/48/01.jpg,/homeImage/48/02.jpg,/homeImage/48/03.jpg,48,/hostImage/48.jpg,1,1,0,1,1,2,1,1,1
6604e47d5a3bbf6a87dcf991,1,1,1,1,1,1,1,0,1,0,0,0,1,1,OR,1,0,0,0,0,1,1,1,1,1,49,고숙자,75,01042312548,F,이도현,01069921157,자녀,750400-2475260,xx-xxxxx-xxx,전북,서울 마포구 연남동 228-4,46,37.563012,126.926085,MEMBER,O 옥탑 옥상단독사용 O 깔끔한 분리형 O 기본옵션 O,49,49,서울,마포구,empty,성미산로 188,49,49,49,49,145,146,147,/homeImage/49/01.jpg,/homeImage/49/02.jpg,/homeImage/49/03.jpg,49,/hostImage/49.jpg,0,0,1,1,1,1,0,1,1
6604e47d5a3bbf6a87dcf992,1,1,1,1,1,1,1,0,1,0,0,0,1,1,OR,0,0,1,0,0,1,1,0,0,0,50,이미영,85,01098476146,M,유도윤,01069799376,자녀,110829-2434039,xx-xxxxx-xxx,국민,서울 광진구 구의동 253-16,55,37.544241,127.084427,MEMBER,"풀옵션 원룸, 어린이대공원 인근",50,50,서울,광진구,empty,자양로29길 8,50,50,50,50,148,149,150,/homeImage/50/01.jpg,/homeImage/50/02.jpg,/homeImage/50/03.jpg,50,/hostImage/50.jpg,0,0,0,1,1,1,0,0,0
6604e47d5a3bbf6a87dcf993,1,1,1,1,1,1,1,0,1,0,0,0,1,1,OR,0,0,0,0,0,1,0,0,1,1,51,김현숙,92,01050874502,M,박지아,01051712159,자녀,440123-1169202,xx-xxxxx-xxx,기업,서울 광진구 자양동 772-18,47,37.538407,127.079864,MEMBER,핫한월세  풀옵션   월세에모든공과금포함요금  건대생에인기,51,51,서울,광진구,empty,자양로19길 68,51,51,51,51,151,152,153,/homeImage/51/01.jpg,/homeImage/51/02.jpg,/homeImage/51/03.jpg,51,/hostImage/51.jpg,0,0,0,1,0,1,0,0,1
6604e47d5a3bbf6a87dcf994,1,1,1,1,1,1,1,1,1,0,0,0,1,1,DDDGG,1,1,1,0,0,0,0,1,1,0,52,이혜진,82,01032833970,F,문지원,01053991828,자녀,430017-1592275,xx-xxxxx-xxx,부산,서울 광진구 구의동 231-53,45,37.543875,127.089159,MEMBER,깔끔하고 넓은 풀옵션 통원룸,52,52,서울,광진구,empty,자양로32길 70,52,52,52,52,154,155,156,/homeImage/52/01.jpg,/homeImage/52/02.jpg,/homeImage/52/03.jpg,52,/hostImage/52.jpg,0,0,1,0,0,1,1,1,1
6604e47d5a3bbf6a87dcf995,1,1,1,1,1,1,1,1,1,0,0,1,1,1,DDDGG,0,0,1,1,1,0,1,1,1,1,53,오건우,88,01048588588,M,류수민,01094128294,자녀,850109-2764019,xx-xxxxx-xxx,기업,서울 광진구 능동 224-40,45,37.555347,127.079824,UNAUTHORIZED_MEMBER,"군자역 초역세권 원룸, 옥상이용가능",53,53,서울,광진구,empty,능동로34길 12,53,53,53,53,157,158,159,/homeImage/53/01.jpg,/homeImage/53/02.jpg,/homeImage/53/03.jpg,53,/hostImage/53.jpg,1,1,0,0,1,2,0,1,1
6604e47d5a3bbf6a87dcf996,1,1,1,1,1,1,1,1,1,0,0,1,1,1,OR,0,0,1,1,1,0,0,0,0,1,54,김영식,87,01075316920,M,강은영,01070490863,자녀,260013-1810376,xx-xxxxx-xxx,SC제일,서울 광진구 능동 221-18,50,37.555768,127.079246,UNAUTHORIZED_MEMBER,"지하철군자역 도보1분 교통편리, 5호선,7호선 출퇴근직장인 적합",54,54,서울,광진구,empty,천호대로110길 30,54,54,54,54,160,161,162,/homeImage/54/01.jpg,/homeImage/54/02.jpg,/homeImage/54/03.jpg,54,/hostImage/54.jpg,1,1,0,0,0,2,0,0,0
6604e47d5a3bbf6a87dcf997,1,1,1,1,1,1,1,1,1,0,0,1,1,1,OR,0,1,1,0,1,1,0,1,0,0,55,장시우,73,01032607970,M,김영희,01071017343,자녀,120911-2250135,xx-xxxxx-xxx,하나,서울 광진구 구의동 246-8,60,37.537677,127.085115,MEMBER,"리모델링한 신축급 풀옵션 원룸, 구의역 1분",55,55,서울,광진구,empty,자양로18길 26,55,55,55,55,163,164,165,/homeImage/55/01.jpg,/homeImage/55/02.jpg,/homeImage/55/03.jpg,55,/hostImage/55.jpg,0,1,0,1,0,1,1,1,0
6604e47d5a3bbf6a87dcf998,1,1,1,1,1,1,1,0,1,0,0,1,1,1,DDDGG,0,0,0,1,0,1,0,1,1,1,56,권정식,83,01017808855,F,강유진,01008953022,자녀,660025-2358029,xx-xxxxx-xxx,기업,서울 광진구 자양동 850-5,55,37.537757,127.067473,UNAUTHORIZED_MEMBER,올수리2년차 보증금최소월세 대출없음,56,56,서울,광진구,empty,뚝섬로23길 75,56,56,56,56,166,167,168,/homeImage/56/01.jpg,/homeImage/56/02.jpg,/homeImage/56/03.jpg,56,/hostImage/56.jpg,1,0,0,1,0,1,0,1,1
6604e47d5a3bbf6a87dcf999,1,1,1,1,1,1,1,1,1,0,0,1,1,1,DDDGG,1,1,1,1,0,0,1,0,1,1,57,박현정,97,01077217922,M,서명숙,01036777577,자녀,140626-1530123,xx-xxxxx-xxx,기업,서울 광진구 자양동 12-13,60,37.539191,127.065127,UNAUTHORIZED_MEMBER,"옥상 단독 사용, 풀옵션 공간 활용 좋은 원룸",57,57,서울,광진구,empty,동일로18나길 6,57,57,57,57,169,170,171,/homeImage/57/01.jpg,/homeImage/57/02.jpg,/homeImage/57/03.jpg,57,/hostImage/57.jpg,1,0,1,0,1,2,1,0,1
6604e47d5a3bbf6a87dcf99a,1,1,1,1,1,1,1,0,1,0,1,0,1,1,OR,0,0,1,0,0,0,1,0,0,0,58,최도윤,84,01072713990,F,남종수,01097857875,자녀,370105-2995915,xx-xxxxx-xxx,SC제일,서울 광진구 자양동 40-14,30,37.537696,127.064466,MEMBER,건대입구역세권 도보8분 깔끔한 풀옵션 원룸,58,58,서울,광진구,empty,동일로10다길 8,58,58,58,58,172,173,174,/homeImage/58/01.jpg,/homeImage/58/02.jpg,/homeImage/58/03.jpg,58,/hostImage/58.jpg,0,0,0,0,1,1,0,0,0
6604e47d5a3bbf6a87dcf99b,1,1,1,1,1,1,1,0,1,0,0,1,1,1,OR,1,1,0,0,0,0,0,0,1,1,59,이정순,100,01070242759,M,고승현,01045495748,자녀,400504-1113491,xx-xxxxx-xxx,전북,서울 광진구 구의동 217-10,50,37.538448,127.093432,MEMBER,풀옵션 남향 밝고 깨끗 초역세권 즉시입주가능,59,59,서울,광진구,empty,구의강변로 87,59,59,59,59,175,176,177,/homeImage/59/01.jpg,/homeImage/59/02.jpg,/homeImage/59/03.jpg,59,/hostImage/59.jpg,0,0,1,0,0,1,1,0,1
6604e47d5a3bbf6a87dcf99c,1,1,1,1,1,1,1,1,1,0,0,0,1,1,DDDGG,1,0,0,0,0,0,0,1,1,0,60,김현숙,77,01014734068,F,박민수,01003192253,자녀,020506-1390192,xx-xxxxx-xxx,케이,서울 광진구 중곡동 583-5,29,37.571071,127.080557,MEMBER,중곡동 깔끔한 풀옵션 원룸,60,60,서울,광진구,empty,답십리로74길 11,60,60,60,60,178,179,180,/homeImage/60/01.jpg,/homeImage/60/02.jpg,/homeImage/60/03.jpg,60,/hostImage/60.jpg,0,0,1,0,0,0,0,1,1
6604e47d5a3bbf6a87dcf99d,0,0,0,1,0,0,1,0,1,1,1,0,1,0,OR,0,0,0,0,0,1,0,0,0,0,61,김경수,91,01040144613,F,이서준,01059302709,자녀,110612-1706645,xx-xxxxx-xxx,전북,서울 광진구 자양동 605-27,30,37.531167,127.078616,MEMBER,empty,61,61,서울,광진구,empty,자양번영로4길 59,61,61,61,61,181,182,183,/homeImage/61/01.jpg,/homeImage/61/02.jpg,/homeImage/61/03.jpg,61,/hostImage/61.jpg,0,0,0,1,0,0,0,0,0
6604e47d5a3bbf6a87dcf99e,1,1,1,1,1,1,1,1,1,0,1,1,1,1,OR,0,0,1,1,0,1,0,0,1,0,62,김우진,83,01072280944,M,심민준,01040648451,자녀,510715-1242273,xx-xxxxx-xxx,부산,서울 양천구 신정동 928-26,35,37.52506,126.853333,MEMBER,신정역2분 풀옵션 빠른입주가능,62,62,서울,양천구,empty,오목로29길 3,62,62,62,62,184,185,186,/homeImage/62/01.jpg,/homeImage/62/02.jpg,/homeImage/62/03.jpg,62,/hostImage/62.jpg,1,0,0,1,0,1,0,0,1
6604e47d5a3bbf6a87dcf99f,1,1,1,1,1,1,1,1,1,0,1,1,1,1,DDDGG,1,1,0,0,0,0,1,0,0,1,63,안주원,91,01025536817,M,최예준,01006815116,자녀,830208-2723823,xx-xxxxx-xxx,SC제일,서울 양천구 신월동 503-15,40,37.523038,126.850488,UNAUTHORIZED_MEMBER,"신정네거리역,신정역 풀옵션1.5룸 주차가능 단기임대",63,63,서울,양천구,empty,중앙로49길 11,63,63,63,63,187,188,189,/homeImage/63/01.jpg,/homeImage/63/02.jpg,/homeImage/63/03.jpg,63,/hostImage/63.jpg,0,0,1,0,1,1,1,0,0
6604e47d5a3bbf6a87dcf9a0,1,1,1,1,1,1,1,0,1,0,1,0,1,1,DDDGG,0,0,0,0,0,0,1,1,0,0,64,안승민,71,01059837383,M,박민수,01074738142,자녀,040917-2720281,xx-xxxxx-xxx,제주,서울 양천구 신월동 575-11,40,37.518012,126.842758,MEMBER,"상태깨끗,이사협의,생활편리,교통이용편리",64,64,서울,양천구,empty,남부순환로79길 31,64,64,64,64,190,191,192,/homeImage/64/01.jpg,/homeImage/64/02.jpg,/homeImage/64/03.jpg,64,/hostImage/64.jpg,0,0,0,0,1,0,0,1,0
6604e47d5a3bbf6a87dcf9a1,1,1,1,1,1,1,1,0,1,0,0,1,1,1,DDDGG,0,1,1,0,1,0,1,1,0,0,65,이영일,97,01063880561,F,한재현,01069343909,자녀,300904-2578423,xx-xxxxx-xxx,부산,서울 양천구 신정동 1210-12,35,37.519834,126.849902,MEMBER,방2화1 지하철도보이용 도배.장판.씽크대 수리함. 방넓고 주방공간있어요,65,65,서울,양천구,empty,중앙로39길 22,65,65,65,65,193,194,195,/homeImage/65/01.jpg,/homeImage/65/02.jpg,/homeImage/65/03.jpg,65,/hostImage/65.jpg,0,1,0,0,1,1,1,1,0
6604e47d5a3bbf6a87dcf9a2,1,1,1,1,1,1,1,1,1,0,0,1,1,1,DDDGG,1,1,0,0,1,0,1,0,0,1,66,황수진,81,01072121149,F,노진호,01029146489,자녀,230715-1327516,xx-xxxxx-xxx,제주,서울 양천구 신정동 1210-12,40,37.519834,126.849902,UNAUTHORIZED_MEMBER,방2화1베1 저렴한지상층 주방공간O 지하철도보이용 연식대비깔끔 언덕위치함,66,66,서울,양천구,empty,중앙로39길 22,66,66,66,66,196,197,198,/homeImage/66/01.jpg,/homeImage/66/02.jpg,/homeImage/66/03.jpg,66,/hostImage/66.jpg,0,1,1,0,1,1,1,0,0
6604e47d5a3bbf6a87dcf9a3,1,1,1,1,1,1,1,1,1,0,0,1,1,1,DDDGG,0,1,0,0,1,1,0,1,0,0,67,백예은,76,01082782913,M,박영수,01085203971,자녀,500002-2054344,xx-xxxxx-xxx,국민,서울 양천구 신정동 1193-5,30,37.52194,126.849647,MEMBER,신정네거리역세권. 계단없는 지층. 방1.화1. 상태깨끗해요,67,67,서울,양천구,empty,중앙로45길 28,67,67,67,67,199,200,201,/homeImage/67/01.jpg,/homeImage/67/02.jpg,/homeImage/67/03.jpg,67,/hostImage/67.jpg,0,1,0,1,0,0,1,1,0
6604e47d5a3bbf6a87dcf9a4,1,1,1,1,1,1,1,1,1,0,1,1,1,1,DDDGG,0,0,0,0,0,1,0,0,1,1,68,김채원,88,01006744725,F,장예진,01098958583,자녀,890503-2410613,xx-xxxxx-xxx,기업,서울 양천구 신정동 1193-5,35,37.52194,126.849647,UNAUTHORIZED_MEMBER,계단없음 지층임1층같음 방 주방 크고 깨끗함 즉시입주 신정네거리역5분,68,68,서울,양천구,empty,중앙로45길 28,68,68,68,68,202,203,204,/homeImage/68/01.jpg,/homeImage/68/02.jpg,/homeImage/68/03.jpg,68,/hostImage/68.jpg,0,0,0,1,0,1,0,0,1
6604e47d5a3bbf6a87dcf9a5,1,1,1,1,1,1,1,0,1,0,1,1,1,1,DDDGG,1,1,0,0,0,0,1,1,1,0,69,김영철,95,01072444406,M,강진우,01031974895,자녀,880410-1416981,xx-xxxxx-xxx,신한,서울 양천구 신정동 1050-4,35,37.519244,126.854831,MEMBER,"전철3분,신서학군,즉시입주,공원앞",69,69,서울,양천구,empty,중앙로36길 8,69,69,69,69,205,206,207,/homeImage/69/01.jpg,/homeImage/69/02.jpg,/homeImage/69/03.jpg,69,/hostImage/69.jpg,0,0,1,0,1,0,1,1,1
6604e47d5a3bbf6a87dcf9a6,1,1,1,1,1,1,1,1,1,0,0,0,1,1,DDDGG,1,0,0,0,0,0,0,0,0,1,70,김승민,93,01079460036,F,안민석,01063751369,자녀,000426-2259854,xx-xxxxx-xxx,부산,서울 양천구 신정동 1029-7,60,37.521049,126.854274,UNAUTHORIZED_MEMBER,올수리 투룸 옥상마당 사용가능 사무실 공방 등 사용가능,70,70,서울,양천구,empty,신월로 300,70,70,70,70,208,209,210,/homeImage/70/01.jpg,/homeImage/70/02.jpg,/homeImage/70/03.jpg,70,/hostImage/70.jpg,0,0,1,0,0,1,0,0,0
6604e47d5a3bbf6a87dcf9a7,1,1,1,1,1,1,1,0,1,0,0,1,1,1,DDDGG,1,1,1,1,0,0,1,0,1,1,71,강주원,71,01093940370,M,주수빈,01049171205,자녀,030110-2714263,xx-xxxxx-xxx,전북,서울 양천구 신정동 1201-7,35,37.520162,126.850106,UNAUTHORIZED_MEMBER,"깔끔수리 함,즉시입주,전철5분",71,71,서울,양천구,empty,중앙로45길 25,71,71,71,71,211,212,213,/homeImage/71/01.jpg,/homeImage/71/02.jpg,/homeImage/71/03.jpg,71,/hostImage/71.jpg,1,0,1,0,1,2,1,0,1
6604e47d5a3bbf6a87dcf9a8,1,1,1,1,1,1,1,1,1,0,0,1,1,1,DDDGG,1,1,0,0,0,0,0,1,1,1,72,김채원,90,01087523723,M,김정식,01088840617,자녀,530515-1876881,xx-xxxxx-xxx,기업,서울 양천구 신정동 1206-10,25,37.519564,126.850667,MEMBER,"분리형 원룸, 풀옵션, 옥상 마당 사용 가능한 옥탑",72,72,서울,양천구,empty,중앙로47길 20,72,72,72,72,214,215,216,/homeImage/72/01.jpg,/homeImage/72/02.jpg,/homeImage/72/03.jpg,72,/hostImage/72.jpg,0,0,1,0,0,1,1,1,1
6604e47d5a3bbf6a87dcf9a9,1,1,1,1,1,1,1,1,1,0,1,1,1,1,DDDGG,0,1,0,1,1,0,1,1,0,0,73,우예준,86,01073984171,M,서지현,01022191318,자녀,680711-2669554,xx-xxxxx-xxx,전북,서울 양천구 신정동 940-39,40,37.524496,126.851967,MEMBER,역세권 I 대로변 1.5룸 월세 I 설명란 확인,73,73,서울,양천구,empty,오목로 131,73,73,73,73,217,218,219,/homeImage/73/01.jpg,/homeImage/73/02.jpg,/homeImage/73/03.jpg,73,/hostImage/73.jpg,1,1,0,0,1,0,1,1,0
6604e47d5a3bbf6a87dcf9aa,1,1,1,1,1,1,1,1,1,0,0,1,1,1,DDDGG,1,0,0,1,1,0,1,0,1,0,74,최지후,76,01027631093,M,박서윤,01014476568,자녀,370901-2400661,xx-xxxxx-xxx,우체국,서울 양천구 신정동 1210-12,35,37.519834,126.849902,MEMBER,"도배장판,싱크대,변기교체. 지하철역인접. 계단없는바닥1층",74,74,서울,양천구,empty,중앙로39길 22,74,74,74,74,220,221,222,/homeImage/74/01.jpg,/homeImage/74/02.jpg,/homeImage/74/03.jpg,74,/hostImage/74.jpg,1,1,1,0,1,0,0,0,1
6604e47d5a3bbf6a87dcf9ab,1,1,1,1,1,1,1,1,1,1,1,1,1,1,DDDGG,0,0,1,1,0,0,0,0,0,0,75,김우진,68,01086441671,M,장명자,01002878053,자녀,920021-1524760,xx-xxxxx-xxx,케이,서울 양천구 신정동 1160-6,25,37.517218,126.849807,UNAUTHORIZED_MEMBER,즉시입주가 계단없는 지층 에어컨 가스렌지있음 상태 양호,75,75,서울,양천구,empty,중앙로47길 47,75,75,75,75,223,224,225,/homeImage/75/01.jpg,/homeImage/75/02.jpg,/homeImage/75/03.jpg,75,/hostImage/75.jpg,1,0,0,0,0,1,0,0,0
6604e47d5a3bbf6a87dcf9ac,1,1,1,1,1,1,1,0,1,0,1,0,1,1,VL,1,0,0,0,1,1,1,1,0,1,76,이현숙,68,01068133287,M,안영숙,01088484137,자녀,330322-1611044,xx-xxxxx-xxx,경남,서울 양천구 신정동 1216-1,40,37.519335,126.848704,UNAUTHORIZED_MEMBER,보증금 조정가능 진입이 편리하며 거주자 우선주차지역 방 오전만 볼수있음,76,76,서울,양천구,empty,중앙로29길 88,76,76,76,76,226,227,228,/homeImage/76/01.jpg,/homeImage/76/02.jpg,/homeImage/76/03.jpg,76,/hostImage/76.jpg,0,1,1,1,1,1,0,1,0
6604e47d5a3bbf6a87dcf9ad,1,1,1,1,1,1,1,1,1,0,0,1,1,1,DDDGG,1,1,1,0,0,1,0,1,1,0,77,조종수,84,01004989841,M,김은서,01069049573,자녀,120600-1455987,xx-xxxxx-xxx,전북,서울 양천구 신정동 1210-12,40,37.519834,126.849902,MEMBER,"싱크대,변기,벽지,바닥교체. 지하철역인접.보일러실 넓어요. 1.5층",77,77,서울,양천구,empty,중앙로39길 22,77,77,77,77,229,230,231,/homeImage/77/01.jpg,/homeImage/77/02.jpg,/homeImage/77/03.jpg,77,/hostImage/77.jpg,0,0,1,1,0,1,1,1,1
6604e47d5a3bbf6a87dcf9ae,1,1,1,1,1,1,1,0,1,0,0,1,1,1,OR,0,0,1,0,0,0,1,1,1,0,78,김지민,89,01022357033,F,김옥자,01092658957,자녀,460513-1254507,xx-xxxxx-xxx,전북,서울 양천구 목동 526-17,30,37.545565,126.874293,UNAUTHORIZED_MEMBER,"염창역도보2분,풀옵션",78,78,서울,양천구,empty,목동중앙북로 102,78,78,78,78,232,233,234,/homeImage/78/01.jpg,/homeImage/78/02.jpg,/homeImage/78/03.jpg,78,/hostImage/78.jpg,0,0,0,0,1,1,0,1,1
6604e47d5a3bbf6a87dcf9af,1,1,1,1,1,1,1,0,1,0,0,0,1,1,OR,1,0,1,0,0,0,1,0,1,1,79,최서윤,99,01099854884,F,이진호,01019196562,자녀,030602-2023839,xx-xxxxx-xxx,우리,서울 양천구 목동 789-37,30,37.533452,126.865459,MEMBER,목사거리인근 신축급 올수리 여성전용 원룸,79,79,서울,양천구,empty,목동중앙서로3길 20,79,79,79,79,235,236,237,/homeImage/79/01.jpg,/homeImage/79/02.jpg,/homeImage/79/03.jpg,79,/hostImage/79.jpg,0,0,1,0,1,2,0,0,1
6604e47d5a3bbf6a87dcf9b0,1,1,1,1,1,1,1,0,1,0,0,1,1,1,OR,1,0,1,0,0,1,0,1,1,1,80,박정호,68,01029884173,F,이예은,01001378676,자녀,190924-2290912,xx-xxxxx-xxx,산업,서울 양천구 목동 526-17,30,37.545565,126.874293,UNAUTHORIZED_MEMBER,염창역 최저가 풀옵션 관리 잘해서 깔끔한 원룸,80,80,서울,양천구,empty,목동중앙북로 102,80,80,80,80,238,239,240,/homeImage/80/01.jpg,/homeImage/80/02.jpg,/homeImage/80/03.jpg,80,/hostImage/80.jpg,0,0,1,1,0,2,0,1,1
6604e47d5a3bbf6a87dcf9b1,1,1,1,1,1,1,1,1,1,0,0,0,1,1,VL,0,1,1,1,0,0,0,1,1,0,81,이정숙,71,01062410850,F,김미정,01088557382,자녀,050119-1126675,xx-xxxxx-xxx,산업,서울 양천구 목동 779-16,47,37.534834,126.866647,MEMBER,깔끔하고 실용적인 저렴한 원룸월세,81,81,서울,양천구,empty,목동중앙서로11길 65,81,81,81,81,241,242,243,/homeImage/81/01.jpg,/homeImage/81/02.jpg,/homeImage/81/03.jpg,81,/hostImage/81.jpg,1,0,0,0,0,1,1,1,1
6604e47d5a3bbf6a87dcf9b2,1,1,1,1,1,1,1,1,1,0,1,0,1,1,DDDGG,1,0,1,1,0,0,1,1,1,1,82,손영자,93,01091020924,F,장지후,01071604523,자녀,200300-2242026,xx-xxxxx-xxx,대구,서울 양천구 목동 788-5,40,37.533862,126.864318,MEMBER,주차가능.옥탑방전용면적9.넓음.풀옵션.옥상씀.큰도로옆안전,82,82,서울,양천구,empty,목동중앙서로7나길 11,82,82,82,82,244,245,246,/homeImage/82/01.jpg,/homeImage/82/02.jpg,/homeImage/82/03.jpg,82,/hostImage/82.jpg,1,0,1,0,1,2,0,1,1
6604e47d5a3bbf6a87dcf9b3,1,1,1,1,0,1,1,0,1,1,0,1,0,0,OR,1,0,1,0,0,0,1,1,0,1,83,김경자,76,01000297355,F,박현우,01011797400,자녀,590227-2170289,xx-xxxxx-xxx,우체국,서울 양천구 목동 604-2,41,37.550155,126.86598,MEMBER,empty,83,83,서울,양천구,empty,공항대로 542,83,83,83,83,247,248,249,/homeImage/83/01.jpg,/homeImage/83/02.jpg,/homeImage/83/03.jpg,83,/hostImage/83.jpg,0,0,1,0,1,2,0,1,0
6604e47d5a3bbf6a87dcf9b4,1,1,1,1,1,1,1,1,1,0,1,0,1,1,DDDGG,1,1,1,1,0,1,0,1,1,0,84,강지영,66,01062067406,M,김서영,01097703087,자녀,400427-2106419,xx-xxxxx-xxx,기업,서울 양천구 목동 789-30,40,37.533696,126.865138,UNAUTHORIZED_MEMBER,조용한 주택가. 바닥층. 도배 등 수리되어깨끗. 대중교통이용편리,84,84,서울,양천구,empty,목동중앙서로7길 17,84,84,84,84,250,251,252,/homeImage/84/01.jpg,/homeImage/84/02.jpg,/homeImage/84/03.jpg,84,/hostImage/84.jpg,1,0,1,1,0,1,1,1,1
6604e47d5a3bbf6a87dcf9b5,1,1,1,1,1,1,1,1,1,0,1,0,1,1,DDDGG,1,0,0,0,1,1,1,1,1,1,85,김승민,97,01048875635,F,이병철,01074630519,자녀,420804-1054572,xx-xxxxx-xxx,하나,서울 양천구 목동 789-30,40,37.533696,126.865138,MEMBER,올수리 깨끗한 방2,85,85,서울,양천구,empty,목동중앙서로7길 17,85,85,85,85,253,254,255,/homeImage/85/01.jpg,/homeImage/85/02.jpg,/homeImage/85/03.jpg,85,/hostImage/85.jpg,0,1,1,1,1,1,0,1,1
6604e47d5a3bbf6a87dcf9b6,1,1,1,1,1,1,1,0,1,0,0,1,1,1,OR,0,1,0,1,0,1,0,1,0,0,86,박현주,94,01093084627,F,한민석,01051183687,자녀,810421-1441040,xx-xxxxx-xxx,기업,서울 양천구 목동 604-2,41,37.550155,126.86598,MEMBER,등촌역 초역세권 보증금 저렴한 원룸,86,86,서울,양천구,empty,공항대로 542,86,86,86,86,256,257,258,/homeImage/86/01.jpg,/homeImage/86/02.jpg,/homeImage/86/03.jpg,86,/hostImage/86.jpg,1,0,0,1,0,0,1,1,0
6604e47d5a3bbf6a87dcf9b7,1,1,1,1,1,1,1,1,1,0,0,1,1,1,OR,0,0,1,0,1,1,0,1,1,0,87,송정희,84,01088618445,M,홍지혜,01040244326,자녀,090516-2654740,xx-xxxxx-xxx,국민,서울 양천구 목동 604-2,41,37.550155,126.86598,UNAUTHORIZED_MEMBER,"안전한 대로변위치,9호선 등촌역 깨끗한 풀옵션",87,87,서울,양천구,empty,공항대로 542,87,87,87,87,259,260,261,/homeImage/87/01.jpg,/homeImage/87/02.jpg,/homeImage/87/03.jpg,87,/hostImage/87.jpg,0,1,0,1,0,1,0,1,1
6604e47d5a3bbf6a87dcf9b8,1,1,1,1,1,1,1,0,1,0,0,1,1,1,VL,0,1,0,1,0,0,1,0,0,0,88,최경수,67,01084024778,M,박미경,01097189038,자녀,580524-2370618,xx-xxxxx-xxx,산업,서울 양천구 신정동 999-24,57,37.524506,126.862248,UNAUTHORIZED_MEMBER,풀옵션 깔끔 채광좋은 바닥층 목동역4분 빌라형 다가구,88,88,서울,양천구,empty,목동로17길 16,88,88,88,88,262,263,264,/homeImage/88/01.jpg,/homeImage/88/02.jpg,/homeImage/88/03.jpg,88,/hostImage/88.jpg,1,0,0,0,1,0,1,0,0
6604e47d5a3bbf6a87dcf9b9,1,1,1,1,1,1,1,1,1,0,0,1,1,1,DDDGG,1,0,0,1,1,0,0,1,0,0,89,박중수,65,01077213130,F,이영환,01004063629,자녀,420109-1288426,xx-xxxxx-xxx,전북,서울 양천구 신정동 888-4,35,37.527068,126.861904,MEMBER,목동역 단독주택에 있는 옥탑 입니다.,89,89,서울,양천구,empty,신정중앙로21길 12,89,89,89,89,265,266,267,/homeImage/89/01.jpg,/homeImage/89/02.jpg,/homeImage/89/03.jpg,89,/hostImage/89.jpg,1,1,1,0,0,0,0,1,0
6604e47d5a3bbf6a87dcf9ba,1,1,1,1,1,1,1,1,1,0,1,0,1,1,DDDGG,1,1,0,1,1,0,0,1,1,0,90,한예진,68,01042649439,M,문상훈,01046578887,자녀,620825-2030095,xx-xxxxx-xxx,씨티,서울 양천구 신월동 153-5,25,37.534563,126.824885,MEMBER,신월3동옥탑방,90,90,서울,양천구,empty,가로공원로60길 8,90,90,90,90,268,269,270,/homeImage/90/01.jpg,/homeImage/90/02.jpg,/homeImage/90/03.jpg,90,/hostImage/90.jpg,1,1,1,0,0,0,1,1,1
6604e47d5a3bbf6a87dcf9bb,1,1,1,1,1,1,1,0,1,0,0,0,1,1,OR,0,0,1,0,0,0,1,1,1,0,91,조서영,91,01014852811,F,김정식,01011208774,자녀,970002-1963950,xx-xxxxx-xxx,우리,서울 양천구 신월동 166-10,42,37.534291,126.829007,UNAUTHORIZED_MEMBER,"JS드림,대로변,복층,저렴한관리비",91,91,서울,양천구,empty,남부순환로 368,91,91,91,91,271,272,273,/homeImage/91/01.jpg,/homeImage/91/02.jpg,/homeImage/91/03.jpg,91,/hostImage/91.jpg,0,0,0,0,1,1,0,1,1
6604e47d5a3bbf6a87dcf9bc,1,1,1,1,1,1,1,1,1,0,0,0,1,1,OR,0,0,0,1,1,0,1,1,0,0,92,성선영,92,01094049969,F,이정훈,01071450165,자녀,760223-2682108,xx-xxxxx-xxx,전북,서울 양천구 신월동 166-10,44,37.534291,126.829007,UNAUTHORIZED_MEMBER,"JS드림,대로변,복층,저렴한관리비",92,92,서울,양천구,empty,남부순환로 368,92,92,92,92,274,275,276,/homeImage/92/01.jpg,/homeImage/92/02.jpg,/homeImage/92/03.jpg,92,/hostImage/92.jpg,1,1,0,0,1,0,0,1,0
6604e47d5a3bbf6a87dcf9bd,1,1,1,1,1,1,1,0,1,0,0,0,1,1,DDDGG,1,0,1,0,0,0,1,0,1,1,93,이준혁,74,01064510730,M,이지민,01025552175,자녀,700729-2311235,xx-xxxxx-xxx,산업,서울 양천구 신월동 22-6,40,37.54056,126.832364,MEMBER,신축수준으로 올수리 밝고 습기없는 반지층 방2,93,93,서울,양천구,empty,월정로46길 4,93,93,93,93,277,278,279,/homeImage/93/01.jpg,/homeImage/93/02.jpg,/homeImage/93/03.jpg,93,/hostImage/93.jpg,0,0,1,0,1,2,0,0,1
6604e47d5a3bbf6a87dcf9be,1,1,1,1,1,1,1,0,1,0,0,0,1,1,DDDGG,0,0,1,1,0,0,1,1,1,0,94,김지현,79,01016675746,M,김채원,01011471763,자녀,550721-1786202,xx-xxxxx-xxx,제주,서울 양천구 신월동 186-24,35,37.532368,126.825228,UNAUTHORIZED_MEMBER,"신월사거리 8분,다가구 지상1층 방2,벽걸이에어컨 옵션,실면적 약7",94,94,서울,양천구,empty,남부순환로40길 85,94,94,94,94,280,281,282,/homeImage/94/01.jpg,/homeImage/94/02.jpg,/homeImage/94/03.jpg,94,/hostImage/94.jpg,1,0,0,0,1,1,0,1,1
6604e47d5a3bbf6a87dcf9bf,1,1,1,1,1,1,1,1,1,0,0,1,1,1,OR,0,0,1,0,1,0,0,0,1,1,95,유광수,72,01023757383,M,성혜진,01084415662,자녀,300004-2345728,xx-xxxxx-xxx,토스,서울 동작구 노량진동 148-62,37,37.513309,126.945607,UNAUTHORIZED_MEMBER,권리관계확실한 풀옵션전세원룸,95,95,서울,동작구,empty,만양로18길 19,95,95,95,95,283,284,285,/homeImage/95/01.jpg,/homeImage/95/02.jpg,/homeImage/95/03.jpg,95,/hostImage/95.jpg,0,1,0,0,0,2,0,0,1
6604e47d5a3bbf6a87dcf9c0,1,1,1,1,1,1,1,0,1,0,1,0,1,1,OR,0,0,1,1,0,0,1,0,1,1,96,문영미,85,01061566218,M,이서윤,01020005999,자녀,300408-2276356,xx-xxxxx-xxx,토스,서울 동작구 노량진동 218-100,35,37.508466,126.946443,MEMBER,고시원가격의 가성비좋은 풀옵션원룸,96,96,서울,동작구,empty,만양로11길 3,96,96,96,96,286,287,288,/homeImage/96/01.jpg,/homeImage/96/02.jpg,/homeImage/96/03.jpg,96,/hostImage/96.jpg,1,0,0,0,1,2,0,0,1
6604e47d5a3bbf6a87dcf9c1,1,1,1,1,1,1,1,0,1,0,1,0,1,1,OR,0,1,0,0,1,0,0,0,0,1,97,홍현우,71,01070918074,F,송옥자,01052390705,자녀,650202-2388360,xx-xxxxx-xxx,기업,서울 동작구 노량진동 215-102,32,37.508769,126.947283,MEMBER,고시원가격의 풀옵션원룸,97,97,서울,동작구,empty,만양로6길 16,97,97,97,97,289,290,291,/homeImage/97/01.jpg,/homeImage/97/02.jpg,/homeImage/97/03.jpg,97,/hostImage/97.jpg,0,1,0,0,0,1,1,0,0
6604e47d5a3bbf6a87dcf9c2,1,1,1,1,1,1,1,0,1,0,0,0,1,1,OR,1,0,0,0,0,1,0,1,1,1,98,강상현,80,01076236526,F,서순옥,01044779441,자녀,250920-1093751,xx-xxxxx-xxx,부산,서울 동작구 노량진동 215-106,28,37.508613,126.947413,MEMBER,권리관계확실한 고시원가격의 풀옵션원룸입니다,98,98,서울,동작구,empty,만양로6길 12,98,98,98,98,292,293,294,/homeImage/98/01.jpg,/homeImage/98/02.jpg,/homeImage/98/03.jpg,98,/hostImage/98.jpg,0,0,1,1,0,1,0,1,1
6604e47d5a3bbf6a87dcf9c3,1,1,1,1,1,1,1,1,1,0,1,0,1,1,OR,1,0,0,1,1,0,0,0,0,0,99,이준영,78,01086914385,M,윤명숙,01002554115,자녀,370622-1266724,xx-xxxxx-xxx,광주,서울 동작구 노량진동 205-141,40,37.511081,126.947823,UNAUTHORIZED_MEMBER,노량진 학원가부근 가격대비 방크고 채광과 통풍좋은 깨끗한 원룸,99,99,서울,동작구,empty,만양로12가길 10,99,99,99,99,295,296,297,/homeImage/99/01.jpg,/homeImage/99/02.jpg,/homeImage/99/03.jpg,99,/hostImage/99.jpg,1,1,1,0,0,0,0,0,0
6604e47d5a3bbf6a87dcf9c4,0,1,1,1,0,1,1,1,0,1,0,1,1,1,OR,0,0,1,1,1,1,1,1,0,0,100,서동현,83,01056837166,F,김서현,01051312637,자녀,250817-1308659,xx-xxxxx-xxx,케이,서울 동작구 대방동 392-16,28,37.502576,126.927457,MEMBER,empty,100,100,서울,동작구,empty,대방동2길 33,100,100,100,100,298,299,300,/homeImage/100/01.jpg,/homeImage/100/02.jpg,/homeImage/100/03.jpg,100,/hostImage/100.jpg,1,1,0,1,1,1,0,1,0
6604e47d5a3bbf6a87dcf9c5,1,1,1,1,1,1,1,1,1,0,1,0,1,1,OR,0,0,0,1,0,1,0,1,0,1,101,윤현준,65,01061539690,M,최정수,01085831435,자녀,720505-2482746,xx-xxxxx-xxx,하나,서울 동작구 노량진동 219-33,55,37.508682,126.946478,UNAUTHORIZED_MEMBER,대로변이고 동선이 안전한 창문이2개임,101,101,서울,동작구,empty,만양로 53,101,101,101,101,301,302,303,/homeImage/101/01.jpg,/homeImage/101/02.jpg,/homeImage/101/03.jpg,101,/hostImage/101.jpg,1,0,0,1,0,1,0,1,0
6604e47d5a3bbf6a87dcf9c6,1,1,1,1,1,1,1,0,1,0,0,0,1,1,OR,1,0,0,1,0,1,1,1,0,0,102,김정훈,79,01046501262,F,조정희,01087253099,자녀,890401-2611789,xx-xxxxx-xxx,신한,서울 동작구 노량진동 205-141,37,37.511081,126.947823,UNAUTHORIZED_MEMBER,방에 비해 정말 가격저렴하고 채광과 통풍좋은 깨끗한 원룸,102,102,서울,동작구,empty,만양로12가길 10,102,102,102,102,304,305,306,/homeImage/102/01.jpg,/homeImage/102/02.jpg,/homeImage/102/03.jpg,102,/hostImage/102.jpg,1,0,1,1,1,0,0,1,0
6604e47d5a3bbf6a87dcf9c7,1,1,1,1,1,1,1,1,1,0,0,0,1,1,OR,0,1,1,0,1,1,0,0,1,1,103,이지훈,71,01047535909,F,최유진,01070103053,자녀,240810-1047083,xx-xxxxx-xxx,케이,서울 동작구 노량진동 218-59,32,37.508376,126.946456,MEMBER,집주인이 관리를잘해주는 권리관계확실한 매물입니다,103,103,서울,동작구,empty,만양로11길 3,103,103,103,103,307,308,309,/homeImage/103/01.jpg,/homeImage/103/02.jpg,/homeImage/103/03.jpg,103,/hostImage/103.jpg,0,1,0,1,0,2,1,0,1
6604e47d5a3bbf6a87dcf9c8,1,1,1,1,1,1,1,1,1,0,1,0,1,1,OR,0,0,0,0,0,1,0,0,1,0,104,김영순,78,01082747735,M,이정수,01041858863,자녀,760816-1697335,xx-xxxxx-xxx,케이,서울 동작구 노량진동 214-127,47,37.50868,126.947534,MEMBER,2018년신축한 방음이뛰어난풀옵션원룸,104,104,서울,동작구,empty,만양로8길 13,104,104,104,104,310,311,312,/homeImage/104/01.jpg,/homeImage/104/02.jpg,/homeImage/104/03.jpg,104,/hostImage/104.jpg,0,0,0,1,0,0,0,0,1
6604e47d5a3bbf6a87dcf9c9,1,1,0,0,0,1,0,0,0,0,0,1,0,1,OR,0,0,1,1,0,0,1,0,1,1,105,송민재,92,01061783571,M,박상호,01019476144,자녀,180401-1586260,xx-xxxxx-xxx,씨티,서울 동작구 대방동 391-87,38,37.501832,126.92791,MEMBER,empty,105,105,서울,동작구,empty,대방동길 27,105,105,105,105,313,314,315,/homeImage/105/01.jpg,/homeImage/105/02.jpg,/homeImage/105/03.jpg,105,/hostImage/105.jpg,1,0,0,0,1,2,0,0,1
6604e47d5a3bbf6a87dcf9ca,1,1,1,1,1,1,1,0,1,0,0,1,1,1,OR,1,0,0,1,1,1,0,0,0,0,106,박병철,71,01066572040,F,김경수,01050378934,자녀,720305-2929306,xx-xxxxx-xxx,산업,서울 동작구 상도동 356-86,31,37.503334,126.933507,MEMBER,저렴한 원룸이 있다 깔끔한을 원한다면 한번 봅시다,106,106,서울,동작구,empty,상도로15마길 21,106,106,106,106,316,317,318,/homeImage/106/01.jpg,/homeImage/106/02.jpg,/homeImage/106/03.jpg,106,/hostImage/106.jpg,1,1,1,1,0,0,0,0,0
6604e47d5a3bbf6a87dcf9cb,1,1,1,1,1,1,1,0,1,0,0,0,1,1,OR,0,1,0,1,1,0,1,1,1,0,107,류채원,74,01007648992,F,박미숙,01099142626,자녀,080613-1409920,xx-xxxxx-xxx,제주,서울 동작구 노량진동 222-51,34,37.509568,126.946013,MEMBER,저렴하고 화이트톤의 깨끗한 매물,107,107,서울,동작구,empty,만양로12길 6,107,107,107,107,319,320,321,/homeImage/107/01.jpg,/homeImage/107/02.jpg,/homeImage/107/03.jpg,107,/hostImage/107.jpg,1,1,0,0,1,0,1,1,1
6604e47d5a3bbf6a87dcf9cc,1,1,1,1,1,1,1,1,1,0,1,1,1,1,OR,1,0,1,1,1,0,1,0,1,1,108,심서준,93,01032964048,F,이경자,01010779145,자녀,630919-2308953,xx-xxxxx-xxx,하나,서울 동작구 상도동 247-6,50,37.500102,126.933507,UNAUTHORIZED_MEMBER,신대방삼거리역 1번출구 도보 3분 초역세권 저렴하고 깔끔한 원룸,108,108,서울,동작구,empty,성대로3길 8,108,108,108,108,322,323,324,/homeImage/108/01.jpg,/homeImage/108/02.jpg,/homeImage/108/03.jpg,108,/hostImage/108.jpg,1,1,1,0,1,2,0,0,1
6604e47d5a3bbf6a87dcf9cd,1,1,1,1,1,1,1,1,1,0,0,1,1,1,OR,1,0,1,0,1,1,1,1,0,1,109,김성호,79,01038841029,M,배지우,01051039330,자녀,130513-1138488,xx-xxxxx-xxx,케이,서울 동작구 노량진동 277-8,36,37.512204,126.936138,MEMBER,깔끔한 가성비 좋은 원룸풀옵션,109,109,서울,동작구,empty,노량진로8가길 19,109,109,109,109,325,326,327,/homeImage/109/01.jpg,/homeImage/109/02.jpg,/homeImage/109/03.jpg,109,/hostImage/109.jpg,0,1,1,1,1,2,0,1,0
6604e47d5a3bbf6a87dcf9ce,1,1,1,1,1,1,1,0,1,0,0,1,1,1,OR,1,1,1,0,0,1,1,1,1,0,110,김영길,92,01012155277,M,조진우,01088412703,자녀,790119-1934947,xx-xxxxx-xxx,전북,서울 동작구 상도동 361-69,35,37.504562,126.935673,MEMBER,장승배기역 4번출구 도보 3분거리 초역세권 도배예정 깔끔한 원룸여기,110,110,서울,동작구,empty,상도로15차길 5,110,110,110,110,328,329,330,/homeImage/110/01.jpg,/homeImage/110/02.jpg,/homeImage/110/03.jpg,110,/hostImage/110.jpg,0,0,1,1,1,1,1,1,1
6604e47d5a3bbf6a87dcf9cf,1,1,1,1,1,1,1,1,1,0,0,1,1,1,OR,0,1,1,0,1,1,1,1,1,0,111,김민준,81,01099256493,F,이은경,01025508739,자녀,750717-1554488,xx-xxxxx-xxx,농협,서울 동작구 상도동 356-86,32,37.503334,126.933507,MEMBER,장승배기역 도보 7분 역세권 풀옵션 가성비 좋은 원룸,111,111,서울,동작구,empty,상도로15마길 21,111,111,111,111,331,332,333,/homeImage/111/01.jpg,/homeImage/111/02.jpg,/homeImage/111/03.jpg,111,/hostImage/111.jpg,0,1,0,1,1,1,1,1,1
6604e47d5a3bbf6a87dcf9d0,1,1,1,1,1,1,1,1,1,0,0,1,1,1,OR,1,1,1,0,0,1,1,1,1,1,112,김영미,94,01027937025,M,황민준,01048778357,자녀,530829-1003434,xx-xxxxx-xxx,산업,서울 동작구 노량진동 127-3,37,37.512401,126.946188,UNAUTHORIZED_MEMBER,가성비최고 크기좋고 깨끗한 풀옵션 원룸,112,112,서울,동작구,empty,만양로14나길 19,112,112,112,112,334,335,336,/homeImage/112/01.jpg,/homeImage/112/02.jpg,/homeImage/112/03.jpg,112,/hostImage/112.jpg,0,0,1,1,1,2,1,1,1
6604e47d5a3bbf6a87dcf9d1,1,1,1,1,1,1,1,0,1,0,0,1,1,1,OR,0,0,0,1,1,1,1,1,0,0,113,김정희,96,01031054159,M,안승민,01007582504,자녀,800516-2314209,xx-xxxxx-xxx,국민,서울 동작구 대방동 391-301,40,37.501837,126.924584,UNAUTHORIZED_MEMBER,보라매역 도보 8분 풀옵션 원룸,113,113,서울,동작구,empty,대방동27길 73,113,113,113,113,337,338,339,/homeImage/113/01.jpg,/homeImage/113/02.jpg,/homeImage/113/03.jpg,113,/hostImage/113.jpg,1,1,0,1,1,0,0,1,0
6604e47d5a3bbf6a87dcf9d2,1,1,1,1,1,1,1,0,1,0,0,1,1,1,OR,0,0,1,1,1,1,0,0,0,1,114,오재현,76,01023131400,M,김영호,01093130434,자녀,790402-1191683,xx-xxxxx-xxx,부산,서울 동작구 노량진동 244-34,40,37.511596,126.938471,UNAUTHORIZED_MEMBER,노량진 학원가 인접 깔끔한방,114,114,서울,동작구,empty,장승배기로27길 16,114,114,114,114,340,341,342,/homeImage/114/01.jpg,/homeImage/114/02.jpg,/homeImage/114/03.jpg,114,/hostImage/114.jpg,1,1,0,1,0,2,0,0,0
6604e47d5a3bbf6a87dcf9d3,1,1,1,1,1,1,1,1,1,0,0,1,1,1,OR,1,1,0,0,0,0,0,0,0,1,115,이시우,92,01044212382,F,안혜진,01033568531,자녀,070902-1206784,xx-xxxxx-xxx,국민,서울 동작구 대방동 391-540,35,37.501324,126.927407,MEMBER,신대방삼거리역 도보 3분 깔끔하고 가성비 좋은 원룸,115,115,서울,동작구,empty,대방동5길 4,115,115,115,115,343,344,345,/homeImage/115/01.jpg,/homeImage/115/02.jpg,/homeImage/115/03.jpg,115,/hostImage/115.jpg,0,0,1,0,0,1,1,0,0
6604e47d5a3bbf6a87dcf9d4,1,1,1,1,1,1,1,1,1,0,0,1,1,1,OR,1,1,0,1,1,0,0,0,0,1,116,윤동현,68,01087009439,F,이서준,01065456474,자녀,770001-1028405,xx-xxxxx-xxx,제주,서울 동작구 대방동 391-23,42,37.501686,126.927859,MEMBER,신대방삼거리역 도보 4분 풀옵션 역세권 원룸,116,116,서울,동작구,empty,대방동길 21,116,116,116,116,346,347,348,/homeImage/116/01.jpg,/homeImage/116/02.jpg,/homeImage/116/03.jpg,116,/hostImage/116.jpg,1,1,1,0,0,1,1,0,0
6604e47d5a3bbf6a87dcf9d5,1,1,1,1,1,1,1,0,1,0,0,0,1,1,OR,0,1,0,1,1,0,1,0,0,1,117,문영호,79,01075797926,F,최영호,01086226650,자녀,600425-1681195,xx-xxxxx-xxx,국민,서울 동작구 대방동 391-245,38,37.502724,126.924984,MEMBER,가성비 끝판왕 풀옵션 원룸,117,117,서울,동작구,empty,대방동15길 5,117,117,117,117,349,350,351,/homeImage/117/01.jpg,/homeImage/117/02.jpg,/homeImage/117/03.jpg,117,/hostImage/117.jpg,1,1,0,0,1,1,1,0,0
6604e47d5a3bbf6a87dcf9d6,1,1,1,1,1,1,1,1,1,0,0,1,1,1,OR,1,1,0,0,1,1,1,1,0,0,118,최성민,89,01027749649,M,이영숙,01095530316,자녀,620906-1426913,xx-xxxxx-xxx,우체국,서울 동작구 대방동 391-152,40,37.501173,126.925904,UNAUTHORIZED_MEMBER,신대방삼거리역 도보 4분 초역세권 풀옵션 원룸,118,118,서울,동작구,empty,대방동3길 29,118,118,118,118,352,353,354,/homeImage/118/01.jpg,/homeImage/118/02.jpg,/homeImage/118/03.jpg,118,/hostImage/118.jpg,0,1,1,1,1,0,1,1,0
6604e47d5a3bbf6a87dcf9d7,1,1,1,1,1,1,1,0,1,0,0,0,1,1,OR,0,0,1,1,1,1,0,1,0,1,119,이명자,90,01051890450,M,이미경,01054904539,자녀,420100-2509008,xx-xxxxx-xxx,국민,서울 동작구 상도1동 483-1,60,37.503738,126.951926,MEMBER,중앙대 초역세권 가장 넓은 원룸,119,119,서울,동작구,empty,상도로47길 102,119,119,119,119,355,356,357,/homeImage/119/01.jpg,/homeImage/119/02.jpg,/homeImage/119/03.jpg,119,/hostImage/119.jpg,1,1,0,1,0,2,0,1,0
6604e47d5a3bbf6a87dcf9d8,1,1,1,1,1,1,1,1,1,0,0,1,1,1,OR,1,0,1,1,0,0,1,0,1,0,120,이영일,99,01006872551,F,박은정,01094080421,자녀,970008-1135046,xx-xxxxx-xxx,수협,서울 동작구 노량진동 270,40,37.512297,126.935181,MEMBER,위치놓고깔끔한원룸,120,120,서울,동작구,empty,등용로14길 66,120,120,120,120,358,359,360,/homeImage/120/01.jpg,/homeImage/120/02.jpg,/homeImage/120/03.jpg,120,/hostImage/120.jpg,1,0,1,0,1,1,0,0,1
6604e47d5a3bbf6a87dcf9d9,1,1,1,1,1,1,1,1,1,0,0,1,1,1,OR,1,0,1,0,1,0,0,1,0,0,121,손정훈,79,01041393308,F,송정웅,01049265519,자녀,030523-2939037,xx-xxxxx-xxx,하나,서울 동작구 노량진동 270,58,37.512297,126.935181,UNAUTHORIZED_MEMBER,위치놓고깔끔한원룸,121,121,서울,동작구,empty,등용로14길 66,121,121,121,121,361,362,363,/homeImage/121/01.jpg,/homeImage/121/02.jpg,/homeImage/121/03.jpg,121,/hostImage/1.jpg,0,1,1,0,0,1,0,1,0
6604e47d5a3bbf6a87dcf9da,1,1,1,1,1,1,1,1,1,0,0,1,1,1,OR,1,0,1,0,1,1,1,1,1,0,122,박정숙,96,01044612679,M,최준서,01023684634,자녀,260123-2967489,xx-xxxxx-xxx,기업,서울 동작구 대방동 391-561,35,37.500816,126.924228,UNAUTHORIZED_MEMBER,보라매역 도보 5분 초역세권 풀옵션 원룸,122,122,서울,동작구,empty,대방동27길 97,122,122,122,122,364,365,366,/homeImage/122/01.jpg,/homeImage/122/02.jpg,/homeImage/122/03.jpg,122,/hostImage/2.jpg,0,1,1,1,1,1,0,1,1
6604e47d5a3bbf6a87dcf9db,1,1,1,1,1,1,1,1,1,0,0,1,1,1,OR,1,0,0,0,0,1,0,1,1,1,123,황지민,99,01056035611,M,이정순,01041100651,자녀,270926-1609471,xx-xxxxx-xxx,기업,서울 동작구 노량진동 270,40,37.512297,126.935181,UNAUTHORIZED_MEMBER,위치놓고깔끔한원룸,123,123,서울,동작구,empty,등용로14길 66,123,123,123,123,367,368,369,/homeImage/123/01.jpg,/homeImage/123/02.jpg,/homeImage/123/03.jpg,123,/hostImage/3.jpg,0,0,1,1,0,1,0,1,1
6604e47d5a3bbf6a87dcf9dc,1,1,1,1,1,1,1,1,1,0,0,1,1,1,OR,0,1,0,1,1,1,0,0,0,1,124,박예진,77,01081189780,M,이은서,01013554314,자녀,280211-2622667,xx-xxxxx-xxx,우체국,서울 동작구 대방동 391-559,42,37.50054,126.924358,UNAUTHORIZED_MEMBER,신대방삼거리역 보라매역 도보 5분거리 역세권 풀옵션 원룸,124,124,서울,동작구,empty,대방동1길 30,124,124,124,124,370,371,372,/homeImage/124/01.jpg,/homeImage/124/02.jpg,/homeImage/124/03.jpg,124,/hostImage/4.jpg,1,1,0,1,0,1,1,0,0
6604e47d5a3bbf6a87dcf9dd,1,1,1,1,1,1,1,1,1,0,0,1,1,1,OR,1,0,0,0,0,1,0,1,1,1,125,이하은,87,01091385315,F,권민서,01032676161,자녀,400909-1590147,xx-xxxxx-xxx,기업,서울 동작구 노량진동 120-20,40,37.510986,126.943759,UNAUTHORIZED_MEMBER,컨디션 좋은 가성비 최고매물,125,125,서울,동작구,empty,만양로15길 14,125,125,125,125,373,374,375,/homeImage/125/01.jpg,/homeImage/125/02.jpg,/homeImage/125/03.jpg,125,/hostImage/5.jpg,0,0,1,1,0,1,0,1,1
6604e47d5a3bbf6a87dcf9de,1,1,1,1,1,1,1,0,1,0,0,1,1,1,OR,1,0,0,1,1,0,1,1,0,1,126,김지연,75,01081763438,F,김영환,01012862161,자녀,040428-1840263,xx-xxxxx-xxx,케이,서울 동작구 노량진동 127-11,43,37.512498,126.946252,UNAUTHORIZED_MEMBER,가성비굿 위치좋고 컨디션 좋은 리모델링 귀한 매물,126,126,서울,동작구,empty,만양로14길 39,126,126,126,126,376,377,378,/homeImage/126/01.jpg,/homeImage/126/02.jpg,/homeImage/126/03.jpg,126,/hostImage/6.jpg,1,1,1,0,1,1,0,1,0
6604e47d5a3bbf6a87dcf9df,1,1,1,1,1,1,1,0,1,0,0,0,1,1,OR,0,1,0,0,1,0,1,1,1,0,127,김옥순,87,01038072770,M,안채원,01069103557,자녀,410112-1455893,xx-xxxxx-xxx,우리,서울 동작구 노량진동 219-33,43,37.508682,126.946478,MEMBER,대로변이고 동선이 안전한 2018년신축된 방음이좋은원룸,127,127,서울,동작구,empty,만양로 53,127,127,127,127,379,380,381,/homeImage/127/01.jpg,/homeImage/127/02.jpg,/homeImage/127/03.jpg,127,/hostImage/7.jpg,0,1,0,0,1,0,1,1,1
6604e47d5a3bbf6a87dcf9e0,1,1,1,1,1,1,1,0,1,0,0,1,1,1,OR,1,0,0,0,1,1,0,0,1,1,128,서미정,72,01070039916,F,주준호,01062230351,자녀,210416-1650291,xx-xxxxx-xxx,카카오,서울 동작구 노량진동 277-8,33,37.512204,126.936138,UNAUTHORIZED_MEMBER,노량진에서 귀한 큰 원룸입니다,128,128,서울,동작구,empty,노량진로8가길 19,128,128,128,128,382,383,384,/homeImage/128/01.jpg,/homeImage/128/02.jpg,/homeImage/128/03.jpg,128,/hostImage/8.jpg,0,1,1,1,0,1,0,0,1
6604e47d5a3bbf6a87dcf9e1,1,1,1,1,1,1,1,0,1,0,1,0,1,1,OR,1,0,1,0,0,0,1,1,0,0,129,오성호,90,01016616401,M,이순옥,01031079733,자녀,260407-2703836,xx-xxxxx-xxx,부산,서울 동작구 노량진동 219-34,44,37.508563,126.946556,UNAUTHORIZED_MEMBER,실제면적 훨씬 넓고 앞이 틔여있어 채광좋고 깨끗한 도시형생활주택,129,129,서울,동작구,empty,만양로 51,129,129,129,129,385,386,387,/homeImage/129/01.jpg,/homeImage/129/02.jpg,/homeImage/129/03.jpg,129,/hostImage/9.jpg,0,0,1,0,1,1,0,1,0
6604e47d5a3bbf6a87dcf9e2,1,1,1,1,1,1,1,0,1,0,0,1,1,1,OR,0,1,1,0,0,1,1,1,1,0,130,이진호,88,01058848921,M,서영미,01010092892,자녀,320103-1591016,xx-xxxxx-xxx,케이,서울 동작구 노량진동 262-5,38,37.512443,126.936114,UNAUTHORIZED_MEMBER,노량진에서 보기힘든 완전깔끔한 화이트톤원룸,130,130,서울,동작구,empty,노량진로6가길 3,130,130,130,130,388,389,390,/homeImage/130/01.jpg,/homeImage/130/02.jpg,/homeImage/130/03.jpg,130,/hostImage/10.jpg,0,0,0,1,1,1,1,1,1
6604e47d5a3bbf6a87dcf9e3,1,1,1,1,1,1,1,0,1,0,0,1,1,1,OR,1,1,0,1,0,0,1,1,1,0,131,이서연,73,01066940537,M,이춘자,01032240834,자녀,540025-1443194,xx-xxxxx-xxx,전북,서울 동작구 노량진동 267-21,29,37.512535,126.934998,UNAUTHORIZED_MEMBER,깔끔하고 저렴한 원룸 찾으시는분들,131,131,서울,동작구,empty,등용로14길 63,131,131,131,131,391,392,393,/homeImage/131/01.jpg,/homeImage/131/02.jpg,/homeImage/131/03.jpg,131,/hostImage/11.jpg,1,0,1,0,1,0,1,1,1
6604e47d5a3bbf6a87dcf9e4,1,1,1,1,1,1,1,0,1,0,0,1,1,1,OR,0,1,0,1,0,0,0,1,0,1,132,이예준,98,01068263411,F,한민석,01031795345,자녀,900200-1919391,xx-xxxxx-xxx,하나,서울 동작구 노량진동 119-113,30,37.511229,126.943678,MEMBER,저렴하고 위치좋은 원룸 찾으시나,132,132,서울,동작구,empty,만양로15길 6,132,132,132,132,394,395,396,/homeImage/132/01.jpg,/homeImage/132/02.jpg,/homeImage/132/03.jpg,132,/hostImage/12.jpg,1,0,0,0,0,1,1,1,0
6604e47d5a3bbf6a87dcf9e5,1,1,1,1,1,1,1,0,1,0,0,1,1,1,OR,1,1,1,1,0,1,1,0,1,0,133,임민서,93,01058680626,M,장정수,01032909037,자녀,000122-2899269,xx-xxxxx-xxx,농협,서울 동작구 노량진동 253-5,45,37.51119,126.938202,UNAUTHORIZED_MEMBER,깔끔하고 단아한 원룸입니다,133,133,서울,동작구,empty,노량진로10길 45,133,133,133,133,397,398,399,/homeImage/133/01.jpg,/homeImage/133/02.jpg,/homeImage/133/03.jpg,133,/hostImage/13.jpg,1,0,1,1,1,1,1,0,1
6604e47d5a3bbf6a87dcf9e6,1,1,1,1,1,1,1,0,1,0,0,1,1,1,OR,0,0,1,1,0,1,0,1,1,0,134,김지민,89,01074442176,F,최지영,01042200954,자녀,970407-1898758,xx-xxxxx-xxx,우체국,서울 동작구 노량진동 276-3,45,37.512043,126.936445,MEMBER,깔끔한 풀옵션 원룸 월세 나왔습니다.,134,134,서울,동작구,empty,노량진로6가길 17,134,134,134,134,400,401,402,/homeImage/134/01.jpg,/homeImage/134/02.jpg,/homeImage/134/03.jpg,134,/hostImage/14.jpg,1,0,0,1,0,1,0,1,1
6604e47d5a3bbf6a87dcf9e7,1,1,1,1,1,1,1,0,1,0,0,1,1,1,OR,1,1,1,1,1,0,0,1,0,1,135,구영미,68,01009368470,F,문준혁,01017752844,자녀,050707-2101491,xx-xxxxx-xxx,신한,서울 동작구 노량진동 267-21,29,37.512535,126.934998,MEMBER,깔끔하고 저렴한 원룸 찾으시는분들,135,135,서울,동작구,empty,등용로14길 63,135,135,135,135,403,404,405,/homeImage/135/01.jpg,/homeImage/135/02.jpg,/homeImage/135/03.jpg,135,/hostImage/15.jpg,1,1,1,0,0,2,1,1,0
6604e47d5a3bbf6a87dcf9e8,1,1,1,1,1,1,1,1,1,0,1,1,1,1,OR,1,0,0,1,0,1,0,1,1,0,136,박지훈,83,01055997241,F,이유진,01050020227,자녀,450008-1009671,xx-xxxxx-xxx,카카오,서울 동작구 노량진동 233-10,30,37.510126,126.939822,MEMBER,위치좋은 저렴한 노량진 원룸3,136,136,서울,동작구,empty,장승배기로23길 4,136,136,136,136,406,407,408,/homeImage/136/01.jpg,/homeImage/136/02.jpg,/homeImage/136/03.jpg,136,/hostImage/16.jpg,1,0,1,1,0,0,0,1,1
6604e47d5a3bbf6a87dcf9e9,1,1,1,1,1,1,1,0,1,0,0,1,1,1,OR,1,1,0,1,0,1,1,0,0,1,137,김승현,92,01086561672,M,장성현,01018380648,자녀,000110-2542260,xx-xxxxx-xxx,우체국,서울 동작구 노량진동 52-30,36,37.511987,126.940915,UNAUTHORIZED_MEMBER,깔끔하고 위치 좋은 원룸입니다,137,137,서울,동작구,empty,장승배기로26길 9,137,137,137,137,409,410,411,/homeImage/137/01.jpg,/homeImage/137/02.jpg,/homeImage/137/03.jpg,137,/hostImage/17.jpg,1,0,1,1,1,1,1,0,0
6604e47d5a3bbf6a87dcf9ea,1,1,1,1,1,1,1,1,1,0,0,1,1,1,OR,0,1,0,1,0,0,1,0,0,0,138,서상훈,93,01078821427,F,김성수,01020944105,자녀,190417-1024628,xx-xxxxx-xxx,토스,서울 동작구 노량진동 225-3,46,37.508988,126.941266,UNAUTHORIZED_MEMBER,깔끔한 원룸 찾으시는분 구경하세요,138,138,서울,동작구,empty,장승배기로22길 29,138,138,138,138,412,413,414,/homeImage/138/01.jpg,/homeImage/138/02.jpg,/homeImage/138/03.jpg,138,/hostImage/18.jpg,1,0,0,0,1,0,1,0,0
6604e47d5a3bbf6a87dcf9eb,1,1,1,1,1,1,1,0,1,0,1,0,1,1,OR,1,0,0,0,1,1,0,1,0,0,139,김상현,92,01010676731,M,박정호,01044117646,자녀,430713-2991227,xx-xxxxx-xxx,신한,서울 동작구 노량진동 219-34,25,37.508563,126.946556,UNAUTHORIZED_MEMBER,가격저렴하고 깨끗하며 노량진역 도보 10분거리,139,139,서울,동작구,empty,만양로 51,139,139,139,139,415,416,417,/homeImage/139/01.jpg,/homeImage/139/02.jpg,/homeImage/139/03.jpg,139,/hostImage/19.jpg,0,1,1,1,0,0,0,1,0
6604e47d5a3bbf6a87dcf9ec,1,1,1,1,1,1,1,0,1,0,0,0,1,1,OR,1,0,1,0,0,1,1,1,0,0,140,김지민,99,01093139651,F,박민석,01094746657,자녀,820213-2829193,xx-xxxxx-xxx,우리,서울 동작구 노량진동 222-46,40,37.509783,126.945991,MEMBER,풀옵션 깨끗한 원룸 매물 나왔습니다.,140,140,서울,동작구,empty,만양로12길 6,140,140,140,140,418,419,420,/homeImage/140/01.jpg,/homeImage/140/02.jpg,/homeImage/140/03.jpg,140,/hostImage/20.jpg,0,0,1,1,1,1,0,1,0
6604e47d5a3bbf6a87dcf9ed,1,1,1,1,1,1,1,0,1,0,0,1,1,1,OR,1,0,0,0,1,1,1,1,0,1,141,성정호,69,01075788169,F,홍영호,01005137593,자녀,270616-1737909,xx-xxxxx-xxx,하나,서울 동작구 노량진동 244-34,48,37.511596,126.938471,UNAUTHORIZED_MEMBER,위치좋은깔끔한원룸입니다,141,141,서울,동작구,empty,장승배기로27길 16,141,141,141,141,421,422,423,/homeImage/141/01.jpg,/homeImage/141/02.jpg,/homeImage/141/03.jpg,141,/hostImage/21.jpg,0,1,1,1,1,1,0,1,0
6604e47d5a3bbf6a87dcf9ee,1,1,1,1,1,1,1,0,1,0,0,1,1,1,OR,0,0,1,0,0,0,1,0,0,0,142,임정수,65,01046828144,F,문정호,01033710785,자녀,200604-1437578,xx-xxxxx-xxx,카카오,서울 동작구 노량진동 267-48,29,37.51251,126.935118,MEMBER,가성비최고 원룸,142,142,서울,동작구,empty,등용로14길 65,142,142,142,142,424,425,426,/homeImage/142/01.jpg,/homeImage/142/02.jpg,/homeImage/142/03.jpg,142,/hostImage/22.jpg,0,0,0,0,1,1,0,0,0
6604e47d5a3bbf6a87dcf9ef,1,1,1,1,1,1,1,1,1,0,0,1,1,1,OR,0,1,0,1,1,0,1,1,1,1,143,박성훈,75,01008045641,M,최재현,01011091275,자녀,660827-2570318,xx-xxxxx-xxx,카카오,서울 동작구 노량진동 262-4,37,37.512337,126.936131,UNAUTHORIZED_MEMBER,"진짜 깔끔한 꿀매물,  가격도 저렴해요",143,143,서울,동작구,empty,노량진로8가길 20,143,143,143,143,427,428,429,/homeImage/143/01.jpg,/homeImage/143/02.jpg,/homeImage/143/03.jpg,143,/hostImage/23.jpg,1,1,0,0,1,1,1,1,1
6604e47d5a3bbf6a87dcf9f0,1,1,1,1,1,1,1,1,1,0,0,1,1,1,OR,0,0,1,1,0,0,0,0,0,0,144,이지원,89,01044319709,M,안지원,01078524804,자녀,670621-2875975,xx-xxxxx-xxx,우리,서울 동작구 노량진동 244-34,43,37.511596,126.938471,UNAUTHORIZED_MEMBER,위치좋은깔끔한원룸입니다,144,144,서울,동작구,empty,장승배기로27길 16,144,144,144,144,430,431,432,/homeImage/144/01.jpg,/homeImage/144/02.jpg,/homeImage/144/03.jpg,144,/hostImage/24.jpg,1,0,0,0,0,1,0,0,0
6604e47d5a3bbf6a87dcf9f1,1,1,1,1,1,1,1,1,1,0,0,0,1,1,OR,1,0,0,0,1,0,1,0,0,0,145,홍영일,91,01090853180,F,박상훈,01074943521,자녀,120618-1033232,xx-xxxxx-xxx,광주,서울 동작구 노량진동 232-43,43,37.509735,126.941879,MEMBER,저렴한가격에 신축느낌나는 원룸,145,145,서울,동작구,empty,장승배기로20다길 6,145,145,145,145,433,434,435,/homeImage/145/01.jpg,/homeImage/145/02.jpg,/homeImage/145/03.jpg,145,/hostImage/25.jpg,0,1,1,0,1,0,0,0,0
6604e47d5a3bbf6a87dcf9f2,1,1,1,1,1,1,1,0,1,0,1,1,1,1,OR,1,1,0,1,0,0,0,1,1,1,146,윤영길,92,01042027552,M,이민재,01067096135,자녀,110310-2669066,xx-xxxxx-xxx,우리,서울 동작구 노량진동 85-7,40,37.512109,126.943524,UNAUTHORIZED_MEMBER,저렴하고 치안좋은 노량진 원룸,146,146,서울,동작구,노량진동,empty,146,146,146,146,436,437,438,/homeImage/146/01.jpg,/homeImage/146/02.jpg,/homeImage/146/03.jpg,146,/hostImage/26.jpg,1,0,1,0,0,1,1,1,1
6604e47d5a3bbf6a87dcf9f3,1,1,1,1,1,1,1,0,1,0,0,1,1,1,OR,0,1,1,0,0,0,1,1,0,1,147,문지혜,65,01065317757,F,오예지,01079577120,자녀,140317-1021386,xx-xxxxx-xxx,농협,서울 동작구 노량진동 270,45,37.512297,126.935181,UNAUTHORIZED_MEMBER,깔끔하고 넓직한 원룸입니다.,147,147,서울,동작구,empty,등용로14길 66,147,147,147,147,439,440,441,/homeImage/147/01.jpg,/homeImage/147/02.jpg,/homeImage/147/03.jpg,147,/hostImage/27.jpg,0,0,0,0,1,2,1,1,0
6604e47d5a3bbf6a87dcf9f4,1,1,1,1,1,1,1,1,1,0,1,0,1,1,OR,1,0,0,0,1,1,0,0,0,1,148,차승현,67,01078026689,M,한상철,01040480360,자녀,380416-2551632,xx-xxxxx-xxx,국민,서울 동작구 노량진동 215-112,35,37.508452,126.947329,MEMBER,저렴한 원룸입니다,148,148,서울,동작구,empty,만양로6길 9,148,148,148,148,442,443,444,/homeImage/148/01.jpg,/homeImage/148/02.jpg,/homeImage/148/03.jpg,148,/hostImage/28.jpg,0,1,1,1,0,1,0,0,0
6604e47d5a3bbf6a87dcf9f5,1,1,1,1,1,1,1,0,1,0,1,0,1,1,OR,0,0,1,0,1,1,0,1,1,1,149,안정자,76,01059881192,M,이경수,01055916718,자녀,460909-1989044,xx-xxxxx-xxx,SC제일,서울 동작구 노량진동 215-109,42,37.508384,126.947607,MEMBER,"노량진 깔끔하고 넓직한 원룸, 창고식 베란다도 있습니다",149,149,서울,동작구,empty,만양로6길 6,149,149,149,149,445,446,447,/homeImage/149/01.jpg,/homeImage/149/02.jpg,/homeImage/149/03.jpg,149,/hostImage/29.jpg,0,1,0,1,0,2,0,1,1
6604e47d5a3bbf6a87dcf9f6,1,1,1,1,1,1,1,1,1,0,0,1,1,1,OR,1,0,1,1,1,0,1,0,1,0,150,이종수,70,01061660100,M,최선영,01021679702,자녀,990305-1611171,xx-xxxxx-xxx,하나,서울 동작구 노량진동 125-32,47,37.512324,126.945657,UNAUTHORIZED_MEMBER,위치굿 컨디션굿 풀옵션 크기좋은 가성비 원룸,150,150,서울,동작구,empty,만양로14나길 12,150,150,150,150,448,449,450,/homeImage/150/01.jpg,/homeImage/150/02.jpg,/homeImage/150/03.jpg,150,/hostImage/30.jpg,1,1,1,0,1,1,0,0,1
6604e47d5a3bbf6a87dcf9f7,1,1,1,1,1,1,1,1,1,0,0,0,1,1,OR,1,1,0,1,1,1,0,0,1,0,151,임상현,82,01080766381,F,류정수,01078045971,자녀,540615-2741251,xx-xxxxx-xxx,신한,서울 동작구 노량진동 222-51,37,37.509568,126.946013,MEMBER,저렴하고 화이트톤의 깨끗한 매물,151,151,서울,동작구,empty,만양로12길 6,151,151,151,151,451,452,453,/homeImage/151/01.jpg,/homeImage/151/02.jpg,/homeImage/151/03.jpg,151,/hostImage/31.jpg,1,1,1,1,0,0,1,0,1
6604e47d5a3bbf6a87dcf9f8,1,1,1,1,1,1,1,0,1,0,0,1,1,1,OR,1,1,0,1,0,0,0,0,0,1,152,최영숙,80,01003147061,M,장주원,01011576321,자녀,450108-2037117,xx-xxxxx-xxx,경남,서울 동작구 노량진동 125-31,40,37.512271,126.945745,MEMBER,위치좋은 노량진 원룸 입니다,152,152,서울,동작구,empty,만양로14나길 14,152,152,152,152,454,455,456,/homeImage/152/01.jpg,/homeImage/152/02.jpg,/homeImage/152/03.jpg,152,/hostImage/32.jpg,1,0,1,0,0,1,1,0,0
6604e47d5a3bbf6a87dcf9f9,1,1,1,1,1,1,1,1,1,0,0,1,1,1,OR,0,1,0,0,1,0,0,1,0,0,153,엄지연,93,01063679358,M,안지훈,01044076868,자녀,600113-1399814,xx-xxxxx-xxx,기업,서울 동작구 노량진동 35-1,50,37.512648,126.937245,UNAUTHORIZED_MEMBER,리모델링 깔끔하고 이쁜 공간 노량진역 큰대로변 초근접,153,153,서울,동작구,empty,노량진로8길 33,153,153,153,153,457,458,459,/homeImage/153/01.jpg,/homeImage/153/02.jpg,/homeImage/153/03.jpg,153,/hostImage/33.jpg,0,1,0,0,0,0,1,1,0
6604e47d5a3bbf6a87dcf9fa,1,1,1,1,1,1,1,0,1,0,0,0,1,1,OR,1,1,1,0,0,0,0,1,1,1,154,박은지,66,01026040417,F,김현정,01066170104,자녀,990226-2693790,xx-xxxxx-xxx,전북,서울 동작구 노량진동 222-89,43,37.510208,126.945892,MEMBER,정남향으로 채광이 좋습니다,154,154,서울,동작구,empty,만양로6길 60,154,154,154,154,460,461,462,/homeImage/154/01.jpg,/homeImage/154/02.jpg,/homeImage/154/03.jpg,154,/hostImage/34.jpg,0,0,1,0,0,2,1,1,1
6604e47d5a3bbf6a87dcf9fb,1,1,1,1,1,1,1,0,1,0,0,0,1,1,OR,1,0,0,1,0,1,1,0,1,0,155,박정남,79,01044084277,M,김정남,01075367137,자녀,790112-2705914,xx-xxxxx-xxx,하나,서울 동작구 노량진동 215-106,30,37.508613,126.947413,UNAUTHORIZED_MEMBER,고시원가격의 풀옵션원룸,155,155,서울,동작구,empty,만양로6길 12,155,155,155,155,463,464,465,/homeImage/155/01.jpg,/homeImage/155/02.jpg,/homeImage/155/03.jpg,155,/hostImage/35.jpg,1,0,1,1,1,0,0,0,1
6604e47d5a3bbf6a87dcf9fc,1,1,1,1,1,1,1,1,1,0,1,0,1,1,OR,0,1,1,0,1,1,1,0,0,0,156,이정수,77,01095702461,M,이상철,01099140040,자녀,240813-2253859,xx-xxxxx-xxx,국민,서울 동작구 노량진동 215-102,37,37.508769,126.947283,UNAUTHORIZED_MEMBER,신축으로 방이크고 방음이 좋은 풀옵션원룸,156,156,서울,동작구,empty,만양로6길 16,156,156,156,156,466,467,468,/homeImage/156/01.jpg,/homeImage/156/02.jpg,/homeImage/156/03.jpg,156,/hostImage/36.jpg,0,1,0,1,1,1,1,0,0
6604e47d5a3bbf6a87dcf9fd,1,1,1,1,1,1,1,1,1,0,1,0,1,1,OR,0,1,1,1,0,0,1,0,0,1,157,김건우,80,01069561937,M,이서현,01036205132,자녀,370104-1051523,xx-xxxxx-xxx,카카오,서울 동작구 노량진동 215-116,37,37.508775,126.94706,UNAUTHORIZED_MEMBER,2016년신축한 방음이뛰어난풀옵션원룸,157,157,서울,동작구,empty,만양로6길 19,157,157,157,157,469,470,471,/homeImage/157/01.jpg,/homeImage/157/02.jpg,/homeImage/157/03.jpg,157,/hostImage/37.jpg,1,0,0,0,1,2,1,0,0
6604e47d5a3bbf6a87dcf9fe,1,1,1,1,1,1,1,1,1,0,1,1,1,1,VL,1,0,0,1,1,1,0,1,0,0,158,박은영,97,01018688052,M,양성민,01028509509,자녀,080104-2774400,xx-xxxxx-xxx,제주,서울 동작구 본동 49-32,45,37.511696,126.955595,UNAUTHORIZED_MEMBER,귀한원룸  풀옵션원룸으로  입주협의,158,158,서울,동작구,empty,노량진로28길 30,158,158,158,158,472,473,474,/homeImage/158/01.jpg,/homeImage/158/02.jpg,/homeImage/158/03.jpg,158,/hostImage/38.jpg,1,1,1,1,0,0,0,1,0
6604e47d5a3bbf6a87dcf9ff,1,1,1,1,1,1,1,1,1,0,0,1,1,1,OR,0,0,1,0,1,0,1,0,1,1,159,김예지,66,01084117818,F,구지훈,01056888068,자녀,960313-1856881,xx-xxxxx-xxx,제주,서울 동작구 대방동 391-315,33,37.501504,126.924261,UNAUTHORIZED_MEMBER,더블역세권 대방동 원룸,159,159,서울,동작구,empty,대방동27길 81,159,159,159,159,475,476,477,/homeImage/159/01.jpg,/homeImage/159/02.jpg,/homeImage/159/03.jpg,159,/hostImage/39.jpg,0,1,0,0,1,2,0,0,1
6604e47d5a3bbf6a87dcfa00,1,1,1,1,1,1,1,0,1,0,0,0,1,1,OR,1,1,1,1,0,1,0,1,1,1,160,최성진,79,01039761279,M,권민수,01073252019,자녀,780228-2943192,xx-xxxxx-xxx,기업,서울 동작구 대방동 20-48,60,37.509296,126.931714,MEMBER,"방이 아주 크고,  깨끗하며 조용한 원룸",160,160,서울,동작구,empty,여의대방로36길 101,160,160,160,160,478,479,480,/homeImage/160/01.jpg,/homeImage/160/02.jpg,/homeImage/160/03.jpg,160,/hostImage/40.jpg,1,0,1,1,0,2,1,1,1
6604e47d5a3bbf6a87dcfa01,1,1,1,1,1,1,1,0,1,0,0,1,1,1,OR,1,0,0,0,0,0,1,1,0,1,161,박정수,83,01055913762,M,김유진,01024892432,자녀,880316-2883812,xx-xxxxx-xxx,카카오,서울 동작구 대방동 391-200,40,37.500476,126.926728,UNAUTHORIZED_MEMBER,실제사진 O｜즉시입주 O｜학교 인근의 조용하고 깨끗한 분리형 원룸,161,161,서울,동작구,empty,대방동1길 8,161,161,161,161,481,482,483,/homeImage/161/01.jpg,/homeImage/161/02.jpg,/homeImage/161/03.jpg,161,/hostImage/41.jpg,0,0,1,0,1,1,0,1,0
6604e47d5a3bbf6a87dcfa02,1,1,1,1,1,1,1,1,1,0,0,0,1,1,OR,0,1,0,1,1,1,1,0,1,0,162,권민서,93,01016143427,F,박미영,01047700982,자녀,840111-1105401,xx-xxxxx-xxx,우체국,서울 동작구 노량진동 222-46,38,37.509783,126.945991,UNAUTHORIZED_MEMBER,풀옵션 원룸,162,162,서울,동작구,empty,만양로12길 6,162,162,162,162,484,485,486,/homeImage/162/01.jpg,/homeImage/162/02.jpg,/homeImage/162/03.jpg,162,/hostImage/42.jpg,1,1,0,1,1,0,1,0,1
6604e47d5a3bbf6a87dcfa03,1,1,1,1,1,1,1,0,1,0,0,1,1,1,OR,1,1,0,0,0,1,1,0,0,1,163,하재호,100,01009327447,F,배지현,01094552531,자녀,680006-1420965,xx-xxxxx-xxx,하나,서울 동작구 상도1동 366-1,52,37.501142,126.950621,MEMBER,"중앙대,숭실대 풀옵션 원룸",163,163,서울,동작구,empty,상도로43길 14,163,163,163,163,487,488,489,/homeImage/163/01.jpg,/homeImage/163/02.jpg,/homeImage/163/03.jpg,163,/hostImage/43.jpg,0,0,1,1,1,1,1,0,0
6604e47d5a3bbf6a87dcfa04,1,1,1,1,1,1,1,0,1,0,0,0,1,1,OR,0,0,1,0,0,0,1,1,1,0,164,박정호,99,01065676057,F,김영자,01012017524,자녀,160006-1155663,xx-xxxxx-xxx,토스,서울 동작구 상도동 242-75,30,37.501315,126.934875,MEMBER,장승배기역 도보7분 원룸치고 큰방큰방 보증금조절가능 빨리보세요,164,164,서울,동작구,empty,성대로1길 18,164,164,164,164,490,491,492,/homeImage/164/01.jpg,/homeImage/164/02.jpg,/homeImage/164/03.jpg,164,/hostImage/44.jpg,0,0,0,0,1,1,0,1,1
6604e47d5a3bbf6a87dcfa05,1,1,1,1,1,1,1,0,1,0,0,0,1,1,OR,0,0,0,1,1,0,0,0,1,1,165,박정남,98,01036856691,M,김경희,01099316307,자녀,760100-1397743,xx-xxxxx-xxx,신한,서울 동작구 노량진동 123-43,40,37.510443,126.945963,UNAUTHORIZED_MEMBER,학원가인접한 대로변 치안걱정없는집,165,165,서울,동작구,empty,만양로8길 64,165,165,165,165,493,494,495,/homeImage/165/01.jpg,/homeImage/165/02.jpg,/homeImage/165/03.jpg,165,/hostImage/45.jpg,1,1,0,0,0,1,0,0,1
6604e47d5a3bbf6a87dcfa06,1,1,1,1,1,1,1,1,1,0,1,1,1,1,DDDGG,1,1,0,0,0,0,1,0,0,1,166,이성호,74,01005113049,M,강명숙,01019399958,자녀,320028-2446931,xx-xxxxx-xxx,하나,서울 동작구 본동 50-40,50,37.510767,126.954717,MEMBER,노들역5분 방2 내부좋습니다,166,166,서울,동작구,empty,노량진로26길 32,166,166,166,166,496,497,498,/homeImage/166/01.jpg,/homeImage/166/02.jpg,/homeImage/166/03.jpg,166,/hostImage/46.jpg,0,0,1,0,1,1,1,0,0
6604e47d5a3bbf6a87dcfa07,1,1,1,1,1,1,1,1,1,0,0,1,1,1,OR,1,1,1,0,0,0,0,0,1,0,167,최영진,73,01098454021,F,이미정,01052663320,자녀,590202-2601451,xx-xxxxx-xxx,수협,서울 동작구 대방동 391-315,33,37.501504,126.924261,UNAUTHORIZED_MEMBER,위치 컨디션 퀄리티 가격 하나도 빼놓을게 없어요,167,167,서울,동작구,empty,대방동27길 81,167,167,167,167,499,500,501,/homeImage/167/01.jpg,/homeImage/167/02.jpg,/homeImage/167/03.jpg,167,/hostImage/47.jpg,0,0,1,0,0,1,1,0,1
6604e47d5a3bbf6a87dcfa08,1,1,1,1,1,1,1,1,1,0,0,1,1,1,OR,0,1,1,0,0,1,0,0,0,1,168,박지연,99,01004165544,F,권승민,01067370204,자녀,900914-2312464,xx-xxxxx-xxx,수협,서울 동작구 상도1동 696,35,37.504099,126.948156,UNAUTHORIZED_MEMBER,O 상도역 역세권 깔끔한 풀옵션 원룸,168,168,서울,동작구,empty,상도로 265,168,168,168,168,502,503,504,/homeImage/168/01.jpg,/homeImage/168/02.jpg,/homeImage/168/03.jpg,168,/hostImage/48.jpg,0,0,0,1,0,2,1,0,0
6604e47d5a3bbf6a87dcfa09,1,1,1,1,1,1,1,1,1,0,1,1,1,1,VL,0,1,1,1,0,1,1,1,1,0,169,양민준,66,01027117448,F,송예은,01014561116,자녀,730026-1140606,xx-xxxxx-xxx,제주,서울 동작구 본동 49-32,50,37.511696,126.955595,MEMBER,2014년식 풀옵션 원룸 내부좋습니다,169,169,서울,동작구,empty,노량진로28길 30,169,169,169,169,505,506,507,/homeImage/169/01.jpg,/homeImage/169/02.jpg,/homeImage/169/03.jpg,169,/hostImage/49.jpg,1,0,0,1,1,1,1,1,1
6604e47d5a3bbf6a87dcfa0a,1,1,1,1,1,1,1,1,1,0,1,1,1,1,OR,1,1,1,0,1,1,0,0,0,1,170,김지은,85,01063413970,F,이미숙,01082639107,자녀,260801-2854556,xx-xxxxx-xxx,국민,서울 동작구 본동 49-32,50,37.511696,126.955595,UNAUTHORIZED_MEMBER,풀옵션으로 2013년식 내부좋습니다 빠른입주가능,170,170,서울,동작구,empty,노량진로28길 30,170,170,170,170,508,509,510,/homeImage/170/01.jpg,/homeImage/170/02.jpg,/homeImage/170/03.jpg,170,/hostImage/50.jpg,0,1,1,1,0,2,1,0,0
6604e47d5a3bbf6a87dcfa0b,1,1,1,1,1,1,1,0,1,0,1,1,1,1,OR,0,0,0,0,1,0,1,1,0,1,171,장영순,82,01045801059,M,김준혁,01045817535,자녀,380905-2984637,xx-xxxxx-xxx,전북,서울 동작구 본동 49-38,35,37.511765,126.955285,UNAUTHORIZED_MEMBER,노들역3분 방1 옵션완벽 저렴한시세,171,171,서울,동작구,empty,노량진로28길 16,171,171,171,171,511,512,513,/homeImage/171/01.jpg,/homeImage/171/02.jpg,/homeImage/171/03.jpg,171,/hostImage/51.jpg,0,1,0,0,1,1,0,1,0
6604e47d5a3bbf6a87dcfa0c,1,1,1,1,1,1,1,0,1,0,0,0,1,1,OR,1,0,1,1,1,1,1,0,0,1,172,안정수,84,01000259027,M,유지우,01021247388,자녀,270024-2727580,xx-xxxxx-xxx,제주,서울 동작구 노량진동 220-11,42,37.508982,126.945225,UNAUTHORIZED_MEMBER,개방감있는 양창원룸 노량진역세권,172,172,서울,동작구,empty,만양로13길 37,172,172,172,172,514,515,516,/homeImage/172/01.jpg,/homeImage/172/02.jpg,/homeImage/172/03.jpg,172,/hostImage/52.jpg,1,1,1,1,1,2,0,0,0
6604e47d5a3bbf6a87dcfa0d,1,1,1,1,1,1,1,0,1,0,0,0,1,1,OR,1,1,1,0,1,0,1,1,1,0,173,한서윤,88,01057924621,M,엄재호,01016422009,자녀,140403-2370240,xx-xxxxx-xxx,수협,서울 동작구 노량진동 123-43,48,37.510443,126.945963,MEMBER,노량진.지상층저렴한방.위치좋아안전.편의점인근,173,173,서울,동작구,empty,만양로8길 64,173,173,173,173,517,518,519,/homeImage/173/01.jpg,/homeImage/173/02.jpg,/homeImage/173/03.jpg,173,/hostImage/53.jpg,0,1,1,0,1,1,1,1,1
6604e47d5a3bbf6a87dcfa0e,1,1,1,1,1,1,1,1,1,0,0,1,1,1,OR,0,1,1,0,0,1,0,1,1,0,174,김민지,76,01039239385,M,강민재,01023715329,자녀,440108-2102309,xx-xxxxx-xxx,산업,서울 동작구 대방동 391-559,50,37.50054,126.924358,MEMBER,실제사진O｜즉시 입주O｜현관보안O｜7호선 이용이 편리한 원룸,174,174,서울,동작구,empty,대방동1길 30,174,174,174,174,520,521,522,/homeImage/174/01.jpg,/homeImage/174/02.jpg,/homeImage/174/03.jpg,174,/hostImage/54.jpg,0,0,0,1,0,1,1,1,1
6604e47d5a3bbf6a87dcfa0f,1,1,1,1,1,1,1,0,1,0,1,1,1,1,DDDGG,0,0,1,1,1,1,0,1,1,0,175,김상철,97,01019564927,F,장영미,01030712536,자녀,920413-1301700,xx-xxxxx-xxx,전북,서울 동작구 본동 50-19,45,37.511402,126.954329,UNAUTHORIZED_MEMBER,방1크고  내부상태 깔끔 도배장판 새로함,175,175,서울,동작구,empty,노량진로26길 16,175,175,175,175,523,524,525,/homeImage/175/01.jpg,/homeImage/175/02.jpg,/homeImage/175/03.jpg,175,/hostImage/55.jpg,1,1,0,1,0,1,0,1,1
6604e47d5a3bbf6a87dcfa10,1,1,1,1,1,1,1,1,1,0,0,1,1,1,OR,1,1,0,0,1,0,1,0,0,0,176,조상호,67,01067115562,F,이은지,01070389005,자녀,300306-1029564,xx-xxxxx-xxx,대구,서울 동작구 노량진동 52-35,48,37.512087,126.940868,MEMBER,노량진역 도보 2분거리 위치굿 채광 통풍좋고 깨끗한원룸,176,176,서울,동작구,empty,장승배기로28길 16,176,176,176,176,526,527,528,/homeImage/176/01.jpg,/homeImage/176/02.jpg,/homeImage/176/03.jpg,176,/hostImage/56.jpg,0,1,1,0,1,0,1,0,0
6604e47d5a3bbf6a87dcfa11,1,1,1,1,1,1,1,1,1,0,0,1,1,1,OR,1,0,0,0,0,1,1,1,0,1,177,장영일,72,01035220198,M,조상훈,01051329893,자녀,340913-1580049,xx-xxxxx-xxx,부산,서울 동작구 상도1동 366-1,37,37.501142,126.950621,MEMBER,상도역5분 중앙대 숭실대 치안굿 채광굿,177,177,서울,동작구,empty,상도로43길 14,177,177,177,177,529,530,531,/homeImage/177/01.jpg,/homeImage/177/02.jpg,/homeImage/177/03.jpg,177,/hostImage/57.jpg,0,0,1,1,1,1,0,1,0
6604e47d5a3bbf6a87dcfa12,1,1,1,1,1,1,1,0,1,0,0,0,1,1,OR,1,0,0,0,0,0,0,1,0,0,178,김준혁,74,01062586577,F,고은지,01086685824,자녀,420706-1000924,xx-xxxxx-xxx,국민,서울 동작구 노량진동 222-48,38,37.509749,126.945797,UNAUTHORIZED_MEMBER,2개의 큰창으로 햇빛잘들고 통풍좋으며 조용하고 깨끗한 원룸,178,178,서울,동작구,empty,만양로12길 6,178,178,178,178,532,533,534,/homeImage/178/01.jpg,/homeImage/178/02.jpg,/homeImage/178/03.jpg,178,/hostImage/58.jpg,0,0,1,0,0,0,0,1,0
6604e47d5a3bbf6a87dcfa13,1,1,1,1,1,1,1,1,1,0,1,1,1,1,DDDGG,1,0,0,1,1,1,0,1,0,1,179,송민재,97,01095135889,F,이예진,01008326980,자녀,640121-1066742,xx-xxxxx-xxx,광주,서울 동작구 본동 51,40,37.51077,126.955298,UNAUTHORIZED_MEMBER,풀옵션으로 방 넓고 좋습니다 빠른입주,179,179,서울,동작구,empty,노량진로26길 39,179,179,179,179,535,536,537,/homeImage/179/01.jpg,/homeImage/179/02.jpg,/homeImage/179/03.jpg,179,/hostImage/59.jpg,1,1,1,1,0,1,0,1,0
6604e47d5a3bbf6a87dcfa14,1,1,1,1,1,1,1,1,1,0,1,0,1,1,OR,1,0,0,0,0,0,0,0,1,1,180,이승민,97,01036900314,M,박승민,01064516778,자녀,530421-2698478,xx-xxxxx-xxx,농협,서울 동작구 흑석동 207-45,55,37.505682,126.956051,MEMBER,중문 3분 풀옵션 원룸 평지 지상층,180,180,서울,동작구,empty,흑석로6길 34,180,180,180,180,538,539,540,/homeImage/180/01.jpg,/homeImage/180/02.jpg,/homeImage/180/03.jpg,180,/hostImage/60.jpg,0,0,1,0,0,1,0,0,1
6604e47d5a3bbf6a87dcfa15,1,1,1,1,1,1,1,1,1,0,0,0,1,1,OR,0,0,0,1,1,0,0,1,0,1,181,김영식,85,01012692541,F,고현주,01085930908,자녀,450412-2475614,xx-xxxxx-xxx,기업,서울 동작구 노량진동 218-58,38,37.508545,126.94638,MEMBER,실2층. 리모델링원룸. 깨끗하게 관리잘되는집.,181,181,서울,동작구,empty,만양로11길 3,181,181,181,181,541,542,543,/homeImage/181/01.jpg,/homeImage/181/02.jpg,/homeImage/181/03.jpg,181,/hostImage/61.jpg,1,1,0,0,0,1,0,1,0
6604e47d5a3bbf6a87dcfa16,1,1,1,1,1,1,1,0,1,0,0,1,1,1,OR,0,0,0,1,1,1,1,0,1,1,182,김승민,98,01015089286,M,김수빈,01096292323,자녀,080820-2004143,xx-xxxxx-xxx,대구,서울 동작구 노량진동 262-4,45,37.512337,126.936131,MEMBER,"진짜 깔끔한 꿀매물,  가격도 저렴해요",182,182,서울,동작구,empty,노량진로8가길 20,182,182,182,182,544,545,546,/homeImage/182/01.jpg,/homeImage/182/02.jpg,/homeImage/182/03.jpg,182,/hostImage/62.jpg,1,1,0,1,1,1,0,0,1
6604e47d5a3bbf6a87dcfa17,1,1,1,1,1,1,1,1,1,0,0,1,1,1,OR,1,1,1,1,1,1,0,0,0,0,183,김영희,70,01080602797,M,배성훈,01027727770,자녀,260619-2538628,xx-xxxxx-xxx,SC제일,서울 동작구 대방동 391-315,40,37.501504,126.924261,MEMBER,대로변 평지 정남향 채광까지 좋은 원룸,183,183,서울,동작구,empty,대방동27길 81,183,183,183,183,547,548,549,/homeImage/183/01.jpg,/homeImage/183/02.jpg,/homeImage/183/03.jpg,183,/hostImage/63.jpg,1,1,1,1,0,1,1,0,0
6604e47d5a3bbf6a87dcfa18,1,1,1,1,1,1,1,0,1,0,0,1,1,1,DDDGG,1,1,0,1,1,0,0,0,0,0,184,진영식,97,01053007137,M,박성훈,01053648277,자녀,930326-1819735,xx-xxxxx-xxx,제주,서울 동작구 대방동 344-26,40,37.511294,126.926343,MEMBER,"1호선 대방역 초초역세권, 샛강역 도보 15분, 풀옵션, 직장인 추천",184,184,서울,동작구,empty,여의대방로46길 34,184,184,184,184,550,551,552,/homeImage/184/01.jpg,/homeImage/184/02.jpg,/homeImage/184/03.jpg,184,/hostImage/64.jpg,1,1,1,0,0,0,1,0,0
6604e47d5a3bbf6a87dcfa19,1,1,1,1,1,1,1,1,1,0,0,0,1,1,OR,1,1,1,0,1,0,1,0,1,0,185,류서영,82,01047158980,F,김영자,01067151807,자녀,580019-1518128,xx-xxxxx-xxx,경남,서울 동작구 상도동 464-5,60,37.500217,126.952386,UNAUTHORIZED_MEMBER,융자없는집. 엘베있는집. 리모델링완료. 화이트톤넓은집,185,185,서울,동작구,empty,상도로47나길 4,185,185,185,185,553,554,555,/homeImage/185/01.jpg,/homeImage/185/02.jpg,/homeImage/185/03.jpg,185,/hostImage/65.jpg,0,1,1,0,1,1,1,0,1
6604e47d5a3bbf6a87dcfa1a,1,1,1,1,1,1,1,1,1,0,0,1,1,1,OR,1,1,1,0,0,0,0,1,1,0,186,이은지,85,01078349031,M,차은경,01006942584,자녀,260017-1904471,xx-xxxxx-xxx,우체국,서울 동작구 상도동 361-101,40,37.503849,126.934701,MEMBER,7호선 장승배기역 도보5분 원룸,186,186,서울,동작구,empty,상도로15아길 11,186,186,186,186,556,557,558,/homeImage/186/01.jpg,/homeImage/186/02.jpg,/homeImage/186/03.jpg,186,/hostImage/66.jpg,0,0,1,0,0,1,1,1,1
6604e47d5a3bbf6a87dcfa1b,1,1,1,1,1,1,1,0,1,0,0,1,1,1,DDDGG,0,0,0,1,1,1,0,1,0,0,187,윤진호,72,01029237329,F,허민재,01076851947,자녀,300627-1892070,xx-xxxxx-xxx,수협,서울 동작구 대방동 344-26,40,37.511294,126.926343,UNAUTHORIZED_MEMBER,"1호선 대방역 초초역세권, 샛강역 도보 15분, 풀옵션, 직장인 추천",187,187,서울,동작구,empty,여의대방로46길 34,187,187,187,187,559,560,561,/homeImage/187/01.jpg,/homeImage/187/02.jpg,/homeImage/187/03.jpg,187,/hostImage/67.jpg,1,1,0,1,0,0,0,1,0
6604e47d5a3bbf6a87dcfa1c,1,1,1,1,1,1,1,1,1,0,0,0,1,1,OR,1,0,0,0,0,0,1,0,1,0,188,김수진,100,01074085652,F,이승현,01062188270,자녀,200705-2387080,xx-xxxxx-xxx,산업,서울 동작구 흑석동 201-27,60,37.508188,126.95698,UNAUTHORIZED_MEMBER,신축원룸 중앙대3분거리 중대병원5분거리 흑석역8분거리 저렴한원룸,188,188,서울,동작구,empty,흑석로5길 36,188,188,188,188,562,563,564,/homeImage/188/01.jpg,/homeImage/188/02.jpg,/homeImage/188/03.jpg,188,/hostImage/68.jpg,0,0,1,0,1,0,0,0,1
6604e47d5a3bbf6a87dcfa1d,1,1,1,1,1,1,1,1,1,0,0,1,1,1,OR,1,0,1,0,0,0,0,0,1,0,189,김윤서,85,01002723563,F,진영희,01090522175,자녀,540526-1717168,xx-xxxxx-xxx,케이,서울 동작구 상도동 17-51,49,37.506221,126.948326,UNAUTHORIZED_MEMBER,신축5년된 풀옵션원룸으로 조용하고 깨끗하며 전세가능,189,189,서울,동작구,empty,만양로 20,189,189,189,189,565,566,567,/homeImage/189/01.jpg,/homeImage/189/02.jpg,/homeImage/189/03.jpg,189,/hostImage/69.jpg,0,0,1,0,0,1,0,0,1
6604e47d5a3bbf6a87dcfa1e,1,1,1,1,1,1,1,0,1,0,0,0,1,1,OR,1,0,0,1,0,1,0,0,1,1,190,박지현,98,01035557344,F,고현우,01040672453,자녀,390917-1685050,xx-xxxxx-xxx,토스,서울 동작구 노량진동 218-60,40,37.50842,126.946562,MEMBER,남동향 남서향 2개의 큰창으로 햇빛 잘들고 가격이 정말 저렴한 원룸,190,190,서울,동작구,empty,만양로 51,190,190,190,190,568,569,570,/homeImage/190/01.jpg,/homeImage/190/02.jpg,/homeImage/190/03.jpg,190,/hostImage/70.jpg,1,0,1,1,0,1,0,0,1
6604e47d5a3bbf6a87dcfa1f,1,1,1,1,1,1,1,1,1,0,0,0,1,1,OR,0,1,1,0,0,1,0,0,0,1,191,황영철,99,01002914797,F,최순옥,01078909914,자녀,230411-2075679,xx-xxxxx-xxx,우체국,서울 동작구 노량진동 222-46,40,37.509783,126.945991,MEMBER,학원가 관리잘된 원룸,191,191,서울,동작구,empty,만양로12길 6,191,191,191,191,571,572,573,/homeImage/191/01.jpg,/homeImage/191/02.jpg,/homeImage/191/03.jpg,191,/hostImage/71.jpg,0,0,0,1,0,2,1,0,0
6604e47d5a3bbf6a87dcfa20,1,1,1,1,1,1,1,1,1,0,1,0,1,1,OR,1,0,1,0,1,0,0,1,1,0,192,장혜진,76,01084367810,M,최도윤,01034422245,자녀,110601-1084973,xx-xxxxx-xxx,수협,서울 동작구 노량진동 215-107,35,37.508535,126.947478,UNAUTHORIZED_MEMBER,깨끗한준신축. 보안좋고 관리잘되는집. 안심대로변,192,192,서울,동작구,empty,만양로6길 10,192,192,192,192,574,575,576,/homeImage/192/01.jpg,/homeImage/192/02.jpg,/homeImage/192/03.jpg,192,/hostImage/72.jpg,0,1,1,0,0,1,0,1,1
6604e47d5a3bbf6a87dcfa21,1,1,1,1,1,1,1,1,1,0,0,1,1,1,OR,0,1,1,0,1,0,0,0,0,0,193,이춘자,84,01016783798,F,박영자,01023097504,자녀,930021-2800832,xx-xxxxx-xxx,SC제일,서울 동작구 노량진동 256-60,40,37.512146,126.937809,MEMBER,안심추천.깔끔.풀옵션.가성비굿.,193,193,서울,동작구,empty,노량진로10길 27,193,193,193,193,577,578,579,/homeImage/193/01.jpg,/homeImage/193/02.jpg,/homeImage/193/03.jpg,193,/hostImage/73.jpg,0,1,0,0,0,1,1,0,0
6604e47d5a3bbf6a87dcfa22,1,1,1,1,1,1,1,0,1,0,0,1,1,1,OR,0,1,0,1,1,1,1,1,0,1,194,김민서,98,01003121809,M,류준혁,01020011112,자녀,920009-2395739,xx-xxxxx-xxx,카카오,서울 동작구 노량진동 119-176,48,37.511609,126.944829,UNAUTHORIZED_MEMBER,신축4년차 보안 잘 되어 있는 원룸 월세,194,194,서울,동작구,empty,만양로16길 6,194,194,194,194,580,581,582,/homeImage/194/01.jpg,/homeImage/194/02.jpg,/homeImage/194/03.jpg,194,/hostImage/74.jpg,1,1,0,1,1,1,1,1,0
6604e47d5a3bbf6a87dcfa23,1,1,1,1,1,1,1,1,1,0,0,1,1,1,OR,0,1,1,0,1,1,1,0,1,1,195,김경자,96,01088268272,M,남현준,01048216359,자녀,830612-1022017,xx-xxxxx-xxx,우리,서울 동작구 상도1동 366-1,52,37.501142,126.950621,MEMBER,융자없는집. 상도역4분. 중앙대숭실대. 편의시설밀집. 안전한위치,195,195,서울,동작구,empty,상도로43길 14,195,195,195,195,583,584,585,/homeImage/195/01.jpg,/homeImage/195/02.jpg,/homeImage/195/03.jpg,195,/hostImage/75.jpg,0,1,0,1,1,2,1,0,1
6604e47d5a3bbf6a87dcfa24,1,1,1,0,0,1,0,1,0,0,0,1,1,0,OR,0,0,0,1,0,1,1,0,0,1,196,나정자,100,01008483527,M,송상호,01060906590,자녀,410403-2715678,xx-xxxxx-xxx,제주,서울 동작구 상도동 247-6,50,37.500102,126.933507,UNAUTHORIZED_MEMBER,empty,196,196,서울,동작구,empty,성대로3길 8,196,196,196,196,586,587,588,/homeImage/196/01.jpg,/homeImage/196/02.jpg,/homeImage/196/03.jpg,196,/hostImage/76.jpg,1,0,0,1,1,1,0,0,0
6604e47d5a3bbf6a87dcfa25,1,1,1,1,1,1,1,0,1,0,0,1,1,1,DDDGG,0,0,0,0,0,1,0,0,1,1,197,서지영,76,01020461570,F,이영진,01098772986,자녀,830318-1590138,xx-xxxxx-xxx,국민,서울 동작구 대방동 344-26,30,37.511294,126.926343,MEMBER,"1호선 대방역 초초역세권, 샛강역 도보 15분, 풀옵션, 직장인 추천",197,197,서울,동작구,empty,여의대방로46길 34,197,197,197,197,589,590,591,/homeImage/197/01.jpg,/homeImage/197/02.jpg,/homeImage/197/03.jpg,197,/hostImage/77.jpg,0,0,0,1,0,1,0,0,1
6604e47d5a3bbf6a87dcfa26,1,1,1,1,1,1,1,1,1,0,0,1,1,1,OR,1,0,1,1,0,1,1,1,1,0,198,백미정,94,01072815577,F,최광수,01088259152,자녀,460229-1315020,xx-xxxxx-xxx,우리,서울 동작구 노량진동 87-14,42,37.512428,126.94346,UNAUTHORIZED_MEMBER,노량진역 도보 3분거리 신축4년차 원룸,198,198,서울,동작구,empty,노량진로14나길 5,198,198,198,198,592,593,594,/homeImage/198/01.jpg,/homeImage/198/02.jpg,/homeImage/198/03.jpg,198,/hostImage/78.jpg,1,0,1,1,1,1,0,1,1
6604e47d5a3bbf6a87dcfa27,1,1,1,1,1,1,1,1,1,0,0,1,1,1,DDDGG,0,1,0,0,1,1,1,1,0,0,199,김현준,67,01063017240,F,박정숙,01087280024,자녀,370522-1465401,xx-xxxxx-xxx,대구,서울 동작구 대방동 344-26,30,37.511294,126.926343,UNAUTHORIZED_MEMBER,"1호선 대방역 초초역세권, 샛강역 도보 15분, 풀옵션, 직장인 추천",199,199,서울,동작구,empty,여의대방로46길 34,199,199,199,199,595,596,597,/homeImage/199/01.jpg,/homeImage/199/02.jpg,/homeImage/199/03.jpg,199,/hostImage/79.jpg,0,1,0,1,1,0,1,1,0
6604e47d5a3bbf6a87dcfa28,1,1,1,1,1,1,1,0,1,0,1,0,1,1,OR,1,0,1,0,0,0,0,1,1,0,200,김서현,83,01080750716,F,안정호,01063849855,자녀,090106-2182162,xx-xxxxx-xxx,토스,서울 동작구 상도동 464-5,60,37.500217,126.952386,UNAUTHORIZED_MEMBER,중대숭실대 오픈형 엘베유 주택가메인도로 위치,200,200,서울,동작구,empty,상도로47나길 4,200,200,200,200,598,599,600,/homeImage/200/01.jpg,/homeImage/200/02.jpg,/homeImage/200/03.jpg,200,/hostImage/80.jpg,0,0,1,0,0,1,0,1,1
6604e47d5a3bbf6a87dcfa29,1,1,1,1,1,1,1,0,1,0,0,1,1,1,DDDGG,0,0,0,0,1,0,1,0,1,1,201,장서연,89,01049559015,M,서채원,01052980661,자녀,020917-2626996,xx-xxxxx-xxx,토스,서울 동작구 대방동 344-26,40,37.511294,126.926343,MEMBER,"1호선 대방역 초초역세권, 샛강역 도보 15분, 풀옵션, 직장인 추천",201,201,서울,동작구,empty,여의대방로46길 34,201,201,201,201,601,602,603,/homeImage/201/01.jpg,/homeImage/201/02.jpg,/homeImage/201/03.jpg,201,/hostImage/81.jpg,0,1,0,0,1,1,0,0,1
6604e47d5a3bbf6a87dcfa2a,1,1,1,1,1,1,1,0,1,0,0,1,1,1,DDDGG,1,0,0,0,1,1,1,0,0,1,202,이예준,65,01061532158,F,유지우,01062175816,자녀,810421-1469381,xx-xxxxx-xxx,경남,서울 동작구 대방동 344-26,40,37.511294,126.926343,UNAUTHORIZED_MEMBER,"1호선 대방역 초초역세권, 샛강역 도보 15분, 풀옵션, 직장인 추천",202,202,서울,동작구,empty,여의대방로46길 34,202,202,202,202,604,605,606,/homeImage/202/01.jpg,/homeImage/202/02.jpg,/homeImage/202/03.jpg,202,/hostImage/82.jpg,0,1,1,1,1,1,0,0,0
6604e47d5a3bbf6a87dcfa2b,1,1,1,1,1,1,1,1,1,0,0,1,1,1,DDDGG,1,1,0,1,1,1,0,0,1,0,203,장영수,70,01008610066,M,박성수,01068132685,자녀,780704-2094083,xx-xxxxx-xxx,농협,서울 동작구 노량진동 246-34,60,37.511026,126.938933,UNAUTHORIZED_MEMBER,노량진역 초역세권 도보 3분,203,203,서울,동작구,empty,장승배기로27길 30,203,203,203,203,607,608,609,/homeImage/203/01.jpg,/homeImage/203/02.jpg,/homeImage/203/03.jpg,203,/hostImage/83.jpg,1,1,1,1,0,0,1,0,1
6604e47d5a3bbf6a87dcfa2c,1,1,1,1,1,1,1,0,1,0,1,0,1,1,OR,1,0,1,1,0,0,0,0,1,1,204,윤상철,90,01044191653,M,김상호,01083203581,자녀,180913-1031484,xx-xxxxx-xxx,우리,서울 동작구 노량진동 215-115,27,37.508692,126.947129,MEMBER,깨끗하고 조용한데 가격이 고시텔보다 저렴한 원룸,204,204,서울,동작구,empty,만양로6길 15,204,204,204,204,610,611,612,/homeImage/204/01.jpg,/homeImage/204/02.jpg,/homeImage/204/03.jpg,204,/hostImage/84.jpg,1,0,1,0,0,2,0,0,1
6604e47d5a3bbf6a87dcfa2d,1,1,1,1,1,1,1,1,1,0,1,0,1,1,OR,1,0,0,0,0,0,1,0,0,1,205,이예준,92,01051505753,M,김경희,01011818295,자녀,530104-2189328,xx-xxxxx-xxx,하나,서울 동작구 흑석동 213-1,60,37.50547,126.955937,UNAUTHORIZED_MEMBER,"중앙대 중문 30초거리 깔끔한 원룸, 젠틀 임대인 원하는거 다 들어줌",205,205,서울,동작구,empty,흑석로6길 31,205,205,205,205,613,614,615,/homeImage/205/01.jpg,/homeImage/205/02.jpg,/homeImage/205/03.jpg,205,/hostImage/85.jpg,0,0,1,0,1,1,0,0,0
6604e47d5a3bbf6a87dcfa2e,1,1,1,1,1,1,1,1,1,0,0,1,1,1,OR,0,1,0,0,0,0,0,1,1,0,206,박은정,90,01017105920,M,김서준,01078092630,자녀,500122-1533510,xx-xxxxx-xxx,농협,서울 동작구 노량진동 119-149,33,37.511573,126.945076,MEMBER,풀옵션입니다 단기가능합니다,206,206,서울,동작구,empty,만양로14길 13,206,206,206,206,616,617,618,/homeImage/206/01.jpg,/homeImage/206/02.jpg,/homeImage/206/03.jpg,206,/hostImage/86.jpg,0,0,0,0,0,0,1,1,1
6604e47d5a3bbf6a87dcfa2f,1,1,1,1,1,1,1,0,1,0,1,1,1,1,OR,0,1,1,0,0,1,0,1,1,1,207,박예지,99,01075366327,F,김미정,01031913004,자녀,840200-1710298,xx-xxxxx-xxx,토스,서울 동작구 상도동 358-7,50,37.503765,126.935998,MEMBER,7호선 역세권 풀옵션 원룸 무료주차 선착순,207,207,서울,동작구,empty,상도로19길 39,207,207,207,207,619,620,621,/homeImage/207/01.jpg,/homeImage/207/02.jpg,/homeImage/207/03.jpg,207,/hostImage/87.jpg,0,0,0,1,0,2,1,1,1
6604e47d5a3bbf6a87dcfa30,1,1,1,1,1,1,1,0,1,0,0,1,1,1,OR,1,1,1,1,1,0,0,1,1,0,208,이은경,79,01003374329,F,김현정,01087269184,자녀,290705-2893645,xx-xxxxx-xxx,카카오,서울 동작구 노량진동 127-11,35,37.512498,126.946252,MEMBER,가성비굿 위치좋고 컨디션 좋은 리모델링 귀한 매물,208,208,서울,동작구,empty,만양로14길 39,208,208,208,208,622,623,624,/homeImage/208/01.jpg,/homeImage/208/02.jpg,/homeImage/208/03.jpg,208,/hostImage/88.jpg,1,1,1,0,0,1,1,1,1
6604e47d5a3bbf6a87dcfa31,1,1,1,1,1,1,1,0,1,0,0,1,1,1,OR,0,1,0,0,0,1,0,1,1,1,209,김지아,68,01056305448,F,조예원,01043513607,자녀,610320-2220130,xx-xxxxx-xxx,산업,서울 동작구 상도1동 428-13,45,37.501948,126.950379,UNAUTHORIZED_MEMBER,2016년 사용승인 잘 관리된 넓고 깔끔한 풀옵션 대로변 편의시설 인접,209,209,서울,동작구,empty,상도로41길 22,209,209,209,209,625,626,627,/homeImage/209/01.jpg,/homeImage/209/02.jpg,/homeImage/209/03.jpg,209,/hostImage/89.jpg,0,0,0,1,0,1,1,1,1
6604e47d5a3bbf6a87dcfa32,1,1,1,1,1,1,1,0,1,0,0,0,1,1,OR,0,0,1,0,0,1,0,0,1,1,210,박진우,90,01099804344,M,박영길,01039332808,자녀,390607-2124098,xx-xxxxx-xxx,산업,서울 동작구 노량진동 220-29,34,37.509222,126.945285,MEMBER,융자없는집. 학원가3분. 가성비좋은방,210,210,서울,동작구,empty,만양로 67,210,210,210,210,628,629,630,/homeImage/210/01.jpg,/homeImage/210/02.jpg,/homeImage/210/03.jpg,210,/hostImage/90.jpg,0,0,0,1,0,2,0,0,1
6604e47d5a3bbf6a87dcfa33,1,1,1,1,1,1,1,0,1,0,0,1,1,1,OR,1,0,0,0,0,0,1,1,1,0,211,서아름,82,01062367283,M,황영미,01068220632,자녀,400706-1128893,xx-xxxxx-xxx,카카오,서울 동작구 상도동 361-141,40,37.504976,126.935138,MEMBER,장승배기역 역세권 엘베있는 초저렴 원룸,211,211,서울,동작구,empty,상도로15바길 26,211,211,211,211,631,632,633,/homeImage/211/01.jpg,/homeImage/211/02.jpg,/homeImage/211/03.jpg,211,/hostImage/91.jpg,0,0,1,0,1,0,0,1,1
6604e47d5a3bbf6a87dcfa34,1,1,1,1,1,1,1,0,1,0,0,1,1,1,OR,1,1,1,0,0,0,0,1,1,1,212,오채원,91,01020123073,M,강수빈,01095776241,자녀,510327-1178301,xx-xxxxx-xxx,하나,서울 동작구 상도동 361-101,40,37.503849,126.934701,UNAUTHORIZED_MEMBER,장승배기역 도보 5분거리 이용 가능 언제 든지 입주협의 가능 밝고환해요,212,212,서울,동작구,empty,상도로15아길 11,212,212,212,212,634,635,636,/homeImage/212/01.jpg,/homeImage/212/02.jpg,/homeImage/212/03.jpg,212,/hostImage/92.jpg,0,0,1,0,0,2,1,1,1
6604e47d5a3bbf6a87dcfa35,1,1,1,1,1,1,1,0,1,0,1,0,1,1,OR,1,0,0,0,0,0,0,1,1,0,213,김상호,80,01051429204,M,박서현,01084130648,자녀,570706-2357781,xx-xxxxx-xxx,하나,서울 동작구 상도동 243-19,45,37.500712,126.934578,MEMBER,"L신대방삼거리역, 장승배기역 도보권 극강 원룸",213,213,서울,동작구,empty,성대로29길 122,213,213,213,213,637,638,639,/homeImage/213/01.jpg,/homeImage/213/02.jpg,/homeImage/213/03.jpg,213,/hostImage/93.jpg,0,0,1,0,0,0,0,1,1
6604e47d5a3bbf6a87dcfa36,1,1,1,1,1,1,1,0,1,0,0,1,1,1,OR,1,1,0,1,0,1,1,1,1,0,214,나정자,96,01071710713,M,박상현,01064656473,자녀,090826-1294410,xx-xxxxx-xxx,우체국,서울 동작구 노량진동 119-146,48,37.511739,126.945052,MEMBER,노량진 학원가 큰 원룸 실6P 내부시설 좋음 빠른입주 가능,214,214,서울,동작구,empty,만양로16길 31,214,214,214,214,640,641,642,/homeImage/214/01.jpg,/homeImage/214/02.jpg,/homeImage/214/03.jpg,214,/hostImage/94.jpg,1,0,1,1,1,0,1,1,1
6604e47d5a3bbf6a87dcfa37,1,1,1,1,1,1,1,1,1,0,0,0,1,1,OR,0,0,1,1,1,1,0,1,0,0,215,이정호,99,01006482523,M,이서영,01007531564,자녀,270827-1703548,xx-xxxxx-xxx,전북,서울 동작구 상도1동 483-1,60,37.503738,126.951926,UNAUTHORIZED_MEMBER,중앙대5분 남학생전용 신축급컨디션 풀옵션 원룸입니다.,215,215,서울,동작구,empty,상도로47길 102,215,215,215,215,643,644,645,/homeImage/215/01.jpg,/homeImage/215/02.jpg,/homeImage/215/03.jpg,215,/hostImage/95.jpg,1,1,0,1,0,1,0,1,0
6604e47d5a3bbf6a87dcfa38,1,1,1,1,1,1,1,0,1,0,0,0,1,1,OR,1,0,0,1,0,0,1,0,1,1,216,최예진,68,01030865171,M,안상현,01069340676,자녀,990914-1694348,xx-xxxxx-xxx,기업,서울 동작구 대방동 20-48,43,37.509296,126.931714,MEMBER,대방역도보10분 리모델링완료 옵션최고 넓은원룸 가성비최고,216,216,서울,동작구,empty,여의대방로36길 101,216,216,216,216,646,647,648,/homeImage/216/01.jpg,/homeImage/216/02.jpg,/homeImage/216/03.jpg,216,/hostImage/96.jpg,1,0,1,0,1,1,0,0,1
6604e47d5a3bbf6a87dcfa39,1,1,1,1,1,1,1,0,1,0,0,1,1,1,OR,1,0,0,0,0,0,0,0,0,0,217,송유진,91,01048218553,F,한지우,01014930291,자녀,480227-2052245,xx-xxxxx-xxx,케이,서울 동작구 상도1동 428-13,45,37.501948,126.950379,UNAUTHORIZED_MEMBER,상도역 큰대로변 깔끔한 신축급 원룸,217,217,서울,동작구,empty,상도로41길 22,217,217,217,217,649,650,651,/homeImage/217/01.jpg,/homeImage/217/02.jpg,/homeImage/217/03.jpg,217,/hostImage/97.jpg,0,0,1,0,0,0,0,0,0
6604e47d5a3bbf6a87dcfa3a,1,1,1,1,1,1,1,0,1,0,0,0,1,1,OR,1,0,0,1,0,1,0,0,1,0,218,이종수,68,01058957727,F,김은영,01034388121,자녀,030507-1210534,xx-xxxxx-xxx,제주,서울 동작구 노량진동 215-108,43,37.508459,126.947545,UNAUTHORIZED_MEMBER,깔끔한 풀옵션 원룸,218,218,서울,동작구,empty,만양로6길 8,218,218,218,218,652,653,654,/homeImage/218/01.jpg,/homeImage/218/02.jpg,/homeImage/218/03.jpg,218,/hostImage/98.jpg,1,0,1,1,0,0,0,0,1
6604e47d5a3bbf6a87dcfa3b,1,1,1,1,1,1,1,1,1,0,0,0,1,1,OR,0,0,1,0,1,1,0,1,1,1,219,최영수,92,01091488155,M,박미숙,01022385996,자녀,170922-1626001,xx-xxxxx-xxx,광주,서울 동작구 상도동 464-5,60,37.500217,126.952386,UNAUTHORIZED_MEMBER,융자없고 깔끔수리된 엘베있는 풀옵션 원룸입니다.,219,219,서울,동작구,empty,상도로47나길 4,219,219,219,219,655,656,657,/homeImage/219/01.jpg,/homeImage/219/02.jpg,/homeImage/219/03.jpg,219,/hostImage/99.jpg,0,1,0,1,0,2,0,1,1
6604e47d5a3bbf6a87dcfa3c,1,1,1,1,1,1,1,0,1,0,0,0,1,1,OR,0,1,0,1,1,1,0,0,0,1,220,정서연,77,01063160453,M,박숙자,01092277103,자녀,650208-1387506,xx-xxxxx-xxx,우체국,서울 동작구 대방동 20-48,38,37.509296,126.931714,UNAUTHORIZED_MEMBER,대방역도보10분 리모델링완료 옵션최고 넓은원룸 가성비최고,220,220,서울,동작구,empty,여의대방로36길 101,220,220,220,220,658,659,660,/homeImage/220/01.jpg,/homeImage/220/02.jpg,/homeImage/220/03.jpg,220,/hostImage/100.jpg,1,1,0,1,0,1,1,0,0
6604e47d5a3bbf6a87dcfa3d,1,1,1,1,1,1,1,1,1,0,0,1,1,1,OR,1,0,1,1,1,1,1,0,1,1,221,김은주,100,01023304369,M,유정순,01090247305,자녀,600217-2686921,xx-xxxxx-xxx,하나,서울 동작구 노량진동 119-241,33,37.511688,126.943687,MEMBER,"공실, 학원가 인근,신축급 깨끗한 풀옵션 원룸",221,221,서울,동작구,empty,노량진로14나길 19,221,221,221,221,661,662,663,/homeImage/221/01.jpg,/homeImage/221/02.jpg,/homeImage/221/03.jpg,221,/hostImage/101.jpg,1,1,1,1,1,2,0,0,1
6604e47d5a3bbf6a87dcfa3e,1,1,1,1,1,1,1,0,1,0,0,0,1,1,OR,0,0,0,0,0,1,0,1,0,0,222,성지후,96,01059439242,M,이수진,01083622295,자녀,970515-2979989,xx-xxxxx-xxx,광주,서울 동작구 노량진동 205-259,37,37.511523,126.947336,UNAUTHORIZED_MEMBER,가성비최고 크기좋고 관리잘 된 풀옵션 원룸,222,222,서울,동작구,empty,만양로14사길 20,222,222,222,222,664,665,666,/homeImage/222/01.jpg,/homeImage/222/02.jpg,/homeImage/222/03.jpg,222,/hostImage/102.jpg,0,0,0,1,0,0,0,1,0
6604e47d5a3bbf6a87dcfa3f,1,1,1,1,1,1,1,0,1,0,1,1,1,1,OR,1,1,0,0,0,1,0,1,1,1,223,김정희,73,01030880256,F,김채원,01063647215,자녀,510817-2914199,xx-xxxxx-xxx,전북,서울 동작구 상도동 331-86,30,37.501755,126.932957,UNAUTHORIZED_MEMBER,"L신대방삼거리역, 장승배기역 도보권 극강 원룸",223,223,서울,동작구,empty,상도로15나길 3,223,223,223,223,667,668,669,/homeImage/223/01.jpg,/homeImage/223/02.jpg,/homeImage/223/03.jpg,223,/hostImage/103.jpg,0,0,1,1,0,1,1,1,1
6604e47d5a3bbf6a87dcfa40,1,1,1,1,1,1,1,0,1,0,1,0,1,1,OR,0,0,1,0,0,1,0,1,1,0,224,윤지영,84,01058914141,F,나하은,01052847052,자녀,700024-1238038,xx-xxxxx-xxx,씨티,서울 동작구 노량진동 215-100,30,37.508848,126.947218,MEMBER,실1층 지상층. 금액좋은방. 학원가7분. 관리잘되는집,224,224,서울,동작구,empty,만양로6길 18,224,224,224,224,670,671,672,/homeImage/224/01.jpg,/homeImage/224/02.jpg,/homeImage/224/03.jpg,224,/hostImage/104.jpg,0,0,0,1,0,1,0,1,1
6604e47d5a3bbf6a87dcfa41,1,1,1,1,1,1,1,0,1,0,1,0,1,1,OR,0,1,1,0,0,0,0,0,1,1,225,남춘자,81,01081341906,F,손은경,01083239044,자녀,700701-2924956,xx-xxxxx-xxx,수협,서울 동작구 노량진동 219-34,44,37.508563,126.946556,UNAUTHORIZED_MEMBER,실제면적 훨씬 넓고 앞이 틔여있어 채광좋고 깨끗한 도시형생활주택,225,225,서울,동작구,empty,만양로 51,225,225,225,225,673,674,675,/homeImage/225/01.jpg,/homeImage/225/02.jpg,/homeImage/225/03.jpg,225,/hostImage/105.jpg,0,0,0,0,0,2,1,0,1
6604e47d5a3bbf6a87dcfa42,1,1,1,1,1,1,1,1,1,0,0,0,1,1,DDDGG,1,1,1,0,1,0,1,0,1,0,226,고서연,81,01029314494,F,손보람,01080625427,자녀,580707-2434272,xx-xxxxx-xxx,대구,서울 동작구 대방동 20-48,38,37.509296,126.931714,UNAUTHORIZED_MEMBER,대방역도보10분 리모델링완료 옵션최고 넓은원룸 가성비최고,226,226,서울,동작구,empty,여의대방로36길 101,226,226,226,226,676,677,678,/homeImage/226/01.jpg,/homeImage/226/02.jpg,/homeImage/226/03.jpg,226,/hostImage/106.jpg,0,1,1,0,1,1,1,0,1
6604e47d5a3bbf6a87dcfa43,1,1,1,1,1,1,1,0,1,0,1,0,1,1,OR,1,1,0,1,1,0,0,1,1,0,227,박지아,90,01015461415,M,유현숙,01037749236,자녀,190023-1348819,xx-xxxxx-xxx,SC제일,서울 동작구 노량진동 215-115,45,37.508692,126.947129,MEMBER,방크고  깨끗하며 채광좋고 조용한  원룸,227,227,서울,동작구,empty,만양로6길 15,227,227,227,227,679,680,681,/homeImage/227/01.jpg,/homeImage/227/02.jpg,/homeImage/227/03.jpg,227,/hostImage/107.jpg,1,1,1,0,0,0,1,1,1
6604e47d5a3bbf6a87dcfa44,1,1,1,1,1,1,1,0,1,0,0,0,1,1,OR,1,1,1,0,1,0,1,1,0,0,228,이지우,99,01073676009,F,박지연,01004559944,자녀,610328-2342316,xx-xxxxx-xxx,대구,서울 동작구 대방동 20-48,43,37.509296,126.931714,MEMBER,돌침대옵션 리모델링 사이즈좋은 원룸 즉시입주,228,228,서울,동작구,empty,여의대방로36길 101,228,228,228,228,682,683,684,/homeImage/228/01.jpg,/homeImage/228/02.jpg,/homeImage/228/03.jpg,228,/hostImage/108.jpg,0,1,1,0,1,1,1,1,0
6604e47d5a3bbf6a87dcfa45,1,1,1,1,1,1,1,0,1,0,0,1,1,1,OR,1,1,0,0,1,0,0,0,0,0,229,김영식,80,01077078256,M,김서윤,01010660123,자녀,470925-1628130,xx-xxxxx-xxx,수협,서울 동작구 상도1동 696,45,37.504099,126.948156,MEMBER,상도역1분.관리인상주해 안전.채광좋아요.안심대로변,229,229,서울,동작구,empty,상도로 265,229,229,229,229,685,686,687,/homeImage/229/01.jpg,/homeImage/229/02.jpg,/homeImage/229/03.jpg,229,/hostImage/109.jpg,0,1,1,0,0,0,1,0,0
6604e47d5a3bbf6a87dcfa46,1,1,1,1,1,1,1,0,1,0,0,0,1,1,OR,0,1,1,1,0,0,0,1,1,0,230,안준서,71,01021007754,M,박정남,01019310518,자녀,740116-2138763,xx-xxxxx-xxx,농협,서울 동작구 대방동 20-89,43,37.509193,126.931516,MEMBER,따뜻하고 조용한 방,230,230,서울,동작구,empty,여의대방로36길 101,230,230,230,230,688,689,690,/homeImage/230/01.jpg,/homeImage/230/02.jpg,/homeImage/230/03.jpg,230,/hostImage/110.jpg,1,0,0,0,0,1,1,1,1
6604e47d5a3bbf6a87dcfa47,1,1,1,1,1,1,1,0,1,0,0,1,1,1,OR,0,0,0,1,0,1,0,1,1,1,231,이민지,93,01046197760,M,송순자,01005887136,자녀,580419-2777113,xx-xxxxx-xxx,광주,서울 동작구 상도1동 428-13,45,37.501948,126.950379,UNAUTHORIZED_MEMBER,단기가능.상도역신축원룸. 안전한 대로변. 중대.숭대 통학가능.,231,231,서울,동작구,empty,상도로41길 22,231,231,231,231,691,692,693,/homeImage/231/01.jpg,/homeImage/231/02.jpg,/homeImage/231/03.jpg,231,/hostImage/111.jpg,1,0,0,1,0,1,0,1,1
6604e47d5a3bbf6a87dcfa48,1,1,1,1,1,1,1,0,1,0,0,0,1,1,OR,1,0,1,0,0,1,1,0,1,1,232,김수민,65,01027223418,F,김재호,01023089815,자녀,490503-2374468,xx-xxxxx-xxx,경남,서울 동작구 노량진동 220-11,45,37.508982,126.945225,UNAUTHORIZED_MEMBER,실2층 베란다있는방. 신축급컨디션. 관리잘되는집. 채광좋은집,232,232,서울,동작구,empty,만양로13길 37,232,232,232,232,694,695,696,/homeImage/232/01.jpg,/homeImage/232/02.jpg,/homeImage/232/03.jpg,232,/hostImage/112.jpg,0,0,1,1,1,2,0,0,1
6604e47d5a3bbf6a87dcfa49,1,1,1,1,1,1,1,0,1,0,0,0,1,1,OR,0,0,0,1,1,0,0,1,0,1,233,류현지,70,01084157293,M,박광수,01037443825,자녀,860610-2492700,xx-xxxxx-xxx,국민,서울 동작구 노량진동 123-43,38,37.510443,126.945963,MEMBER,종일 햇살이 들어오는 노량진에서 보기 드문  가성비 좋은 정남향 원룸,233,233,서울,동작구,empty,만양로8길 64,233,233,233,233,697,698,699,/homeImage/233/01.jpg,/homeImage/233/02.jpg,/homeImage/233/03.jpg,233,/hostImage/113.jpg,1,1,0,0,0,1,0,1,0
6604e47d5a3bbf6a87dcfa4a,1,1,1,1,1,1,1,1,1,0,0,1,1,1,OR,1,1,0,1,0,0,1,0,0,1,234,김순자,93,01043603528,M,박예지,01078056468,자녀,920215-2353481,xx-xxxxx-xxx,신한,서울 동작구 대방동 391-23,40,37.501686,126.927859,MEMBER,대출가능 가성비끝판왕 초저렴신축원룸,234,234,서울,동작구,empty,대방동길 21,234,234,234,234,700,701,702,/homeImage/234/01.jpg,/homeImage/234/02.jpg,/homeImage/234/03.jpg,234,/hostImage/114.jpg,1,0,1,0,1,1,1,0,0
6604e47d5a3bbf6a87dcfa4b,1,1,1,1,1,1,1,1,1,0,0,1,1,1,OR,0,1,0,1,0,0,1,1,0,0,235,김서연,88,01046942109,M,김정남,01079635767,자녀,530920-2975063,xx-xxxxx-xxx,SC제일,서울 동작구 상도1동 732,40,37.50259,126.947235,UNAUTHORIZED_MEMBER,상도역초역세권 보면 바로 계약가능 저렴한 신축분리형,235,235,서울,동작구,empty,상도로38나길 14,235,235,235,235,703,704,705,/homeImage/235/01.jpg,/homeImage/235/02.jpg,/homeImage/235/03.jpg,235,/hostImage/115.jpg,1,0,0,0,1,0,1,1,0
6604e47d5a3bbf6a87dcfa4c,1,1,1,1,1,1,1,1,1,0,0,0,1,1,OR,0,0,1,0,0,1,1,0,1,1,236,박영길,65,01034539861,F,장준호,01010598764,자녀,100004-1127356,xx-xxxxx-xxx,기업,서울 동작구 상도1동 312-2,35,37.500551,126.952351,MEMBER,안심대로변 상도역가까운 가성비원룸,236,236,서울,동작구,empty,상도로47길 32,236,236,236,236,706,707,708,/homeImage/236/01.jpg,/homeImage/236/02.jpg,/homeImage/236/03.jpg,236,/hostImage/116.jpg,0,0,0,1,1,2,0,0,1
6604e47d5a3bbf6a87dcfa4d,1,1,1,1,1,1,1,0,1,0,0,1,1,1,OR,1,1,0,1,0,1,0,1,1,0,237,엄준호,74,01070878056,M,이명숙,01089154663,자녀,380507-2868417,xx-xxxxx-xxx,대구,서울 동작구 상도1동 732,50,37.50259,126.947235,MEMBER,상도역1분.신축넓은분리형.위치좋아안전.집주인거주,237,237,서울,동작구,empty,상도로38나길 14,237,237,237,237,709,710,711,/homeImage/237/01.jpg,/homeImage/237/02.jpg,/homeImage/237/03.jpg,237,/hostImage/117.jpg,1,0,1,1,0,0,1,1,1
6604e47d5a3bbf6a87dcfa4e,1,1,1,1,1,1,1,1,1,0,1,1,1,1,OR,0,0,1,1,1,1,1,0,1,0,238,김영철,80,01052957068,M,송서현,01047531419,자녀,920824-2420405,xx-xxxxx-xxx,케이,서울 동작구 상도1동 426-1,45,37.501511,126.950602,UNAUTHORIZED_MEMBER,"중앙대,숭실대 깔끔한 반지층 풀옵션 원룸",238,238,서울,동작구,empty,상도로47가길 38,238,238,238,238,712,713,714,/homeImage/238/01.jpg,/homeImage/238/02.jpg,/homeImage/238/03.jpg,238,/hostImage/118.jpg,1,1,0,1,1,1,0,0,1
6604e47d5a3bbf6a87dcfa4f,1,1,1,1,1,1,1,1,1,0,1,1,1,1,OR,0,0,1,0,0,0,1,1,0,1,239,김성진,74,01053903823,F,한수진,01034285558,자녀,990900-2363439,xx-xxxxx-xxx,국민,서울 동작구 상도동 22-52,45,37.506346,126.946436,MEMBER,풀옵션원룸 빠른입주가능,239,239,서울,동작구,empty,만양로1길 15,239,239,239,239,715,716,717,/homeImage/239/01.jpg,/homeImage/239/02.jpg,/homeImage/239/03.jpg,239,/hostImage/119.jpg,0,0,0,0,1,2,0,1,0
6604e47d5a3bbf6a87dcfa50,1,1,1,1,1,1,1,0,1,0,1,1,1,1,OR,1,0,0,0,1,1,1,1,1,1,240,김지은,92,01072727949,F,김정남,01057222750,자녀,280910-1760537,xx-xxxxx-xxx,전북,서울 동작구 상도동 356-140,45,37.502288,126.933696,MEMBER,채광좋은 깔끔한 원룸 전세가능 주차가능,240,240,서울,동작구,empty,상도로15길 33,240,240,240,240,718,719,720,/homeImage/240/01.jpg,/homeImage/240/02.jpg,/homeImage/240/03.jpg,240,/hostImage/120.jpg,0,1,1,1,1,1,0,1,1
6604e47d5a3bbf6a87dcfa51,1,1,1,1,1,1,1,0,1,0,1,0,1,1,OR,1,0,1,1,1,1,1,0,1,1,241,최영자,73,01014929640,F,손유진,01097394727,자녀,360122-1402893,xx-xxxxx-xxx,제주,서울 동작구 대방동 20-87,40,37.509329,126.931514,MEMBER,"집앞이 마을버스 정류장, 월세가 저렴한 집,",241,241,서울,동작구,empty,여의대방로36길 101,241,241,241,241,721,722,723,/homeImage/241/01.jpg,/homeImage/241/02.jpg,/homeImage/241/03.jpg,241,/hostImage/1.jpg,1,1,1,1,1,2,0,0,1
6604e47d5a3bbf6a87dcfa52,1,1,1,1,1,1,1,0,1,0,1,0,1,1,OR,1,1,1,0,0,1,1,0,1,0,242,오현숙,81,01089351290,M,박우진,01031505710,자녀,820009-2396593,xx-xxxxx-xxx,토스,서울 동작구 대방동 20-48,38,37.509296,126.931714,UNAUTHORIZED_MEMBER,"넓은 원룸, 침대있음,  상태 아주깨끗하고  저렴",242,242,서울,동작구,empty,여의대방로36길 101,242,242,242,242,724,725,726,/homeImage/242/01.jpg,/homeImage/242/02.jpg,/homeImage/242/03.jpg,242,/hostImage/2.jpg,0,0,1,1,1,1,1,0,1
6604e47d5a3bbf6a87dcfa53,1,1,1,1,1,1,1,0,1,0,1,0,1,1,OR,0,1,0,1,1,0,1,0,0,1,243,이경자,76,01072280295,F,윤은지,01094617604,자녀,290409-1783133,xx-xxxxx-xxx,토스,서울 동작구 대방동 17-39,50,37.509138,126.93186,UNAUTHORIZED_MEMBER,역세권신축급의 채광조은 큰 방,243,243,서울,동작구,empty,등용로9길 1,243,243,243,243,727,728,729,/homeImage/243/01.jpg,/homeImage/243/02.jpg,/homeImage/243/03.jpg,243,/hostImage/3.jpg,1,1,0,0,1,1,1,0,0
6604e47d5a3bbf6a87dcfa54,1,1,1,1,1,1,1,0,1,0,1,1,1,1,OR,1,1,1,1,1,1,0,0,1,1,244,송영희,65,01092017356,M,김건우,01061700964,자녀,990503-1420395,xx-xxxxx-xxx,기업,서울 동작구 노량진동 270,40,37.512297,126.935181,MEMBER,햇살맛집넉넉한평수깔끔한내실,244,244,서울,동작구,empty,등용로14길 66,244,244,244,244,730,731,732,/homeImage/244/01.jpg,/homeImage/244/02.jpg,/homeImage/244/03.jpg,244,/hostImage/4.jpg,1,1,1,1,0,2,1,0,1
6604e47d5a3bbf6a87dcfa55,1,1,1,1,1,1,1,0,1,0,1,0,1,1,OR,0,1,1,0,1,0,0,1,1,1,245,이정호,67,01073191254,M,박현정,01043381095,자녀,070623-2869419,xx-xxxxx-xxx,전북,서울 동작구 대방동 20-87,40,37.509329,126.931514,MEMBER,역세권 신축급의 햇살조은 깔끔한 원룸,245,245,서울,동작구,empty,여의대방로36길 101,245,245,245,245,733,734,735,/homeImage/245/01.jpg,/homeImage/245/02.jpg,/homeImage/245/03.jpg,245,/hostImage/5.jpg,0,1,0,0,0,2,1,1,1
6604e47d5a3bbf6a87dcfa56,1,1,1,1,1,1,1,0,1,0,0,0,1,1,OR,0,0,0,1,1,1,0,0,1,1,246,고현주,70,01056654069,M,김도현,01051752620,자녀,340907-1523795,xx-xxxxx-xxx,제주,서울 동작구 대방동 20-48,43,37.509296,126.931714,UNAUTHORIZED_MEMBER,"넓은방 아주 깨끗함, 바로 입주, 침대도 있음",246,246,서울,동작구,empty,여의대방로36길 101,246,246,246,246,736,737,738,/homeImage/246/01.jpg,/homeImage/246/02.jpg,/homeImage/246/03.jpg,246,/hostImage/6.jpg,1,1,0,1,0,1,0,0,1
6604e47d5a3bbf6a87dcfa57,1,1,1,1,1,1,1,0,1,0,1,0,1,1,OR,0,0,1,0,0,1,0,1,0,1,247,고명숙,77,01041054902,F,이영미,01007157318,자녀,140216-2288224,xx-xxxxx-xxx,경남,서울 동작구 노량진동 206-8,45,37.512176,126.946913,MEMBER,깔끔하고 학원가에 인접한 원룸입니다,247,247,서울,동작구,empty,만양로14바길 5,247,247,247,247,739,740,741,/homeImage/247/01.jpg,/homeImage/247/02.jpg,/homeImage/247/03.jpg,247,/hostImage/7.jpg,0,0,0,1,0,2,0,1,0
6604e47d5a3bbf6a87dcfa58,0,1,1,0,1,1,0,1,1,0,1,0,1,0,OR,1,0,0,1,1,1,0,0,0,0,248,류은정,78,01018951169,M,류정희,01053003323,자녀,810713-2515419,xx-xxxxx-xxx,부산,서울 동작구 대방동 391-80,30,37.502483,126.924278,UNAUTHORIZED_MEMBER,empty,248,248,서울,동작구,empty,대방동27길 61,248,248,248,248,742,743,744,/homeImage/248/01.jpg,/homeImage/248/02.jpg,/homeImage/248/03.jpg,248,/hostImage/8.jpg,1,1,1,1,0,0,0,0,0
6604e47d5a3bbf6a87dcfa59,1,1,0,0,0,0,1,0,0,0,1,1,0,0,OR,1,0,0,1,1,0,0,1,0,1,249,김정숙,79,01085684302,M,최지후,01053131556,자녀,640912-2019228,xx-xxxxx-xxx,산업,서울 동작구 대방동 392-4,40,37.502583,126.927677,MEMBER,empty,249,249,서울,동작구,empty,대방동2길 33,249,249,249,249,745,746,747,/homeImage/249/01.jpg,/homeImage/249/02.jpg,/homeImage/249/03.jpg,249,/hostImage/9.jpg,1,1,1,0,0,1,0,1,0
6604e47d5a3bbf6a87dcfa5a,1,1,0,1,1,0,1,0,1,1,1,0,1,1,OR,1,0,0,0,1,1,1,1,1,0,250,박현주,79,01073607173,F,안영자,01015570287,자녀,220204-1356306,xx-xxxxx-xxx,국민,서울 동작구 대방동 391-245,35,37.502724,126.924984,MEMBER,empty,250,250,서울,동작구,empty,대방동15길 5,250,250,250,250,748,749,750,/homeImage/250/01.jpg,/homeImage/250/02.jpg,/homeImage/250/03.jpg,250,/hostImage/10.jpg,0,1,1,1,1,0,0,1,1
6604e47d5a3bbf6a87dcfa5b,1,0,1,0,0,0,1,1,0,1,1,1,1,0,OR,1,0,1,1,0,1,0,0,1,1,251,김성민,91,01042451085,M,이은경,01063193303,자녀,990200-1650575,xx-xxxxx-xxx,부산,서울 동작구 대방동 391-540,35,37.501324,126.927407,UNAUTHORIZED_MEMBER,empty,251,251,서울,동작구,empty,대방동5길 4,251,251,251,251,751,752,753,/homeImage/251/01.jpg,/homeImage/251/02.jpg,/homeImage/251/03.jpg,251,/hostImage/11.jpg,1,0,1,1,0,2,0,0,1
6604e47d5a3bbf6a87dcfa5c,1,1,1,1,1,1,1,0,1,0,0,1,1,1,DDDGG,1,1,0,0,0,1,0,1,1,0,252,이건우,80,01069729831,M,노예원,01088510829,자녀,080700-2314049,xx-xxxxx-xxx,광주,서울 동작구 대방동 391-152,45,37.501173,126.925904,UNAUTHORIZED_MEMBER,초역세권 합리적인 금액에 좋은 컨디션을 보여주는 원룸 소개해드립니다,252,252,서울,동작구,empty,대방동3길 29,252,252,252,252,754,755,756,/homeImage/252/01.jpg,/homeImage/252/02.jpg,/homeImage/252/03.jpg,252,/hostImage/12.jpg,0,0,1,1,0,0,1,1,1
6604e47d5a3bbf6a87dcfa5d,1,1,1,1,1,1,1,1,1,0,0,1,1,1,DDDGG,0,0,0,1,0,0,0,0,1,1,253,김준서,89,01021041203,F,이건우,01010329991,자녀,260207-2107505,xx-xxxxx-xxx,수협,서울 동작구 상도동 248-24,40,37.500373,126.933337,MEMBER,채광 좋은 가성비 꿀 매물,253,253,서울,동작구,empty,성대로3길 17,253,253,253,253,757,758,759,/homeImage/253/01.jpg,/homeImage/253/02.jpg,/homeImage/253/03.jpg,253,/hostImage/13.jpg,1,0,0,0,0,1,0,0,1
