_id,internet,gas,washing_machine,air_conditioner,refrigerator,elevator,microwave,breakfast,toilet,heating,parking,station,move_in_date,sink,type,smoke,pet,clean,daytime,nighttime,extrovert,introvert,cold,hot,no_touch,home_no,host_name,host_age,host_phone,host_gender,guardian_name,guardian_phone,relation,host_register_no,host_account_no,host_bank,address,rent,lat,lng,register_member_role,introduce,host_personality_no,home_option_no,si,sgg,emd,ro,home_image_no,home_image[0].home_no,home_image[1].home_no,home_image[2].home_no,home_image[0].home_image_no,home_image[1].home_image_no,home_image[2].home_image_no,home_image[0].home_image_url,home_image[1].home_image_url,home_image[2].home_image_url,host_image_no,host_image_url,host_vector.day_element,host_vector.night_element,host_vector.smoke_element,host_vector.extro_element,host_vector.intro_element,host_vector.mannered_element,host_vector.pet_lover_element,host_vector.cold_element,host_vector.hot_element
66066d4312efd3b938d7dbcb,1,1,1,1,1,1,1,0,1,0,0,1,1,1,OR,0,1,1,1,0,1,1,1,0,0,1,최정수,99,01060389824,M,오현주,01001525369,자녀,950924-1710782,xx-xxxxx-xxx,부산,서울 성동구 성수동1가 7-3,70,37.548342,127.046468,USER,"뚝섬역 도보 3분, 컨디션 좋은 풀옵션 원룸",1,1,서울,성동구,empty,왕십리로14길 28,1,1,1,1,1,2,3,/homeImage/1/01.jpg,/homeImage/1/02.jpg,/homeImage/1/03.jpg,1,/hostImage/1.jpg,1,0,0,1,1,1,1,1,0
66066d4312efd3b938d7dbcc,1,1,1,1,1,1,1,1,1,0,1,0,1,1,VL,0,0,0,1,1,1,0,1,1,0,2,김하윤,95,01005503458,F,황채원,01027647732,자녀,240209-1416426,xx-xxxxx-xxx,토스,서울 성동구 응봉동 265-96,35,37.552341,127.029985,USER,올수리 깨끗함,2,2,서울,성동구,empty,독서당로59가길 27,2,2,2,2,4,5,6,/homeImage/2/01.jpg,/homeImage/2/02.jpg,/homeImage/2/03.jpg,2,/hostImage/2.jpg,1,1,0,1,0,0,0,1,1
66066d4312efd3b938d7dbcd,1,1,1,1,1,1,1,0,1,0,0,1,1,1,OR,1,1,1,1,0,1,1,0,0,1,3,김시우,70,01009585067,M,강현정,01009230396,자녀,340214-1978397,xx-xxxxx-xxx,농협,서울 성동구 용답동 24-13,50,37.561471,127.054653,UNAUTHORIZED_MEMBER,풀옵션의 깔끔한 분리형 원룸 더블 역세권으로 교통편리,3,3,서울,성동구,empty,용답25길 4,3,3,3,3,7,8,9,/homeImage/3/01.jpg,/homeImage/3/02.jpg,/homeImage/3/03.jpg,3,/hostImage/3.jpg,1,0,1,1,1,2,1,0,0
66066d4312efd3b938d7dbce,1,1,1,1,1,1,1,0,1,0,0,1,1,1,OR,0,0,0,1,0,0,1,0,0,0,4,장예준,79,01099460148,M,이광수,01027648174,자녀,280226-2795790,xx-xxxxx-xxx,케이,서울 성동구 용답동 24-13,25,37.561471,127.054653,USER,풀옵션의 깔끔한 분리형 원룸 더블 역세권으로 교통편리,4,4,서울,성동구,empty,용답25길 4,4,4,4,4,10,11,12,/homeImage/4/01.jpg,/homeImage/4/02.jpg,/homeImage/4/03.jpg,4,/hostImage/4.jpg,1,0,0,0,1,0,0,0,0
66066d4312efd3b938d7dbcf,1,1,1,1,1,1,1,0,1,0,1,0,1,1,DDDGG,0,1,0,1,1,1,1,0,1,1,5,이지혜,72,01093032589,M,이정남,01010669830,자녀,690314-1788223,xx-xxxxx-xxx,우리,서울 성동구 성수동2가 566-27,60,37.537809,127.055521,USER,투룸. 풀옵션. 수리된. 컨디션우수,5,5,서울,성동구,empty,성덕정17길 4,5,5,5,5,13,14,15,/homeImage/5/01.jpg,/homeImage/5/02.jpg,/homeImage/5/03.jpg,5,/hostImage/5.jpg,1,1,0,1,1,1,1,0,1
66066d4312efd3b938d7dbd0,1,1,1,1,1,1,1,0,1,0,0,1,1,1,DDDGG,0,0,0,0,0,0,0,1,1,0,6,이경희,86,01067109903,M,김서연,01017777908,자녀,290115-2668509,xx-xxxxx-xxx,대구,서울 성동구 성수동2가 301-27,60,37.544543,127.050563,USER,"내부컨디션 깔끔한 분리형 원룸, 풀옵션",6,6,서울,성동구,성수동2가,empty,6,6,6,6,16,17,18,/homeImage/6/01.jpg,/homeImage/6/02.jpg,/homeImage/6/03.jpg,6,/hostImage/6.jpg,0,0,0,0,0,0,0,1,1
66066d4312efd3b938d7dbd1,1,1,1,1,1,1,1,0,1,0,0,1,1,1,DDDGG,0,0,0,1,0,0,0,1,1,0,7,윤은지,90,01096413625,M,최병철,01038268658,자녀,580510-1385258,xx-xxxxx-xxx,대구,서울 성동구 성수동1가 7-3,70,37.548342,127.046468,USER,뚝섬역 초역세권 분리형 원룸 풀옵션,7,7,서울,성동구,empty,왕십리로14길 28,7,7,7,7,19,20,21,/homeImage/7/01.jpg,/homeImage/7/02.jpg,/homeImage/7/03.jpg,7,/hostImage/7.jpg,1,0,0,0,0,0,0,1,1
66066d4312efd3b938d7dbd2,1,1,1,1,1,1,1,0,1,0,0,1,1,1,DDDGG,0,1,0,1,1,0,0,1,1,0,8,이수빈,85,01022261966,M,박민서,01053296469,자녀,320107-1361223,xx-xxxxx-xxx,SC제일,서울 성동구 성수동1가 656-342,55,37.551234,127.045418,USER,"뚝섬역7분거리, 3층, 오픈형원룸, 풀옵션,4월14일이후,직장인,한양대생",8,8,서울,성동구,성수동1가,empty,8,8,8,8,22,23,24,/homeImage/8/01.jpg,/homeImage/8/02.jpg,/homeImage/8/03.jpg,8,/hostImage/8.jpg,1,1,0,0,0,0,1,1,1
66066d4312efd3b938d7dbd3,1,1,1,1,1,1,1,0,1,0,1,1,1,1,OR,1,0,1,1,1,1,1,1,0,1,9,이승현,79,01096672104,M,송민서,01062841209,자녀,050105-2849901,xx-xxxxx-xxx,광주,서울 성동구 성수동1가 656-1010,70,37.542166,127.047105,USER,서울숲 맞은편 새촌 저렴한 월세 분당선 이용편리 더블역세권,9,9,서울,성동구,empty,성수일로1길 16,9,9,9,9,25,26,27,/homeImage/9/01.jpg,/homeImage/9/02.jpg,/homeImage/9/03.jpg,9,/hostImage/9.jpg,1,1,1,1,1,2,0,1,0
66066d4312efd3b938d7dbd4,1,1,1,1,1,1,1,0,1,0,0,1,1,1,DDDGG,1,0,0,1,0,1,0,1,1,0,10,최상훈,86,01004717720,M,허수빈,01070092763,자녀,680224-1964216,xx-xxxxx-xxx,우리,서울 성동구 성수동1가 656-827,55,37.548281,127.046287,UNAUTHORIZED_MEMBER,"뚝섬역 초역세권, 수리되어 깨끗한집, 방2개, 도배장판완료",10,10,서울,성동구,empty,왕십리로14길 26,10,10,10,10,28,29,30,/homeImage/10/01.jpg,/homeImage/10/02.jpg,/homeImage/10/03.jpg,10,/hostImage/10.jpg,1,0,1,1,0,0,0,1,1
66066d4312efd3b938d7dbd5,1,1,1,1,1,1,1,0,1,0,0,1,1,1,DDDGG,1,0,1,1,1,0,0,0,1,0,11,송영숙,82,01090657036,M,이성진,01049652113,자녀,980727-1443167,xx-xxxxx-xxx,씨티,서울 성동구 성수동1가 656-342,55,37.551234,127.045418,UNAUTHORIZED_MEMBER,내부 넓고 깨끗한 풀옵션 원룸,11,11,서울,성동구,성수동1가,empty,11,11,11,11,31,32,33,/homeImage/11/01.jpg,/homeImage/11/02.jpg,/homeImage/11/03.jpg,11,/hostImage/11.jpg,1,1,1,0,0,1,0,0,1
66066d4312efd3b938d7dbd6,1,1,1,1,1,1,1,0,1,0,0,0,1,1,OR,1,0,0,0,0,0,1,0,1,1,12,서영식,72,01082509215,M,김현숙,01072952203,자녀,360313-2758263,xx-xxxxx-xxx,수협,서울 성동구 성수동2가 396,50,37.536861,127.050765,UNAUTHORIZED_MEMBER,"성수동 저렴한 월세, 넓직한 원룸, 주방 분리형 원룸",12,12,서울,성동구,empty,둘레9길 10,12,12,12,12,34,35,36,/homeImage/12/01.jpg,/homeImage/12/02.jpg,/homeImage/12/03.jpg,12,/hostImage/12.jpg,0,0,1,0,1,1,0,0,1
66066d4312efd3b938d7dbd7,1,1,1,1,1,1,1,0,1,0,0,1,1,1,OR,0,0,0,1,0,0,0,0,1,0,13,배은정,100,01056527092,F,박영식,01097502741,자녀,630309-2046746,xx-xxxxx-xxx,씨티,서울 성동구 성수동1가 656-342,55,37.551234,127.045418,UNAUTHORIZED_MEMBER,내부 넓고 깨끗한 풀옵션 원룸 밝은 집,13,13,서울,성동구,성수동1가,empty,13,13,13,13,37,38,39,/homeImage/13/01.jpg,/homeImage/13/02.jpg,/homeImage/13/03.jpg,13,/hostImage/13.jpg,1,0,0,0,0,0,0,0,1
66066d4312efd3b938d7dbd8,1,1,1,1,1,1,1,0,1,0,0,1,1,1,OR,0,0,0,1,1,1,0,0,0,1,14,엄예준,75,01086682695,M,김성현,01036632926,자녀,790424-2559898,xx-xxxxx-xxx,씨티,서울 성동구 마장동 388-25,60,37.562444,127.042052,USER,채광되는 미니멀 투룸,14,14,서울,성동구,empty,마조로12길 1,14,14,14,14,40,41,42,/homeImage/14/01.jpg,/homeImage/14/02.jpg,/homeImage/14/03.jpg,14,/hostImage/14.jpg,1,1,0,1,0,1,0,0,0
66066d4312efd3b938d7dbd9,1,1,1,1,1,1,1,1,1,0,1,0,1,1,VL,0,0,1,0,1,0,0,1,1,0,15,권현숙,84,01047094271,M,황영수,01041066784,자녀,780716-2304850,xx-xxxxx-xxx,국민,서울 성동구 응봉동 265-96,35,37.552341,127.029985,UNAUTHORIZED_MEMBER,올수리 깨끗,15,15,서울,성동구,empty,독서당로59가길 27,15,15,15,15,43,44,45,/homeImage/15/01.jpg,/homeImage/15/02.jpg,/homeImage/15/03.jpg,15,/hostImage/15.jpg,0,1,0,0,0,1,0,1,1
66066d4312efd3b938d7dbda,1,1,1,1,1,1,1,0,1,0,0,0,1,1,OR,0,0,0,1,1,1,1,0,1,1,16,박미영,78,01059350445,M,이종수,01056284612,자녀,080401-2767587,xx-xxxxx-xxx,SC제일,서울 성동구 성수동2가 576-2,55,37.536906,127.055638,USER,"사진O 성수동 엘베O 풀옵션 원룸형,실5",16,16,서울,성동구,empty,둘레15길 24,16,16,16,16,46,47,48,/homeImage/16/01.jpg,/homeImage/16/02.jpg,/homeImage/16/03.jpg,16,/hostImage/16.jpg,1,1,0,1,1,1,0,0,1
66066d4312efd3b938d7dbdb,1,1,1,1,1,1,1,1,1,0,0,1,1,1,DDDGG,1,1,0,1,1,0,1,0,0,0,17,이도현,82,01056496121,F,양준서,01005199701,자녀,430605-1773469,xx-xxxxx-xxx,산업,서울 성동구 행당동 70-23,55,37.556268,127.041601,USER,"한양대정문 도보 3분, 리모델링 컨디션 좋음, 주택가 위치 조용합니다.",17,17,서울,성동구,empty,살곶이4길 8,17,17,17,17,49,50,51,/homeImage/17/01.jpg,/homeImage/17/02.jpg,/homeImage/17/03.jpg,17,/hostImage/17.jpg,1,1,1,0,1,0,1,0,0
66066d4312efd3b938d7dbdc,1,1,1,1,1,1,1,1,1,0,0,1,1,1,OR,1,1,1,0,1,1,1,1,0,1,18,오지혜,89,01064813134,F,박지민,01062617077,자녀,760205-2312576,xx-xxxxx-xxx,신한,서울 성동구 행당동 20-17,45,37.558331,127.040211,UNAUTHORIZED_MEMBER,왕십리역 역세권 한양대인접 풀옵션원룸 즉시입주,18,18,서울,성동구,empty,마조로1길 2,18,18,18,18,52,53,54,/homeImage/18/01.jpg,/homeImage/18/02.jpg,/homeImage/18/03.jpg,18,/hostImage/18.jpg,0,1,1,1,1,2,1,1,0
66066d4312efd3b938d7dbdd,1,1,1,1,1,1,1,0,1,0,0,0,1,1,DDDGG,0,1,1,0,0,1,1,1,1,1,19,고도윤,89,01038047237,M,김현정,01068829272,자녀,270015-2989940,xx-xxxxx-xxx,우체국,서울 성동구 성수동2가 566-27,60,37.537809,127.055521,USER,즉시입주. 수리된 2룸 월세,19,19,서울,성동구,empty,성덕정17길 4,19,19,19,19,55,56,57,/homeImage/19/01.jpg,/homeImage/19/02.jpg,/homeImage/19/03.jpg,19,/hostImage/19.jpg,0,0,0,1,1,2,1,1,1
66066d4312efd3b938d7dbde,1,1,1,1,1,1,1,1,1,0,0,1,1,1,OR,0,0,0,1,0,1,1,0,0,1,20,우미영,86,01040989412,F,박순자,01023010403,자녀,110426-2007032,xx-xxxxx-xxx,케이,서울 성동구 마장동 797-7,35,37.563771,127.039048,USER,왕십리역 도보5분거리 조용한 원룸입니다.,20,20,서울,성동구,empty,마조로15길 24,20,20,20,20,58,59,60,/homeImage/20/01.jpg,/homeImage/20/02.jpg,/homeImage/20/03.jpg,20,/hostImage/20.jpg,1,0,0,1,1,1,0,0,0
66066d4312efd3b938d7dbdf,1,1,1,1,1,1,1,1,1,0,0,1,1,1,OPST,1,1,0,1,0,1,1,0,0,1,21,최지은,99,01082226096,M,이건우,01057814885,자녀,190705-2348307,xx-xxxxx-xxx,제주,서울 성동구 마장동 777-3,60,37.567407,127.045813,USER,대로변 초역세권 복층 오피스텔,21,21,서울,성동구,empty,마장로46길 4,21,21,21,21,61,62,63,/homeImage/21/01.jpg,/homeImage/21/02.jpg,/homeImage/21/03.jpg,21,/hostImage/21.jpg,1,0,1,1,1,1,1,0,0
66066d4312efd3b938d7dbe0,1,1,1,1,1,1,1,0,1,0,1,1,1,1,OR,1,0,1,1,1,0,1,1,1,0,22,박진호,71,01095717142,F,김미영,01059442615,자녀,530114-1299542,xx-xxxxx-xxx,SC제일,서울 성동구 하왕십리동 956-2,66,37.563635,127.030671,UNAUTHORIZED_MEMBER,5월입주 대로변 엘베O 고층뷰 전입x 레지던스,22,22,서울,성동구,empty,왕십리로 353,22,22,22,22,64,65,66,/homeImage/22/01.jpg,/homeImage/22/02.jpg,/homeImage/22/03.jpg,22,/hostImage/22.jpg,1,1,1,0,1,1,0,1,1
66066d4312efd3b938d7dbe1,1,1,1,1,1,1,1,1,1,0,0,1,1,1,OR,1,0,0,0,0,0,1,1,1,0,23,유은경,85,01021976026,F,이지민,01083951945,자녀,660525-2782285,xx-xxxxx-xxx,신한,서울 성동구 홍익동 398-6,55,37.565557,127.030744,USER,상왕십리역 인근 풀옵션 원룸,23,23,서울,성동구,empty,왕십리로30길 13,23,23,23,23,67,68,69,/homeImage/23/01.jpg,/homeImage/23/02.jpg,/homeImage/23/03.jpg,23,/hostImage/23.jpg,0,0,1,0,1,0,0,1,1
66066d4312efd3b938d7dbe2,1,1,1,1,1,1,1,0,1,0,1,0,1,1,DDDGG,1,1,0,0,1,0,1,0,0,0,24,한은정,87,01071895967,F,서수민,01073551237,자녀,510418-2470229,xx-xxxxx-xxx,토스,서울 성동구 마장동 559-6,50,37.567735,127.035215,USER,거실도있는 분리형원룸 풀옵션 저렴한월세,24,24,서울,성동구,empty,청계천로12나길 4,24,24,24,24,70,71,72,/homeImage/24/01.jpg,/homeImage/24/02.jpg,/homeImage/24/03.jpg,24,/hostImage/24.jpg,0,1,1,0,1,0,1,0,0
66066d4312efd3b938d7dbe3,1,1,1,1,1,1,1,1,1,0,1,1,1,1,DDDGG,1,0,1,0,0,0,1,0,0,1,25,박준영,93,01024151947,F,한광수,01039445798,자녀,720906-2462218,xx-xxxxx-xxx,농협,서울 성동구 홍익동 398-6,70,37.565557,127.030744,USER,즉시입주 가능한 전용넓은 원룸입니다,25,25,서울,성동구,empty,왕십리로30길 13,25,25,25,25,73,74,75,/homeImage/25/01.jpg,/homeImage/25/02.jpg,/homeImage/25/03.jpg,25,/hostImage/25.jpg,0,0,1,0,1,2,0,0,0
66066d4312efd3b938d7dbe4,1,1,1,1,1,1,1,0,1,0,0,1,1,1,DDDGG,0,0,0,1,1,1,0,0,0,0,26,송도현,68,01067106883,F,송지훈,01066232459,자녀,660328-1760582,xx-xxxxx-xxx,하나,서울 성동구 마장동 797-74,50,37.563896,127.039992,USER,"왕십리역세권, 조용한 주택가, 깨끗한 풀옵션 원룸",26,26,서울,성동구,empty,마조로15나길 5,26,26,26,26,76,77,78,/homeImage/26/01.jpg,/homeImage/26/02.jpg,/homeImage/26/03.jpg,26,/hostImage/26.jpg,1,1,0,1,0,0,0,0,0
66066d4312efd3b938d7dbe5,0,1,0,0,1,1,1,0,1,0,0,1,0,0,OR,1,1,0,1,0,1,0,0,0,1,27,김영진,76,01007874284,M,임준호,01067996416,자녀,610027-2121951,xx-xxxxx-xxx,씨티,서울 성동구 마장동 797-74,50,37.563896,127.039992,USER,empty,27,27,서울,성동구,empty,마조로15나길 5,27,27,27,27,79,80,81,/homeImage/27/01.jpg,/homeImage/27/02.jpg,/homeImage/27/03.jpg,27,/hostImage/27.jpg,1,0,1,1,0,1,1,0,0
66066d4312efd3b938d7dbe6,1,1,1,1,1,1,1,1,1,0,0,1,1,1,OR,1,1,0,0,1,1,0,1,0,1,28,임성민,89,01048566287,M,장정수,01057326192,자녀,190006-1503030,xx-xxxxx-xxx,국민,서울 성동구 마장동 797-6,35,37.564283,127.040484,UNAUTHORIZED_MEMBER,사이즈 정말좋은 깨끗한 풀옵션,28,28,서울,성동구,empty,마조로15나길 9,28,28,28,28,82,83,84,/homeImage/28/01.jpg,/homeImage/28/02.jpg,/homeImage/28/03.jpg,28,/hostImage/28.jpg,0,1,1,1,0,1,1,1,0
66066d4312efd3b938d7dbe7,1,1,1,1,1,1,1,1,1,0,0,1,1,1,OR,1,1,0,0,1,1,1,1,0,0,29,오지훈,96,01098404256,F,유성수,01043709199,자녀,410713-1928706,xx-xxxxx-xxx,SC제일,서울 성동구 마장동 797-29,50,37.564646,127.038897,USER,즉시입주가능한 풀옵션,29,29,서울,성동구,empty,마조로19길 21,29,29,29,29,85,86,87,/homeImage/29/01.jpg,/homeImage/29/02.jpg,/homeImage/29/03.jpg,29,/hostImage/29.jpg,0,1,1,1,1,0,1,1,0
66066d4312efd3b938d7dbe8,1,1,1,1,1,1,1,1,1,0,0,0,1,1,OR,1,0,1,0,0,0,0,1,1,0,30,김영미,95,01090573305,M,박정훈,01001276135,자녀,510126-1691780,xx-xxxxx-xxx,경남,서울 성동구 마장동 566-34,60,37.566629,127.034902,USER,도선사거리 인접 컨디션좋은 풀옵션원룸 즉시입주,30,30,서울,성동구,empty,마장로27길 2,30,30,30,30,88,89,90,/homeImage/30/01.jpg,/homeImage/30/02.jpg,/homeImage/30/03.jpg,30,/hostImage/30.jpg,0,0,1,0,0,1,0,1,1
66066d4312efd3b938d7dbe9,1,1,1,1,1,1,1,1,1,0,1,0,1,1,APT,0,1,0,0,0,1,1,0,1,1,31,김재현,79,01032431887,M,강현정,01024556520,자녀,970900-2874992,xx-xxxxx-xxx,국민,서울 성동구 하왕십리동 258,45,37.568214,127.031981,UNAUTHORIZED_MEMBER,방2개 월세  화장실단독사용 여성분만가능 주차가능,31,31,서울,성동구,empty,무학로 50,31,31,31,31,91,92,93,/homeImage/31/01.jpg,/homeImage/31/02.jpg,/homeImage/31/03.jpg,31,/hostImage/31.jpg,0,0,0,1,1,1,1,0,1
66066d4312efd3b938d7dbea,1,1,1,1,1,1,1,1,1,0,1,1,1,1,OR,1,1,0,0,0,1,0,1,1,0,32,박민재,88,01004025666,M,한민재,01087767253,자녀,410413-1965562,xx-xxxxx-xxx,대구,서울 성동구 홍익동 398-6,55,37.565557,127.030744,USER,즉시입주가능 저렴한 오픈형 풀옵션,32,32,서울,성동구,empty,왕십리로30길 13,32,32,32,32,94,95,96,/homeImage/32/01.jpg,/homeImage/32/02.jpg,/homeImage/32/03.jpg,32,/hostImage/32.jpg,0,0,1,1,0,0,1,1,1
66066d4312efd3b938d7dbeb,1,1,1,1,1,1,1,0,1,0,1,0,1,1,OR,1,1,0,1,1,1,1,1,1,1,33,백현정,97,01097669449,F,장성호,01015072866,자녀,160523-1908667,xx-xxxxx-xxx,우체국,서울 성동구 마장동 382-30,25,37.563012,127.044494,UNAUTHORIZED_MEMBER,통풍 잘 되고 햇빛이 잘 들어 쾌적한 2층 원룸,33,33,서울,성동구,empty,살곶이2가길 76,33,33,33,33,97,98,99,/homeImage/33/01.jpg,/homeImage/33/02.jpg,/homeImage/33/03.jpg,33,/hostImage/33.jpg,1,1,1,1,1,1,1,1,1
66066d4312efd3b938d7dbec,1,1,1,1,1,1,1,0,1,0,0,0,1,1,DDDGG,0,1,0,1,1,0,0,0,0,0,34,권지원,69,01004424474,F,김예지,01097886576,자녀,890824-1477350,xx-xxxxx-xxx,하나,서울 성동구 마장동 556,40,37.567885,127.035843,UNAUTHORIZED_MEMBER,2층 방1칸 분리형 원룸 옵션x,34,34,서울,성동구,empty,마장로29길 29,34,34,34,34,100,101,102,/homeImage/34/01.jpg,/homeImage/34/02.jpg,/homeImage/34/03.jpg,34,/hostImage/34.jpg,1,1,0,0,0,0,1,0,0
66066d4312efd3b938d7dbed,1,1,1,1,1,1,1,0,1,0,0,1,1,1,OR,1,1,0,0,0,0,0,0,0,1,35,안지우,74,01003029627,F,한지원,01005499688,자녀,360601-2425448,xx-xxxxx-xxx,우리,서울 성동구 하왕십리동 955-1,30,37.563538,127.030482,USER,풀옵션 원룸,35,35,서울,성동구,empty,무학봉15길 26,35,35,35,35,103,104,105,/homeImage/35/01.jpg,/homeImage/35/02.jpg,/homeImage/35/03.jpg,35,/hostImage/35.jpg,0,0,1,0,0,1,1,0,0
66066d4312efd3b938d7dbee,1,1,1,1,1,1,1,1,1,0,1,1,1,1,OPST,1,0,0,1,0,1,1,1,0,1,36,이도현,90,01031433452,M,신현정,01081531847,자녀,820809-2975628,xx-xxxxx-xxx,국민,서울 성동구 행당동 192-29,70,37.565189,127.03674,USER,왕십리초역세권 도보3분 성동구청 바로옆 빠른 입주협의,36,36,서울,성동구,empty,고산자로 284,36,36,36,36,106,107,108,/homeImage/36/01.jpg,/homeImage/36/02.jpg,/homeImage/36/03.jpg,36,/hostImage/36.jpg,1,0,1,1,1,1,0,1,0
66066d4312efd3b938d7dbef,1,1,1,1,1,1,1,1,1,0,0,1,1,1,OR,1,1,0,1,1,1,1,0,0,0,37,안병철,98,01050844810,M,김승현,01087848261,자녀,500011-2487408,xx-xxxxx-xxx,케이,서울 성동구 마장동 800-1,65,37.563626,127.040083,UNAUTHORIZED_MEMBER,왕십리역 역세권 넓고 채광좋은 풀옵션원룸,37,37,서울,성동구,empty,마조로15길 13,37,37,37,37,109,110,111,/homeImage/37/01.jpg,/homeImage/37/02.jpg,/homeImage/37/03.jpg,37,/hostImage/37.jpg,1,1,1,1,1,0,1,0,0
66066d4312efd3b938d7dbf0,1,1,1,1,1,1,1,1,1,0,0,1,1,1,OR,1,1,0,1,1,0,1,1,1,1,38,장병철,95,01084520601,F,성서영,01075638931,자녀,360618-1568098,xx-xxxxx-xxx,씨티,서울 성동구 홍익동 398-6,70,37.565557,127.030744,UNAUTHORIZED_MEMBER,즉시입주 8P넓은 원룸 풀옵션 남향세대 공동보안,38,38,서울,성동구,empty,왕십리로30길 13,38,38,38,38,112,113,114,/homeImage/38/01.jpg,/homeImage/38/02.jpg,/homeImage/38/03.jpg,38,/hostImage/38.jpg,1,1,1,0,1,1,1,1,1
66066d4312efd3b938d7dbf1,1,1,1,1,1,1,1,0,1,0,0,1,1,1,DDDGG,1,1,1,1,0,1,0,0,0,0,39,이영환,76,01019086945,M,이동현,01095381205,자녀,790800-1196325,xx-xxxxx-xxx,카카오,서울 성동구 마장동 777-6,60,37.567531,127.0456,UNAUTHORIZED_MEMBER,"마장역,답십리역5호선 신답역2호석 더블 역세권 원룸 즉시입주",39,39,서울,성동구,empty,마장로 328,39,39,39,39,115,116,117,/homeImage/39/01.jpg,/homeImage/39/02.jpg,/homeImage/39/03.jpg,39,/hostImage/39.jpg,1,0,1,1,0,1,1,0,0
66066d4312efd3b938d7dbf2,1,1,1,1,1,1,1,0,1,0,1,0,1,1,DDDGG,0,0,1,0,1,0,0,1,0,0,40,김경수,82,01071364615,M,고경수,01058979059,자녀,530728-2069581,xx-xxxxx-xxx,경남,서울 성동구 마장동 444-5,50,37.569326,127.033743,UNAUTHORIZED_MEMBER,도배장판 해드립니다 층간소음없는집,40,40,서울,성동구,empty,청계천로10나길 12,40,40,40,40,118,119,120,/homeImage/40/01.jpg,/homeImage/40/02.jpg,/homeImage/40/03.jpg,40,/hostImage/40.jpg,0,1,0,0,0,1,0,1,0
66066d4312efd3b938d7dbf3,1,1,1,1,1,1,1,0,1,0,1,0,1,1,DDDGG,0,0,0,0,0,0,0,0,0,1,41,김민준,95,01050504293,M,이혜진,01071541313,자녀,100915-2590536,xx-xxxxx-xxx,광주,서울 성동구 홍익동 268,40,37.565735,127.033513,UNAUTHORIZED_MEMBER,홍익동 넓은 다가구 1.5룸,41,41,서울,성동구,empty,무학로10길 24,41,41,41,41,121,122,123,/homeImage/41/01.jpg,/homeImage/41/02.jpg,/homeImage/41/03.jpg,41,/hostImage/41.jpg,0,0,0,0,0,1,0,0,0
66066d4312efd3b938d7dbf4,1,1,1,1,1,1,1,1,1,0,1,1,1,1,OPST,0,1,1,0,0,0,0,0,1,0,42,김영철,99,01096518099,M,양진우,01052216923,자녀,390224-1046905,xx-xxxxx-xxx,토스,서울 성동구 용답동 238-12,63,37.559906,127.069378,USER,"중랑천고층뷰,저렴한월세 장한평역서희스타힐스오피스텔",42,42,서울,성동구,용답동,empty,42,42,42,42,124,125,126,/homeImage/42/01.jpg,/homeImage/42/02.jpg,/homeImage/42/03.jpg,42,/hostImage/42.jpg,0,0,0,0,0,1,1,0,1
66066d4312efd3b938d7dbf5,1,1,1,1,1,1,1,0,1,0,0,1,1,1,OPST,1,1,1,1,1,1,1,1,1,1,43,장상훈,74,01051804812,F,김서윤,01005214695,자녀,860719-2873413,xx-xxxxx-xxx,수협,서울 성동구 용답동 233-8,70,37.560731,127.065465,USER,장한평역 초역세권 전입 가능한 풀옵션 신축급 오피스텔 부라다,43,43,서울,성동구,empty,자동차시장1길 73,43,43,43,43,127,128,129,/homeImage/43/01.jpg,/homeImage/43/02.jpg,/homeImage/43/03.jpg,43,/hostImage/43.jpg,1,1,1,1,1,2,1,1,1
66066d4312efd3b938d7dbf6,1,1,1,1,1,1,1,1,1,0,1,0,1,1,OR,1,1,1,1,0,1,0,0,0,1,44,고준호,76,01000734435,F,김성진,01045031651,자녀,720317-1368691,xx-xxxxx-xxx,대구,서울 성동구 성수동2가 211-18,30,37.535879,127.059636,USER,"삼정 실5, 깔끔한 1층 원룸",44,44,서울,성동구,성수동2가,empty,44,44,44,44,130,131,132,/homeImage/44/01.jpg,/homeImage/44/02.jpg,/homeImage/44/03.jpg,44,/hostImage/44.jpg,1,0,1,1,0,2,1,0,0
66066d4312efd3b938d7dbf7,1,1,1,1,1,1,1,1,1,0,0,0,1,1,OR,1,0,0,1,0,0,0,0,1,1,45,우재현,76,01047052676,F,안준서,01036902116,자녀,770014-2310883,xx-xxxxx-xxx,우리,서울 성동구 송정동 66-127,38,37.548881,127.067075,USER,"화양사거리 위치, 즉시입주가능, 풀옵션 반지층 분리형 원룸",45,45,서울,성동구,empty,송정10길 22,45,45,45,45,133,134,135,/homeImage/45/01.jpg,/homeImage/45/02.jpg,/homeImage/45/03.jpg,45,/hostImage/45.jpg,1,0,1,0,0,1,0,0,1
66066d4312efd3b938d7dbf8,1,1,1,1,1,1,1,1,1,0,0,1,1,1,DDDGG,0,1,0,0,0,1,0,0,1,0,46,박영미,93,01045846980,F,김지아,01006751388,자녀,630601-2596790,xx-xxxxx-xxx,산업,서울 마포구 노고산동 12-154,50,37.553671,126.9401,UNAUTHORIZED_MEMBER,"주방분리형원룸, 풀옵션, 신촌역 도보6분, 버스정류장 도보 6분, 이마트",46,46,서울,마포구,empty,고산2길 48,46,46,46,46,136,137,138,/homeImage/46/01.jpg,/homeImage/46/02.jpg,/homeImage/46/03.jpg,46,/hostImage/46.jpg,0,0,0,1,0,0,1,0,1
66066d4312efd3b938d7dbf9,1,1,1,1,1,1,1,1,1,0,1,0,1,1,OR,1,0,0,1,1,0,1,0,1,1,47,서현준,75,01042507591,M,나영미,01084593903,자녀,240411-1510702,xx-xxxxx-xxx,농협,서울 마포구 연남동 223-98,60,37.565038,126.924926,USER,O 신축급 O 연남동 조용한 주택가 O,47,47,서울,마포구,empty,성미산로 165,47,47,47,47,139,140,141,/homeImage/47/01.jpg,/homeImage/47/02.jpg,/homeImage/47/03.jpg,47,/hostImage/47.jpg,1,1,1,0,1,1,0,0,1
66066d4312efd3b938d7dbfa,1,1,1,1,1,1,1,1,1,0,1,0,1,1,OR,0,0,1,1,0,0,1,0,1,1,48,이예지,98,01002689934,F,김미정,01072280577,자녀,590425-1501184,xx-xxxxx-xxx,국민,서울 마포구 연남동 223-98,60,37.565038,126.924926,USER,가성비 좋은 연남동 수리한 원룸,48,48,서울,마포구,empty,성미산로 165,48,48,48,48,142,143,144,/homeImage/48/01.jpg,/homeImage/48/02.jpg,/homeImage/48/03.jpg,48,/hostImage/48.jpg,1,0,0,0,1,2,0,0,1
66066d4312efd3b938d7dbfb,1,1,1,1,1,1,1,0,1,0,0,0,1,1,OR,1,0,1,0,1,1,1,0,0,0,49,나성민,83,01012926871,M,김순자,01029058986,자녀,660226-2097437,xx-xxxxx-xxx,국민,서울 마포구 연남동 228-4,46,37.563012,126.926085,USER,O 옥탑 옥상단독사용 O 깔끔한 분리형 O 기본옵션 O,49,49,서울,마포구,empty,성미산로 188,49,49,49,49,145,146,147,/homeImage/49/01.jpg,/homeImage/49/02.jpg,/homeImage/49/03.jpg,49,/hostImage/49.jpg,0,1,1,1,1,1,0,0,0
66066d4312efd3b938d7dbfc,1,1,1,1,1,1,1,0,1,0,0,0,1,1,OR,1,0,0,1,0,1,1,1,0,1,50,이영길,68,01001735566,F,지미경,01091491689,자녀,070422-1636086,xx-xxxxx-xxx,전북,서울 광진구 구의동 253-16,55,37.544241,127.084427,USER,"풀옵션 원룸, 어린이대공원 인근",50,50,서울,광진구,empty,자양로29길 8,50,50,50,50,148,149,150,/homeImage/50/01.jpg,/homeImage/50/02.jpg,/homeImage/50/03.jpg,50,/hostImage/50.jpg,1,0,1,1,1,1,0,1,0
66066d4312efd3b938d7dbfd,1,1,1,1,1,1,1,0,1,0,0,0,1,1,OR,0,0,1,0,0,0,0,0,0,1,51,임영일,82,01009569456,F,김영환,01096388978,자녀,900208-1155264,xx-xxxxx-xxx,수협,서울 광진구 자양동 772-18,47,37.538407,127.079864,UNAUTHORIZED_MEMBER,핫한월세  풀옵션   월세에모든공과금포함요금  건대생에인기,51,51,서울,광진구,empty,자양로19길 68,51,51,51,51,151,152,153,/homeImage/51/01.jpg,/homeImage/51/02.jpg,/homeImage/51/03.jpg,51,/hostImage/51.jpg,0,0,0,0,0,2,0,0,0
66066d4312efd3b938d7dbfe,1,1,1,1,1,1,1,1,1,0,0,0,1,1,DDDGG,1,0,0,0,1,0,1,0,1,0,52,이예은,95,01098145900,F,김영미,01057967262,자녀,400225-2827503,xx-xxxxx-xxx,제주,서울 광진구 구의동 231-53,45,37.543875,127.089159,UNAUTHORIZED_MEMBER,깔끔하고 넓은 풀옵션 통원룸,52,52,서울,광진구,empty,자양로32길 70,52,52,52,52,154,155,156,/homeImage/52/01.jpg,/homeImage/52/02.jpg,/homeImage/52/03.jpg,52,/hostImage/52.jpg,0,1,1,0,1,0,0,0,1
66066d4312efd3b938d7dbff,1,1,1,1,1,1,1,1,1,0,0,1,1,1,DDDGG,0,1,1,0,1,1,1,0,0,1,53,구민재,84,01077383642,M,김보람,01089664412,자녀,960904-2615348,xx-xxxxx-xxx,산업,서울 광진구 능동 224-40,45,37.555347,127.079824,USER,"군자역 초역세권 원룸, 옥상이용가능",53,53,서울,광진구,empty,능동로34길 12,53,53,53,53,157,158,159,/homeImage/53/01.jpg,/homeImage/53/02.jpg,/homeImage/53/03.jpg,53,/hostImage/53.jpg,0,1,0,1,1,2,1,0,0
66066d4312efd3b938d7dc00,1,1,1,1,1,1,1,1,1,0,0,1,1,1,OR,1,0,0,0,0,1,0,1,1,0,54,김재호,95,01012009667,M,우유진,01096277120,자녀,010116-2792570,xx-xxxxx-xxx,SC제일,서울 광진구 능동 221-18,50,37.555768,127.079246,USER,"지하철군자역 도보1분 교통편리, 5호선,7호선 출퇴근직장인 적합",54,54,서울,광진구,empty,천호대로110길 30,54,54,54,54,160,161,162,/homeImage/54/01.jpg,/homeImage/54/02.jpg,/homeImage/54/03.jpg,54,/hostImage/54.jpg,0,0,1,1,0,0,0,1,1
66066d4312efd3b938d7dc01,1,1,1,1,1,1,1,1,1,0,0,1,1,1,OR,1,1,1,0,0,1,0,1,1,0,55,송상현,91,01072165629,M,김상호,01031378440,자녀,230424-1582814,xx-xxxxx-xxx,토스,서울 광진구 구의동 246-8,60,37.537677,127.085115,UNAUTHORIZED_MEMBER,"리모델링한 신축급 풀옵션 원룸, 구의역 1분",55,55,서울,광진구,empty,자양로18길 26,55,55,55,55,163,164,165,/homeImage/55/01.jpg,/homeImage/55/02.jpg,/homeImage/55/03.jpg,55,/hostImage/55.jpg,0,0,1,1,0,1,1,1,1
66066d4312efd3b938d7dc02,1,1,1,1,1,1,1,0,1,0,0,1,1,1,DDDGG,0,0,1,0,1,0,0,1,1,1,56,신지후,74,01090227812,F,이지현,01095425536,자녀,160405-1990326,xx-xxxxx-xxx,부산,서울 광진구 자양동 850-5,55,37.537757,127.067473,UNAUTHORIZED_MEMBER,올수리2년차 보증금최소월세 대출없음,56,56,서울,광진구,empty,뚝섬로23길 75,56,56,56,56,166,167,168,/homeImage/56/01.jpg,/homeImage/56/02.jpg,/homeImage/56/03.jpg,56,/hostImage/56.jpg,0,1,0,0,0,2,0,1,1
66066d4312efd3b938d7dc03,1,1,1,1,1,1,1,1,1,0,0,1,1,1,DDDGG,1,0,1,1,0,1,0,0,1,0,57,김영식,90,01086252515,F,양승현,01094046847,자녀,860525-2172277,xx-xxxxx-xxx,수협,서울 광진구 자양동 12-13,60,37.539191,127.065127,UNAUTHORIZED_MEMBER,"옥상 단독 사용, 풀옵션 공간 활용 좋은 원룸",57,57,서울,광진구,empty,동일로18나길 6,57,57,57,57,169,170,171,/homeImage/57/01.jpg,/homeImage/57/02.jpg,/homeImage/57/03.jpg,57,/hostImage/57.jpg,1,0,1,1,0,1,0,0,1
66066d4312efd3b938d7dc04,1,1,1,1,1,1,1,0,1,0,1,0,1,1,OR,1,0,1,1,1,0,0,1,1,0,58,오영철,82,01088490294,M,손성수,01059828144,자녀,710122-1725723,xx-xxxxx-xxx,농협,서울 광진구 자양동 40-14,30,37.537696,127.064466,USER,건대입구역세권 도보8분 깔끔한 풀옵션 원룸,58,58,서울,광진구,empty,동일로10다길 8,58,58,58,58,172,173,174,/homeImage/58/01.jpg,/homeImage/58/02.jpg,/homeImage/58/03.jpg,58,/hostImage/58.jpg,1,1,1,0,0,1,0,1,1
66066d4312efd3b938d7dc05,1,1,1,1,1,1,1,0,1,0,0,1,1,1,OR,1,1,1,1,1,1,0,1,1,1,59,이현숙,86,01011269482,F,김성호,01001371907,자녀,570508-2879878,xx-xxxxx-xxx,광주,서울 광진구 구의동 217-10,50,37.538448,127.093432,USER,풀옵션 남향 밝고 깨끗 초역세권 즉시입주가능,59,59,서울,광진구,empty,구의강변로 87,59,59,59,59,175,176,177,/homeImage/59/01.jpg,/homeImage/59/02.jpg,/homeImage/59/03.jpg,59,/hostImage/59.jpg,1,1,1,1,0,2,1,1,1
66066d4312efd3b938d7dc06,1,1,1,1,1,1,1,1,1,0,0,0,1,1,DDDGG,0,0,1,0,0,0,0,1,0,1,60,김지후,65,01012214783,M,김병철,01022903974,자녀,770222-2635258,xx-xxxxx-xxx,카카오,서울 광진구 중곡동 583-5,29,37.571071,127.080557,UNAUTHORIZED_MEMBER,중곡동 깔끔한 풀옵션 원룸,60,60,서울,광진구,empty,답십리로74길 11,60,60,60,60,178,179,180,/homeImage/60/01.jpg,/homeImage/60/02.jpg,/homeImage/60/03.jpg,60,/hostImage/60.jpg,0,0,0,0,0,2,0,1,0
66066d4312efd3b938d7dc07,0,0,0,1,0,0,1,0,1,1,1,0,1,0,OR,0,1,1,1,1,0,0,1,1,1,61,김도현,89,01010166203,F,조미숙,01048439475,자녀,380623-2470760,xx-xxxxx-xxx,산업,서울 광진구 자양동 605-27,30,37.531167,127.078616,USER,empty,61,61,서울,광진구,empty,자양번영로4길 59,61,61,61,61,181,182,183,/homeImage/61/01.jpg,/homeImage/61/02.jpg,/homeImage/61/03.jpg,61,/hostImage/61.jpg,1,1,0,0,0,2,1,1,1
66066d4312efd3b938d7dc08,1,1,1,1,1,1,1,1,1,0,1,1,1,1,OR,0,1,0,1,1,1,1,0,1,0,62,박영식,93,01070122787,M,홍건우,01089119531,자녀,540812-2209966,xx-xxxxx-xxx,하나,서울 양천구 신정동 928-26,35,37.52506,126.853333,USER,신정역2분 풀옵션 빠른입주가능,62,62,서울,양천구,empty,오목로29길 3,62,62,62,62,184,185,186,/homeImage/62/01.jpg,/homeImage/62/02.jpg,/homeImage/62/03.jpg,62,/hostImage/62.jpg,1,1,0,1,1,0,1,0,1
66066d4312efd3b938d7dc09,1,1,1,1,1,1,1,1,1,0,1,1,1,1,DDDGG,0,1,1,1,1,0,0,0,1,1,63,김우진,77,01070209244,M,김민지,01028038033,자녀,570009-2083493,xx-xxxxx-xxx,우리,서울 양천구 신월동 503-15,40,37.523038,126.850488,USER,"신정네거리역,신정역 풀옵션1.5룸 주차가능 단기임대",63,63,서울,양천구,empty,중앙로49길 11,63,63,63,63,187,188,189,/homeImage/63/01.jpg,/homeImage/63/02.jpg,/homeImage/63/03.jpg,63,/hostImage/63.jpg,1,1,0,0,0,2,1,0,1
66066d4312efd3b938d7dc0a,1,1,1,1,1,1,1,0,1,0,1,0,1,1,DDDGG,0,1,0,0,1,1,1,1,0,0,64,강영길,68,01080283807,F,고성훈,01039809179,자녀,920321-1031660,xx-xxxxx-xxx,하나,서울 양천구 신월동 575-11,40,37.518012,126.842758,UNAUTHORIZED_MEMBER,"상태깨끗,이사협의,생활편리,교통이용편리",64,64,서울,양천구,empty,남부순환로79길 31,64,64,64,64,190,191,192,/homeImage/64/01.jpg,/homeImage/64/02.jpg,/homeImage/64/03.jpg,64,/hostImage/64.jpg,0,1,0,1,1,0,1,1,0
66066d4312efd3b938d7dc0b,1,1,1,1,1,1,1,0,1,0,0,1,1,1,DDDGG,1,0,1,1,1,0,0,0,1,1,65,노정식,92,01009030474,F,서영식,01045031738,자녀,790611-1310572,xx-xxxxx-xxx,국민,서울 양천구 신정동 1210-12,35,37.519834,126.849902,UNAUTHORIZED_MEMBER,방2화1 지하철도보이용 도배.장판.씽크대 수리함. 방넓고 주방공간있어요,65,65,서울,양천구,empty,중앙로39길 22,65,65,65,65,193,194,195,/homeImage/65/01.jpg,/homeImage/65/02.jpg,/homeImage/65/03.jpg,65,/hostImage/65.jpg,1,1,1,0,0,2,0,0,1
66066d4312efd3b938d7dc0c,1,1,1,1,1,1,1,1,1,0,0,1,1,1,DDDGG,1,0,0,0,1,0,0,0,0,0,66,장유진,78,01066331926,F,박영일,01090536976,자녀,990723-2137301,xx-xxxxx-xxx,토스,서울 양천구 신정동 1210-12,40,37.519834,126.849902,UNAUTHORIZED_MEMBER,방2화1베1 저렴한지상층 주방공간O 지하철도보이용 연식대비깔끔 언덕위치함,66,66,서울,양천구,empty,중앙로39길 22,66,66,66,66,196,197,198,/homeImage/66/01.jpg,/homeImage/66/02.jpg,/homeImage/66/03.jpg,66,/hostImage/66.jpg,0,1,1,0,0,0,0,0,0
66066d4312efd3b938d7dc0d,1,1,1,1,1,1,1,1,1,0,0,1,1,1,DDDGG,1,1,0,0,1,1,1,1,0,1,67,박지현,89,01058350857,M,김예지,01074278368,자녀,050409-2875465,xx-xxxxx-xxx,전북,서울 양천구 신정동 1193-5,30,37.52194,126.849647,USER,신정네거리역세권. 계단없는 지층. 방1.화1. 상태깨끗해요,67,67,서울,양천구,empty,중앙로45길 28,67,67,67,67,199,200,201,/homeImage/67/01.jpg,/homeImage/67/02.jpg,/homeImage/67/03.jpg,67,/hostImage/67.jpg,0,1,1,1,1,1,1,1,0
66066d4312efd3b938d7dc0e,1,1,1,1,1,1,1,1,1,0,1,1,1,1,DDDGG,0,1,1,0,0,1,0,1,0,1,68,서춘자,81,01061792278,M,김미영,01096882491,자녀,000718-1473126,xx-xxxxx-xxx,SC제일,서울 양천구 신정동 1193-5,35,37.52194,126.849647,USER,계단없음 지층임1층같음 방 주방 크고 깨끗함 즉시입주 신정네거리역5분,68,68,서울,양천구,empty,중앙로45길 28,68,68,68,68,202,203,204,/homeImage/68/01.jpg,/homeImage/68/02.jpg,/homeImage/68/03.jpg,68,/hostImage/68.jpg,0,0,0,1,0,2,1,1,0
66066d4312efd3b938d7dc0f,1,1,1,1,1,1,1,0,1,0,1,1,1,1,DDDGG,1,1,0,0,0,1,0,1,0,1,69,이지은,93,01019623465,M,이상호,01075402990,자녀,830025-1317223,xx-xxxxx-xxx,경남,서울 양천구 신정동 1050-4,35,37.519244,126.854831,UNAUTHORIZED_MEMBER,"전철3분,신서학군,즉시입주,공원앞",69,69,서울,양천구,empty,중앙로36길 8,69,69,69,69,205,206,207,/homeImage/69/01.jpg,/homeImage/69/02.jpg,/homeImage/69/03.jpg,69,/hostImage/69.jpg,0,0,1,1,0,1,1,1,0
66066d4312efd3b938d7dc10,1,1,1,1,1,1,1,1,1,0,0,0,1,1,DDDGG,0,1,1,0,1,1,0,0,1,0,70,류승현,89,01031419172,M,김정자,01093045183,자녀,740716-2177278,xx-xxxxx-xxx,신한,서울 양천구 신정동 1029-7,60,37.521049,126.854274,USER,올수리 투룸 옥상마당 사용가능 사무실 공방 등 사용가능,70,70,서울,양천구,empty,신월로 300,70,70,70,70,208,209,210,/homeImage/70/01.jpg,/homeImage/70/02.jpg,/homeImage/70/03.jpg,70,/hostImage/70.jpg,0,1,0,1,0,1,1,0,1
66066d4312efd3b938d7dc11,1,1,1,1,1,1,1,0,1,0,0,1,1,1,DDDGG,1,1,0,1,1,1,0,0,1,1,71,이진우,66,01065621466,F,강정훈,01092817226,자녀,950900-2473435,xx-xxxxx-xxx,토스,서울 양천구 신정동 1201-7,35,37.520162,126.850106,USER,"깔끔수리 함,즉시입주,전철5분",71,71,서울,양천구,empty,중앙로45길 25,71,71,71,71,211,212,213,/homeImage/71/01.jpg,/homeImage/71/02.jpg,/homeImage/71/03.jpg,71,/hostImage/71.jpg,1,1,1,1,0,1,1,0,1
66066d4312efd3b938d7dc12,1,1,1,1,1,1,1,1,1,0,0,1,1,1,DDDGG,0,0,0,1,0,0,1,0,0,1,72,김영수,97,01061243848,M,정수민,01097820156,자녀,890114-2210422,xx-xxxxx-xxx,농협,서울 양천구 신정동 1206-10,25,37.519564,126.850667,USER,"분리형 원룸, 풀옵션, 옥상 마당 사용 가능한 옥탑",72,72,서울,양천구,empty,중앙로47길 20,72,72,72,72,214,215,216,/homeImage/72/01.jpg,/homeImage/72/02.jpg,/homeImage/72/03.jpg,72,/hostImage/72.jpg,1,0,0,0,1,1,0,0,0
66066d4312efd3b938d7dc13,1,1,1,1,1,1,1,1,1,0,1,1,1,1,DDDGG,1,0,0,1,1,1,1,0,0,0,73,장성호,88,01089188304,M,권현우,01094127017,자녀,630328-2339062,xx-xxxxx-xxx,수협,서울 양천구 신정동 940-39,40,37.524496,126.851967,USER,역세권 I 대로변 1.5룸 월세 I 설명란 확인,73,73,서울,양천구,empty,오목로 131,73,73,73,73,217,218,219,/homeImage/73/01.jpg,/homeImage/73/02.jpg,/homeImage/73/03.jpg,73,/hostImage/73.jpg,1,1,1,1,1,0,0,0,0
66066d4312efd3b938d7dc14,1,1,1,1,1,1,1,1,1,0,0,1,1,1,DDDGG,0,0,1,1,0,1,0,1,0,0,74,최은정,67,01012139711,M,성영순,01082924612,자녀,910422-1682925,xx-xxxxx-xxx,씨티,서울 양천구 신정동 1210-12,35,37.519834,126.849902,UNAUTHORIZED_MEMBER,"도배장판,싱크대,변기교체. 지하철역인접. 계단없는바닥1층",74,74,서울,양천구,empty,중앙로39길 22,74,74,74,74,220,221,222,/homeImage/74/01.jpg,/homeImage/74/02.jpg,/homeImage/74/03.jpg,74,/hostImage/74.jpg,1,0,0,1,0,1,0,1,0
66066d4312efd3b938d7dc15,1,1,1,1,1,1,1,1,1,1,1,1,1,1,DDDGG,0,1,1,1,1,0,1,1,1,1,75,김도현,90,01036839621,F,장승현,01091087268,자녀,170827-2596839,xx-xxxxx-xxx,산업,서울 양천구 신정동 1160-6,25,37.517218,126.849807,UNAUTHORIZED_MEMBER,즉시입주가 계단없는 지층 에어컨 가스렌지있음 상태 양호,75,75,서울,양천구,empty,중앙로47길 47,75,75,75,75,223,224,225,/homeImage/75/01.jpg,/homeImage/75/02.jpg,/homeImage/75/03.jpg,75,/hostImage/75.jpg,1,1,0,0,1,2,1,1,1
66066d4312efd3b938d7dc16,1,1,1,1,1,1,1,0,1,0,1,0,1,1,VL,0,1,1,1,1,1,1,0,1,1,76,김종수,93,01064224786,M,문미영,01011881314,자녀,610101-2802312,xx-xxxxx-xxx,우리,서울 양천구 신정동 1216-1,40,37.519335,126.848704,USER,보증금 조정가능 진입이 편리하며 거주자 우선주차지역 방 오전만 볼수있음,76,76,서울,양천구,empty,중앙로29길 88,76,76,76,76,226,227,228,/homeImage/76/01.jpg,/homeImage/76/02.jpg,/homeImage/76/03.jpg,76,/hostImage/76.jpg,1,1,0,1,1,2,1,0,1
66066d4312efd3b938d7dc17,1,1,1,1,1,1,1,1,1,0,0,1,1,1,DDDGG,0,0,1,1,0,1,1,1,1,1,77,김시우,89,01004088747,F,김정훈,01026649869,자녀,830025-1853098,xx-xxxxx-xxx,국민,서울 양천구 신정동 1210-12,40,37.519834,126.849902,UNAUTHORIZED_MEMBER,"싱크대,변기,벽지,바닥교체. 지하철역인접.보일러실 넓어요. 1.5층",77,77,서울,양천구,empty,중앙로39길 22,77,77,77,77,229,230,231,/homeImage/77/01.jpg,/homeImage/77/02.jpg,/homeImage/77/03.jpg,77,/hostImage/77.jpg,1,0,0,1,1,2,0,1,1
66066d4312efd3b938d7dc18,1,1,1,1,1,1,1,0,1,0,0,1,1,1,OR,0,1,0,0,1,0,0,1,0,0,78,김예원,88,01022806694,M,박시우,01083371461,자녀,850928-2347097,xx-xxxxx-xxx,씨티,서울 양천구 목동 526-17,30,37.545565,126.874293,USER,"염창역도보2분,풀옵션",78,78,서울,양천구,empty,목동중앙북로 102,78,78,78,78,232,233,234,/homeImage/78/01.jpg,/homeImage/78/02.jpg,/homeImage/78/03.jpg,78,/hostImage/78.jpg,0,1,0,0,0,0,1,1,0
66066d4312efd3b938d7dc19,1,1,1,1,1,1,1,0,1,0,0,0,1,1,OR,1,0,1,0,0,0,0,1,1,1,79,김현정,75,01071127739,F,박민지,01088578892,자녀,000227-2513592,xx-xxxxx-xxx,하나,서울 양천구 목동 789-37,30,37.533452,126.865459,USER,목사거리인근 신축급 올수리 여성전용 원룸,79,79,서울,양천구,empty,목동중앙서로3길 20,79,79,79,79,235,236,237,/homeImage/79/01.jpg,/homeImage/79/02.jpg,/homeImage/79/03.jpg,79,/hostImage/79.jpg,0,0,1,0,0,2,0,1,1
66066d4312efd3b938d7dc1a,1,1,1,1,1,1,1,0,1,0,0,1,1,1,OR,1,1,0,0,1,1,0,1,0,0,80,황서연,79,01053916174,M,김정순,01025951697,자녀,990718-2735074,xx-xxxxx-xxx,신한,서울 양천구 목동 526-17,30,37.545565,126.874293,USER,염창역 최저가 풀옵션 관리 잘해서 깔끔한 원룸,80,80,서울,양천구,empty,목동중앙북로 102,80,80,80,80,238,239,240,/homeImage/80/01.jpg,/homeImage/80/02.jpg,/homeImage/80/03.jpg,80,/hostImage/80.jpg,0,1,1,1,0,0,1,1,0
66066d4312efd3b938d7dc1b,1,1,1,1,1,1,1,1,1,0,0,0,1,1,VL,1,1,1,1,1,0,0,1,1,0,81,이정숙,83,01094636036,M,김명자,01015292845,자녀,560614-2479353,xx-xxxxx-xxx,우체국,서울 양천구 목동 779-16,47,37.534834,126.866647,USER,깔끔하고 실용적인 저렴한 원룸월세,81,81,서울,양천구,empty,목동중앙서로11길 65,81,81,81,81,241,242,243,/homeImage/81/01.jpg,/homeImage/81/02.jpg,/homeImage/81/03.jpg,81,/hostImage/81.jpg,1,1,1,0,0,1,1,1,1
66066d4312efd3b938d7dc1c,1,1,1,1,1,1,1,1,1,0,1,0,1,1,DDDGG,1,1,1,0,0,0,0,1,1,1,82,김시우,88,01043138789,F,이현준,01003930019,자녀,700626-1333013,xx-xxxxx-xxx,우리,서울 양천구 목동 788-5,40,37.533862,126.864318,UNAUTHORIZED_MEMBER,주차가능.옥탑방전용면적9.넓음.풀옵션.옥상씀.큰도로옆안전,82,82,서울,양천구,empty,목동중앙서로7나길 11,82,82,82,82,244,245,246,/homeImage/82/01.jpg,/homeImage/82/02.jpg,/homeImage/82/03.jpg,82,/hostImage/82.jpg,0,0,1,0,0,2,1,1,1
66066d4312efd3b938d7dc1d,1,1,1,1,0,1,1,0,1,1,0,1,0,0,OR,0,1,0,0,0,1,0,1,1,1,83,권미숙,73,01081131283,M,박동현,01085734907,자녀,950719-1025792,xx-xxxxx-xxx,농협,서울 양천구 목동 604-2,41,37.550155,126.86598,UNAUTHORIZED_MEMBER,empty,83,83,서울,양천구,empty,공항대로 542,83,83,83,83,247,248,249,/homeImage/83/01.jpg,/homeImage/83/02.jpg,/homeImage/83/03.jpg,83,/hostImage/83.jpg,0,0,0,1,0,1,1,1,1
66066d4312efd3b938d7dc1e,1,1,1,1,1,1,1,1,1,0,1,0,1,1,DDDGG,0,1,0,1,1,1,1,0,1,1,84,김서영,94,01071767465,F,김성민,01068982263,자녀,240218-2448061,xx-xxxxx-xxx,카카오,서울 양천구 목동 789-30,40,37.533696,126.865138,USER,조용한 주택가. 바닥층. 도배 등 수리되어깨끗. 대중교통이용편리,84,84,서울,양천구,empty,목동중앙서로7길 17,84,84,84,84,250,251,252,/homeImage/84/01.jpg,/homeImage/84/02.jpg,/homeImage/84/03.jpg,84,/hostImage/84.jpg,1,1,0,1,1,1,1,0,1
66066d4312efd3b938d7dc1f,1,1,1,1,1,1,1,1,1,0,1,0,1,1,DDDGG,1,0,0,0,1,1,0,1,1,0,85,한서영,69,01021071362,M,박서연,01061932159,자녀,290729-2246602,xx-xxxxx-xxx,하나,서울 양천구 목동 789-30,40,37.533696,126.865138,USER,올수리 깨끗한 방2,85,85,서울,양천구,empty,목동중앙서로7길 17,85,85,85,85,253,254,255,/homeImage/85/01.jpg,/homeImage/85/02.jpg,/homeImage/85/03.jpg,85,/hostImage/85.jpg,0,1,1,1,0,0,0,1,1
66066d4312efd3b938d7dc20,1,1,1,1,1,1,1,0,1,0,0,1,1,1,OR,0,0,0,0,1,0,0,1,0,1,86,유영순,85,01038035939,M,김지아,01097195535,자녀,600906-1988264,xx-xxxxx-xxx,농협,서울 양천구 목동 604-2,41,37.550155,126.86598,UNAUTHORIZED_MEMBER,등촌역 초역세권 보증금 저렴한 원룸,86,86,서울,양천구,empty,공항대로 542,86,86,86,86,256,257,258,/homeImage/86/01.jpg,/homeImage/86/02.jpg,/homeImage/86/03.jpg,86,/hostImage/86.jpg,0,1,0,0,0,1,0,1,0
66066d4312efd3b938d7dc21,1,1,1,1,1,1,1,1,1,0,0,1,1,1,OR,0,0,0,0,0,0,1,0,0,1,87,손경숙,95,01095542431,F,김정식,01026863198,자녀,680622-1292772,xx-xxxxx-xxx,씨티,서울 양천구 목동 604-2,41,37.550155,126.86598,USER,"안전한 대로변위치,9호선 등촌역 깨끗한 풀옵션",87,87,서울,양천구,empty,공항대로 542,87,87,87,87,259,260,261,/homeImage/87/01.jpg,/homeImage/87/02.jpg,/homeImage/87/03.jpg,87,/hostImage/87.jpg,0,0,0,0,1,1,0,0,0
66066d4312efd3b938d7dc22,1,1,1,1,1,1,1,0,1,0,0,1,1,1,VL,0,1,0,1,1,1,0,0,1,1,88,김서윤,91,01028753881,M,김상훈,01083009972,자녀,280402-1276092,xx-xxxxx-xxx,부산,서울 양천구 신정동 999-24,57,37.524506,126.862248,USER,풀옵션 깔끔 채광좋은 바닥층 목동역4분 빌라형 다가구,88,88,서울,양천구,empty,목동로17길 16,88,88,88,88,262,263,264,/homeImage/88/01.jpg,/homeImage/88/02.jpg,/homeImage/88/03.jpg,88,/hostImage/88.jpg,1,1,0,1,0,1,1,0,1
66066d4312efd3b938d7dc23,1,1,1,1,1,1,1,1,1,0,0,1,1,1,DDDGG,0,1,1,0,1,0,1,0,0,1,89,이진호,65,01037428349,M,김윤서,01022897276,자녀,380428-2783229,xx-xxxxx-xxx,우체국,서울 양천구 신정동 888-4,35,37.527068,126.861904,USER,목동역 단독주택에 있는 옥탑 입니다.,89,89,서울,양천구,empty,신정중앙로21길 12,89,89,89,89,265,266,267,/homeImage/89/01.jpg,/homeImage/89/02.jpg,/homeImage/89/03.jpg,89,/hostImage/89.jpg,0,1,0,0,1,2,1,0,0
66066d4312efd3b938d7dc24,1,1,1,1,1,1,1,1,1,0,1,0,1,1,DDDGG,1,1,1,0,1,0,1,0,0,0,90,이승현,90,01089652193,F,홍경자,01006194374,자녀,890207-1171070,xx-xxxxx-xxx,신한,서울 양천구 신월동 153-5,25,37.534563,126.824885,UNAUTHORIZED_MEMBER,신월3동옥탑방,90,90,서울,양천구,empty,가로공원로60길 8,90,90,90,90,268,269,270,/homeImage/90/01.jpg,/homeImage/90/02.jpg,/homeImage/90/03.jpg,90,/hostImage/90.jpg,0,1,1,0,1,1,1,0,0
66066d4312efd3b938d7dc25,1,1,1,1,1,1,1,0,1,0,0,0,1,1,OR,0,0,1,0,1,0,0,1,1,0,91,안영식,97,01055234355,F,김예진,01083684696,자녀,520106-2092091,xx-xxxxx-xxx,우체국,서울 양천구 신월동 166-10,42,37.534291,126.829007,USER,"JS드림,대로변,복층,저렴한관리비",91,91,서울,양천구,empty,남부순환로 368,91,91,91,91,271,272,273,/homeImage/91/01.jpg,/homeImage/91/02.jpg,/homeImage/91/03.jpg,91,/hostImage/91.jpg,0,1,0,0,0,1,0,1,1
66066d4312efd3b938d7dc26,1,1,1,1,1,1,1,1,1,0,0,0,1,1,OR,1,0,0,1,0,0,1,1,1,0,92,장민석,86,01001208983,F,신성진,01090533371,자녀,060406-1098243,xx-xxxxx-xxx,케이,서울 양천구 신월동 166-10,44,37.534291,126.829007,USER,"JS드림,대로변,복층,저렴한관리비",92,92,서울,양천구,empty,남부순환로 368,92,92,92,92,274,275,276,/homeImage/92/01.jpg,/homeImage/92/02.jpg,/homeImage/92/03.jpg,92,/hostImage/92.jpg,1,0,1,0,1,0,0,1,1
66066d4312efd3b938d7dc27,1,1,1,1,1,1,1,0,1,0,0,0,1,1,DDDGG,1,1,0,0,1,0,0,1,1,0,93,지준서,80,01072133240,M,김경수,01036593218,자녀,420722-2294699,xx-xxxxx-xxx,씨티,서울 양천구 신월동 22-6,40,37.54056,126.832364,UNAUTHORIZED_MEMBER,신축수준으로 올수리 밝고 습기없는 반지층 방2,93,93,서울,양천구,empty,월정로46길 4,93,93,93,93,277,278,279,/homeImage/93/01.jpg,/homeImage/93/02.jpg,/homeImage/93/03.jpg,93,/hostImage/93.jpg,0,1,1,0,0,0,1,1,1
66066d4312efd3b938d7dc28,1,1,1,1,1,1,1,0,1,0,0,0,1,1,DDDGG,0,0,1,1,1,1,1,0,0,1,94,홍은서,100,01086759779,M,남민지,01095040666,자녀,920303-1633934,xx-xxxxx-xxx,제주,서울 양천구 신월동 186-24,35,37.532368,126.825228,USER,"신월사거리 8분,다가구 지상1층 방2,벽걸이에어컨 옵션,실면적 약7",94,94,서울,양천구,empty,남부순환로40길 85,94,94,94,94,280,281,282,/homeImage/94/01.jpg,/homeImage/94/02.jpg,/homeImage/94/03.jpg,94,/hostImage/94.jpg,1,1,0,1,1,2,0,0,0
66066d4312efd3b938d7dc29,1,1,1,1,1,1,1,1,1,0,0,1,1,1,OR,1,1,1,0,0,0,0,1,0,0,95,허유진,83,01030527483,F,윤예은,01014543275,자녀,240210-1734247,xx-xxxxx-xxx,수협,서울 동작구 노량진동 148-62,37,37.513309,126.945607,UNAUTHORIZED_MEMBER,권리관계확실한 풀옵션전세원룸,95,95,서울,동작구,empty,만양로18길 19,95,95,95,95,283,284,285,/homeImage/95/01.jpg,/homeImage/95/02.jpg,/homeImage/95/03.jpg,95,/hostImage/95.jpg,0,0,1,0,0,1,1,1,0
66066d4312efd3b938d7dc2a,1,1,1,1,1,1,1,0,1,0,1,0,1,1,OR,0,0,1,0,1,0,1,0,1,1,96,김순자,67,01057494854,M,김지은,01035525749,자녀,840516-1208089,xx-xxxxx-xxx,농협,서울 동작구 노량진동 218-100,35,37.508466,126.946443,USER,고시원가격의 가성비좋은 풀옵션원룸,96,96,서울,동작구,empty,만양로11길 3,96,96,96,96,286,287,288,/homeImage/96/01.jpg,/homeImage/96/02.jpg,/homeImage/96/03.jpg,96,/hostImage/96.jpg,0,1,0,0,1,2,0,0,1
66066d4312efd3b938d7dc2b,1,1,1,1,1,1,1,0,1,0,1,0,1,1,OR,1,1,1,1,1,1,0,0,0,1,97,황성진,87,01033337182,M,이승현,01076021933,자녀,690318-1224188,xx-xxxxx-xxx,부산,서울 동작구 노량진동 215-102,32,37.508769,126.947283,UNAUTHORIZED_MEMBER,고시원가격의 풀옵션원룸,97,97,서울,동작구,empty,만양로6길 16,97,97,97,97,289,290,291,/homeImage/97/01.jpg,/homeImage/97/02.jpg,/homeImage/97/03.jpg,97,/hostImage/97.jpg,1,1,1,1,0,2,1,0,0
66066d4312efd3b938d7dc2c,1,1,1,1,1,1,1,0,1,0,0,0,1,1,OR,0,1,0,0,1,1,0,0,1,1,98,지채원,98,01090985477,M,이광수,01025301400,자녀,860924-2198515,xx-xxxxx-xxx,카카오,서울 동작구 노량진동 215-106,28,37.508613,126.947413,USER,권리관계확실한 고시원가격의 풀옵션원룸입니다,98,98,서울,동작구,empty,만양로6길 12,98,98,98,98,292,293,294,/homeImage/98/01.jpg,/homeImage/98/02.jpg,/homeImage/98/03.jpg,98,/hostImage/98.jpg,0,1,0,1,0,1,1,0,1
66066d4312efd3b938d7dc2d,1,1,1,1,1,1,1,1,1,0,1,0,1,1,OR,0,1,1,1,1,0,1,0,0,0,99,주승현,81,01090817477,M,김서준,01044663181,자녀,090608-1162252,xx-xxxxx-xxx,부산,서울 동작구 노량진동 205-141,40,37.511081,126.947823,USER,노량진 학원가부근 가격대비 방크고 채광과 통풍좋은 깨끗한 원룸,99,99,서울,동작구,empty,만양로12가길 10,99,99,99,99,295,296,297,/homeImage/99/01.jpg,/homeImage/99/02.jpg,/homeImage/99/03.jpg,99,/hostImage/99.jpg,1,1,0,0,1,1,1,0,0
66066d4312efd3b938d7dc2e,0,1,1,1,0,1,1,1,0,1,0,1,1,1,OR,0,1,1,0,1,1,1,1,1,1,100,최윤서,72,01086432269,F,황중수,01063348709,자녀,230929-2171259,xx-xxxxx-xxx,씨티,서울 동작구 대방동 392-16,28,37.502576,126.927457,UNAUTHORIZED_MEMBER,empty,100,100,서울,동작구,empty,대방동2길 33,100,100,100,100,298,299,300,/homeImage/100/01.jpg,/homeImage/100/02.jpg,/homeImage/100/03.jpg,100,/hostImage/100.jpg,0,1,0,1,1,2,1,1,1
66066d4312efd3b938d7dc2f,1,1,1,1,1,1,1,1,1,0,1,0,1,1,OR,1,1,1,0,1,1,1,1,0,0,101,김준서,84,01037726230,M,이영순,01076997347,자녀,640713-1089840,xx-xxxxx-xxx,농협,서울 동작구 노량진동 219-33,55,37.508682,126.946478,UNAUTHORIZED_MEMBER,대로변이고 동선이 안전한 창문이2개임,101,101,서울,동작구,empty,만양로 53,101,101,101,101,301,302,303,/homeImage/101/01.jpg,/homeImage/101/02.jpg,/homeImage/101/03.jpg,101,/hostImage/101.jpg,0,1,1,1,1,1,1,1,0
66066d4312efd3b938d7dc30,1,1,1,1,1,1,1,0,1,0,0,0,1,1,OR,1,0,1,0,1,1,0,1,1,0,102,김서준,97,01050986999,M,강지현,01079103117,자녀,380025-1056626,xx-xxxxx-xxx,농협,서울 동작구 노량진동 205-141,37,37.511081,126.947823,USER,방에 비해 정말 가격저렴하고 채광과 통풍좋은 깨끗한 원룸,102,102,서울,동작구,empty,만양로12가길 10,102,102,102,102,304,305,306,/homeImage/102/01.jpg,/homeImage/102/02.jpg,/homeImage/102/03.jpg,102,/hostImage/102.jpg,0,1,1,1,0,1,0,1,1
66066d4312efd3b938d7dc31,1,1,1,1,1,1,1,1,1,0,0,0,1,1,OR,1,0,0,0,1,0,1,0,0,0,103,최수진,79,01018563173,F,박미정,01036062926,자녀,440227-1162176,xx-xxxxx-xxx,경남,서울 동작구 노량진동 218-59,32,37.508376,126.946456,UNAUTHORIZED_MEMBER,집주인이 관리를잘해주는 권리관계확실한 매물입니다,103,103,서울,동작구,empty,만양로11길 3,103,103,103,103,307,308,309,/homeImage/103/01.jpg,/homeImage/103/02.jpg,/homeImage/103/03.jpg,103,/hostImage/103.jpg,0,1,1,0,1,0,0,0,0
66066d4312efd3b938d7dc32,1,1,1,1,1,1,1,1,1,0,1,0,1,1,OR,0,0,0,0,1,1,0,1,1,0,104,황채원,100,01020031508,F,이진호,01075168751,자녀,690024-1038909,xx-xxxxx-xxx,카카오,서울 동작구 노량진동 214-127,47,37.50868,126.947534,UNAUTHORIZED_MEMBER,2018년신축한 방음이뛰어난풀옵션원룸,104,104,서울,동작구,empty,만양로8길 13,104,104,104,104,310,311,312,/homeImage/104/01.jpg,/homeImage/104/02.jpg,/homeImage/104/03.jpg,104,/hostImage/104.jpg,0,1,0,1,0,0,0,1,1
66066d4312efd3b938d7dc33,1,1,0,0,0,1,0,0,0,0,0,1,0,1,OR,0,0,1,0,0,1,0,1,0,1,105,장진호,73,01034518228,M,이서영,01014973391,자녀,330924-1249539,xx-xxxxx-xxx,대구,서울 동작구 대방동 391-87,38,37.501832,126.92791,UNAUTHORIZED_MEMBER,empty,105,105,서울,동작구,empty,대방동길 27,105,105,105,105,313,314,315,/homeImage/105/01.jpg,/homeImage/105/02.jpg,/homeImage/105/03.jpg,105,/hostImage/105.jpg,0,0,0,1,0,2,0,1,0
66066d4312efd3b938d7dc34,1,1,1,1,1,1,1,0,1,0,0,1,1,1,OR,1,0,0,0,1,0,0,1,1,0,106,김옥자,93,01013338228,F,서채원,01080228133,자녀,790501-2307586,xx-xxxxx-xxx,수협,서울 동작구 상도동 356-86,31,37.503334,126.933507,UNAUTHORIZED_MEMBER,저렴한 원룸이 있다 깔끔한을 원한다면 한번 봅시다,106,106,서울,동작구,empty,상도로15마길 21,106,106,106,106,316,317,318,/homeImage/106/01.jpg,/homeImage/106/02.jpg,/homeImage/106/03.jpg,106,/hostImage/106.jpg,0,1,1,0,0,0,0,1,1
66066d4312efd3b938d7dc35,1,1,1,1,1,1,1,0,1,0,0,0,1,1,OR,1,1,0,0,1,1,0,1,0,0,107,이영식,67,01021597055,M,김지원,01016001312,자녀,920526-2164918,xx-xxxxx-xxx,국민,서울 동작구 노량진동 222-51,34,37.509568,126.946013,USER,저렴하고 화이트톤의 깨끗한 매물,107,107,서울,동작구,empty,만양로12길 6,107,107,107,107,319,320,321,/homeImage/107/01.jpg,/homeImage/107/02.jpg,/homeImage/107/03.jpg,107,/hostImage/107.jpg,0,1,1,1,0,0,1,1,0
66066d4312efd3b938d7dc36,1,1,1,1,1,1,1,1,1,0,1,1,1,1,OR,1,1,1,0,1,1,1,0,1,0,108,권서윤,81,01013271740,M,조상훈,01033479207,자녀,570314-1134656,xx-xxxxx-xxx,우리,서울 동작구 상도동 247-6,50,37.500102,126.933507,UNAUTHORIZED_MEMBER,신대방삼거리역 1번출구 도보 3분 초역세권 저렴하고 깔끔한 원룸,108,108,서울,동작구,empty,성대로3길 8,108,108,108,108,322,323,324,/homeImage/108/01.jpg,/homeImage/108/02.jpg,/homeImage/108/03.jpg,108,/hostImage/108.jpg,0,1,1,1,1,1,1,0,1
66066d4312efd3b938d7dc37,1,1,1,1,1,1,1,1,1,0,0,1,1,1,OR,0,0,1,0,1,0,0,1,0,1,109,이시우,73,01072408492,F,오선영,01071054469,자녀,220313-2456642,xx-xxxxx-xxx,산업,서울 동작구 노량진동 277-8,36,37.512204,126.936138,UNAUTHORIZED_MEMBER,깔끔한 가성비 좋은 원룸풀옵션,109,109,서울,동작구,empty,노량진로8가길 19,109,109,109,109,325,326,327,/homeImage/109/01.jpg,/homeImage/109/02.jpg,/homeImage/109/03.jpg,109,/hostImage/109.jpg,0,1,0,0,0,2,0,1,0
66066d4312efd3b938d7dc38,1,1,1,1,1,1,1,0,1,0,0,1,1,1,OR,1,0,0,0,0,0,0,1,0,0,110,정상훈,67,01067817598,M,김영환,01088655768,자녀,500207-2048429,xx-xxxxx-xxx,부산,서울 동작구 상도동 361-69,35,37.504562,126.935673,UNAUTHORIZED_MEMBER,장승배기역 4번출구 도보 3분거리 초역세권 도배예정 깔끔한 원룸여기,110,110,서울,동작구,empty,상도로15차길 5,110,110,110,110,328,329,330,/homeImage/110/01.jpg,/homeImage/110/02.jpg,/homeImage/110/03.jpg,110,/hostImage/110.jpg,0,0,1,0,0,0,0,1,0
66066d4312efd3b938d7dc39,1,1,1,1,1,1,1,1,1,0,0,1,1,1,OR,1,1,0,1,1,1,0,1,0,0,111,이미정,80,01042040429,F,최준영,01083718966,자녀,750026-1605893,xx-xxxxx-xxx,씨티,서울 동작구 상도동 356-86,32,37.503334,126.933507,USER,장승배기역 도보 7분 역세권 풀옵션 가성비 좋은 원룸,111,111,서울,동작구,empty,상도로15마길 21,111,111,111,111,331,332,333,/homeImage/111/01.jpg,/homeImage/111/02.jpg,/homeImage/111/03.jpg,111,/hostImage/111.jpg,1,1,1,1,0,0,1,1,0
66066d4312efd3b938d7dc3a,1,1,1,1,1,1,1,1,1,0,0,1,1,1,OR,0,0,1,1,1,0,0,1,0,1,112,이현우,75,01078396293,F,권영미,01088555473,자녀,440512-1489606,xx-xxxxx-xxx,대구,서울 동작구 노량진동 127-3,37,37.512401,126.946188,UNAUTHORIZED_MEMBER,가성비최고 크기좋고 깨끗한 풀옵션 원룸,112,112,서울,동작구,empty,만양로14나길 19,112,112,112,112,334,335,336,/homeImage/112/01.jpg,/homeImage/112/02.jpg,/homeImage/112/03.jpg,112,/hostImage/112.jpg,1,1,0,0,0,2,0,1,0
66066d4312efd3b938d7dc3b,1,1,1,1,1,1,1,0,1,0,0,1,1,1,OR,0,0,0,0,0,0,1,0,1,1,113,백정식,73,01050194935,M,윤지혜,01029812948,자녀,230821-1072876,xx-xxxxx-xxx,기업,서울 동작구 대방동 391-301,40,37.501837,126.924584,UNAUTHORIZED_MEMBER,보라매역 도보 8분 풀옵션 원룸,113,113,서울,동작구,empty,대방동27길 73,113,113,113,113,337,338,339,/homeImage/113/01.jpg,/homeImage/113/02.jpg,/homeImage/113/03.jpg,113,/hostImage/113.jpg,0,0,0,0,1,1,0,0,1
66066d4312efd3b938d7dc3c,1,1,1,1,1,1,1,0,1,0,0,1,1,1,OR,1,0,0,0,0,1,1,1,0,0,114,송재현,83,01031406628,F,백미영,01003747936,자녀,170106-1153940,xx-xxxxx-xxx,케이,서울 동작구 노량진동 244-34,40,37.511596,126.938471,USER,노량진 학원가 인접 깔끔한방,114,114,서울,동작구,empty,장승배기로27길 16,114,114,114,114,340,341,342,/homeImage/114/01.jpg,/homeImage/114/02.jpg,/homeImage/114/03.jpg,114,/hostImage/114.jpg,0,0,1,1,1,0,0,1,0
66066d4312efd3b938d7dc3d,1,1,1,1,1,1,1,1,1,0,0,1,1,1,OR,0,0,0,0,1,1,1,0,0,1,115,서서연,96,01055615465,F,우성훈,01060082248,자녀,140417-1966973,xx-xxxxx-xxx,하나,서울 동작구 대방동 391-540,35,37.501324,126.927407,UNAUTHORIZED_MEMBER,신대방삼거리역 도보 3분 깔끔하고 가성비 좋은 원룸,115,115,서울,동작구,empty,대방동5길 4,115,115,115,115,343,344,345,/homeImage/115/01.jpg,/homeImage/115/02.jpg,/homeImage/115/03.jpg,115,/hostImage/115.jpg,0,1,0,1,1,1,0,0,0
66066d4312efd3b938d7dc3e,1,1,1,1,1,1,1,1,1,0,0,1,1,1,OR,1,0,0,1,0,1,0,0,1,0,116,강승현,66,01090371712,F,이경숙,01019583099,자녀,540009-1484976,xx-xxxxx-xxx,신한,서울 동작구 대방동 391-23,42,37.501686,126.927859,USER,신대방삼거리역 도보 4분 풀옵션 역세권 원룸,116,116,서울,동작구,empty,대방동길 21,116,116,116,116,346,347,348,/homeImage/116/01.jpg,/homeImage/116/02.jpg,/homeImage/116/03.jpg,116,/hostImage/116.jpg,1,0,1,1,0,0,0,0,1
66066d4312efd3b938d7dc3f,1,1,1,1,1,1,1,0,1,0,0,0,1,1,OR,0,1,1,0,0,0,1,0,1,1,117,최현준,82,01022165380,F,윤상호,01056789265,자녀,110622-2106457,xx-xxxxx-xxx,토스,서울 동작구 대방동 391-245,38,37.502724,126.924984,UNAUTHORIZED_MEMBER,가성비 끝판왕 풀옵션 원룸,117,117,서울,동작구,empty,대방동15길 5,117,117,117,117,349,350,351,/homeImage/117/01.jpg,/homeImage/117/02.jpg,/homeImage/117/03.jpg,117,/hostImage/117.jpg,0,0,0,0,1,2,1,0,1
66066d4312efd3b938d7dc40,1,1,1,1,1,1,1,1,1,0,0,1,1,1,OR,0,1,1,1,0,1,0,0,0,1,118,김지우,99,01069927315,M,최재호,01006596354,자녀,820123-1298018,xx-xxxxx-xxx,하나,서울 동작구 대방동 391-152,40,37.501173,126.925904,USER,신대방삼거리역 도보 4분 초역세권 풀옵션 원룸,118,118,서울,동작구,empty,대방동3길 29,118,118,118,118,352,353,354,/homeImage/118/01.jpg,/homeImage/118/02.jpg,/homeImage/118/03.jpg,118,/hostImage/118.jpg,1,0,0,1,0,2,1,0,0
66066d4312efd3b938d7dc41,1,1,1,1,1,1,1,0,1,0,0,0,1,1,OR,0,0,1,1,0,1,1,0,1,0,119,장상철,80,01036478763,F,노미정,01081591172,자녀,000708-2518133,xx-xxxxx-xxx,우체국,서울 동작구 상도1동 483-1,60,37.503738,126.951926,UNAUTHORIZED_MEMBER,중앙대 초역세권 가장 넓은 원룸,119,119,서울,동작구,empty,상도로47길 102,119,119,119,119,355,356,357,/homeImage/119/01.jpg,/homeImage/119/02.jpg,/homeImage/119/03.jpg,119,/hostImage/119.jpg,1,0,0,1,1,1,0,0,1
66066d4312efd3b938d7dc42,1,1,1,1,1,1,1,1,1,0,0,1,1,1,OR,0,0,0,0,1,0,1,1,1,1,120,한영순,69,01067432234,F,김지아,01001061300,자녀,840911-1378893,xx-xxxxx-xxx,대구,서울 동작구 노량진동 270,40,37.512297,126.935181,UNAUTHORIZED_MEMBER,위치놓고깔끔한원룸,120,120,서울,동작구,empty,등용로14길 66,120,120,120,120,358,359,360,/homeImage/120/01.jpg,/homeImage/120/02.jpg,/homeImage/120/03.jpg,120,/hostImage/120.jpg,0,1,0,0,1,1,0,1,1
66066d4312efd3b938d7dc43,1,1,1,1,1,1,1,1,1,0,0,1,1,1,OR,0,1,0,1,1,0,0,0,0,0,121,박정수,78,01026598626,M,이지은,01073449517,자녀,600814-1489959,xx-xxxxx-xxx,농협,서울 동작구 노량진동 270,58,37.512297,126.935181,UNAUTHORIZED_MEMBER,위치놓고깔끔한원룸,121,121,서울,동작구,empty,등용로14길 66,121,121,121,121,361,362,363,/homeImage/121/01.jpg,/homeImage/121/02.jpg,/homeImage/121/03.jpg,121,/hostImage/1.jpg,1,1,0,0,0,0,1,0,0
66066d4312efd3b938d7dc44,1,1,1,1,1,1,1,1,1,0,0,1,1,1,OR,0,0,1,1,1,1,0,1,0,0,122,김지원,67,01037489559,F,최성진,01066089950,자녀,220003-1207691,xx-xxxxx-xxx,씨티,서울 동작구 대방동 391-561,35,37.500816,126.924228,UNAUTHORIZED_MEMBER,보라매역 도보 5분 초역세권 풀옵션 원룸,122,122,서울,동작구,empty,대방동27길 97,122,122,122,122,364,365,366,/homeImage/122/01.jpg,/homeImage/122/02.jpg,/homeImage/122/03.jpg,122,/hostImage/2.jpg,1,1,0,1,0,1,0,1,0
66066d4312efd3b938d7dc45,1,1,1,1,1,1,1,1,1,0,0,1,1,1,OR,1,0,0,0,0,1,1,1,0,1,123,김민재,69,01066192288,F,최정남,01074108221,자녀,280922-1411011,xx-xxxxx-xxx,광주,서울 동작구 노량진동 270,40,37.512297,126.935181,USER,위치놓고깔끔한원룸,123,123,서울,동작구,empty,등용로14길 66,123,123,123,123,367,368,369,/homeImage/123/01.jpg,/homeImage/123/02.jpg,/homeImage/123/03.jpg,123,/hostImage/3.jpg,0,0,1,1,1,1,0,1,0
66066d4312efd3b938d7dc46,1,1,1,1,1,1,1,1,1,0,0,1,1,1,OR,1,0,1,0,1,0,0,0,0,1,124,김지은,75,01032031666,M,지경수,01048042834,자녀,000015-1160171,xx-xxxxx-xxx,경남,서울 동작구 대방동 391-559,42,37.50054,126.924358,USER,신대방삼거리역 보라매역 도보 5분거리 역세권 풀옵션 원룸,124,124,서울,동작구,empty,대방동1길 30,124,124,124,124,370,371,372,/homeImage/124/01.jpg,/homeImage/124/02.jpg,/homeImage/124/03.jpg,124,/hostImage/4.jpg,0,1,1,0,0,2,0,0,0
66066d4312efd3b938d7dc47,1,1,1,1,1,1,1,1,1,0,0,1,1,1,OR,1,1,1,0,1,1,1,1,0,0,125,황은정,91,01012285801,M,최성진,01025435140,자녀,060112-2971208,xx-xxxxx-xxx,케이,서울 동작구 노량진동 120-20,40,37.510986,126.943759,USER,컨디션 좋은 가성비 최고매물,125,125,서울,동작구,empty,만양로15길 14,125,125,125,125,373,374,375,/homeImage/125/01.jpg,/homeImage/125/02.jpg,/homeImage/125/03.jpg,125,/hostImage/5.jpg,0,1,1,1,1,1,1,1,0
66066d4312efd3b938d7dc48,1,1,1,1,1,1,1,0,1,0,0,1,1,1,OR,1,1,0,1,0,0,1,0,1,0,126,이시우,76,01062102894,F,박시우,01004358824,자녀,650021-1769280,xx-xxxxx-xxx,광주,서울 동작구 노량진동 127-11,43,37.512498,126.946252,USER,가성비굿 위치좋고 컨디션 좋은 리모델링 귀한 매물,126,126,서울,동작구,empty,만양로14길 39,126,126,126,126,376,377,378,/homeImage/126/01.jpg,/homeImage/126/02.jpg,/homeImage/126/03.jpg,126,/hostImage/6.jpg,1,0,1,0,1,0,1,0,1
66066d4312efd3b938d7dc49,1,1,1,1,1,1,1,0,1,0,0,0,1,1,OR,0,1,0,1,1,1,0,1,0,1,127,이정수,74,01030969943,F,강현우,01035594778,자녀,910902-1766732,xx-xxxxx-xxx,우체국,서울 동작구 노량진동 219-33,43,37.508682,126.946478,USER,대로변이고 동선이 안전한 2018년신축된 방음이좋은원룸,127,127,서울,동작구,empty,만양로 53,127,127,127,127,379,380,381,/homeImage/127/01.jpg,/homeImage/127/02.jpg,/homeImage/127/03.jpg,127,/hostImage/7.jpg,1,1,0,1,0,1,1,1,0
66066d4312efd3b938d7dc4a,1,1,1,1,1,1,1,0,1,0,0,1,1,1,OR,1,0,1,0,1,1,1,0,0,0,128,박성민,75,01062031220,M,김우진,01023632777,자녀,490102-1127106,xx-xxxxx-xxx,부산,서울 동작구 노량진동 277-8,33,37.512204,126.936138,USER,노량진에서 귀한 큰 원룸입니다,128,128,서울,동작구,empty,노량진로8가길 19,128,128,128,128,382,383,384,/homeImage/128/01.jpg,/homeImage/128/02.jpg,/homeImage/128/03.jpg,128,/hostImage/8.jpg,0,1,1,1,1,1,0,0,0
66066d4312efd3b938d7dc4b,1,1,1,1,1,1,1,0,1,0,1,0,1,1,OR,0,1,1,0,0,0,0,1,0,1,129,나지후,87,01072276838,F,남정웅,01096653100,자녀,520212-2732176,xx-xxxxx-xxx,산업,서울 동작구 노량진동 219-34,44,37.508563,126.946556,USER,실제면적 훨씬 넓고 앞이 틔여있어 채광좋고 깨끗한 도시형생활주택,129,129,서울,동작구,empty,만양로 51,129,129,129,129,385,386,387,/homeImage/129/01.jpg,/homeImage/129/02.jpg,/homeImage/129/03.jpg,129,/hostImage/9.jpg,0,0,0,0,0,2,1,1,0
66066d4312efd3b938d7dc4c,1,1,1,1,1,1,1,0,1,0,0,1,1,1,OR,0,1,0,1,1,0,1,0,1,1,130,장영철,95,01044278181,F,윤상훈,01069386801,자녀,450409-2516298,xx-xxxxx-xxx,하나,서울 동작구 노량진동 262-5,38,37.512443,126.936114,USER,노량진에서 보기힘든 완전깔끔한 화이트톤원룸,130,130,서울,동작구,empty,노량진로6가길 3,130,130,130,130,388,389,390,/homeImage/130/01.jpg,/homeImage/130/02.jpg,/homeImage/130/03.jpg,130,/hostImage/10.jpg,1,1,0,0,1,1,1,0,1
66066d4312efd3b938d7dc4d,1,1,1,1,1,1,1,0,1,0,0,1,1,1,OR,1,1,0,1,0,0,0,1,0,1,131,박정숙,92,01017541698,F,황성훈,01027373041,자녀,570615-1422370,xx-xxxxx-xxx,국민,서울 동작구 노량진동 267-21,29,37.512535,126.934998,UNAUTHORIZED_MEMBER,깔끔하고 저렴한 원룸 찾으시는분들,131,131,서울,동작구,empty,등용로14길 63,131,131,131,131,391,392,393,/homeImage/131/01.jpg,/homeImage/131/02.jpg,/homeImage/131/03.jpg,131,/hostImage/11.jpg,1,0,1,0,0,1,1,1,0
66066d4312efd3b938d7dc4e,1,1,1,1,1,1,1,0,1,0,0,1,1,1,OR,1,0,0,1,1,0,1,0,0,1,132,임상훈,93,01061663560,F,박순자,01096020592,자녀,950427-2974568,xx-xxxxx-xxx,토스,서울 동작구 노량진동 119-113,30,37.511229,126.943678,USER,저렴하고 위치좋은 원룸 찾으시나,132,132,서울,동작구,empty,만양로15길 6,132,132,132,132,394,395,396,/homeImage/132/01.jpg,/homeImage/132/02.jpg,/homeImage/132/03.jpg,132,/hostImage/12.jpg,1,1,1,0,1,1,0,0,0
66066d4312efd3b938d7dc4f,1,1,1,1,1,1,1,0,1,0,0,1,1,1,OR,0,1,1,0,1,1,0,0,0,0,133,박은정,98,01017304093,F,류정호,01058800984,자녀,910604-1755176,xx-xxxxx-xxx,카카오,서울 동작구 노량진동 253-5,45,37.51119,126.938202,UNAUTHORIZED_MEMBER,깔끔하고 단아한 원룸입니다,133,133,서울,동작구,empty,노량진로10길 45,133,133,133,133,397,398,399,/homeImage/133/01.jpg,/homeImage/133/02.jpg,/homeImage/133/03.jpg,133,/hostImage/13.jpg,0,1,0,1,0,1,1,0,0
66066d4312efd3b938d7dc50,1,1,1,1,1,1,1,0,1,0,0,1,1,1,OR,0,0,0,1,1,1,1,1,0,1,134,박지혜,74,01094740915,M,김준혁,01058036990,자녀,640903-1034033,xx-xxxxx-xxx,신한,서울 동작구 노량진동 276-3,45,37.512043,126.936445,UNAUTHORIZED_MEMBER,깔끔한 풀옵션 원룸 월세 나왔습니다.,134,134,서울,동작구,empty,노량진로6가길 17,134,134,134,134,400,401,402,/homeImage/134/01.jpg,/homeImage/134/02.jpg,/homeImage/134/03.jpg,134,/hostImage/14.jpg,1,1,0,1,1,1,0,1,0
66066d4312efd3b938d7dc51,1,1,1,1,1,1,1,0,1,0,0,1,1,1,OR,1,0,0,1,1,0,1,0,0,0,135,배선영,95,01093674146,M,김정순,01022234122,자녀,430325-1216859,xx-xxxxx-xxx,씨티,서울 동작구 노량진동 267-21,29,37.512535,126.934998,UNAUTHORIZED_MEMBER,깔끔하고 저렴한 원룸 찾으시는분들,135,135,서울,동작구,empty,등용로14길 63,135,135,135,135,403,404,405,/homeImage/135/01.jpg,/homeImage/135/02.jpg,/homeImage/135/03.jpg,135,/hostImage/15.jpg,1,1,1,0,1,0,0,0,0
66066d4312efd3b938d7dc52,1,1,1,1,1,1,1,1,1,0,1,1,1,1,OR,0,1,0,0,0,0,0,0,1,1,136,강채원,72,01015796636,F,김지혜,01008266260,자녀,790117-2448328,xx-xxxxx-xxx,광주,서울 동작구 노량진동 233-10,30,37.510126,126.939822,UNAUTHORIZED_MEMBER,위치좋은 저렴한 노량진 원룸3,136,136,서울,동작구,empty,장승배기로23길 4,136,136,136,136,406,407,408,/homeImage/136/01.jpg,/homeImage/136/02.jpg,/homeImage/136/03.jpg,136,/hostImage/16.jpg,0,0,0,0,0,1,1,0,1
66066d4312efd3b938d7dc53,1,1,1,1,1,1,1,0,1,0,0,1,1,1,OR,1,0,0,0,1,0,1,0,0,1,137,류현주,74,01003269641,M,이현정,01084596386,자녀,510903-1774696,xx-xxxxx-xxx,국민,서울 동작구 노량진동 52-30,36,37.511987,126.940915,USER,깔끔하고 위치 좋은 원룸입니다,137,137,서울,동작구,empty,장승배기로26길 9,137,137,137,137,409,410,411,/homeImage/137/01.jpg,/homeImage/137/02.jpg,/homeImage/137/03.jpg,137,/hostImage/17.jpg,0,1,1,0,1,1,0,0,0
66066d4312efd3b938d7dc54,1,1,1,1,1,1,1,1,1,0,0,1,1,1,OR,1,1,1,0,1,1,1,1,1,0,138,김미경,99,01045572679,M,김주원,01074054652,자녀,930508-1625240,xx-xxxxx-xxx,씨티,서울 동작구 노량진동 225-3,46,37.508988,126.941266,USER,깔끔한 원룸 찾으시는분 구경하세요,138,138,서울,동작구,empty,장승배기로22길 29,138,138,138,138,412,413,414,/homeImage/138/01.jpg,/homeImage/138/02.jpg,/homeImage/138/03.jpg,138,/hostImage/18.jpg,0,1,1,1,1,1,1,1,1
66066d4312efd3b938d7dc55,1,1,1,1,1,1,1,0,1,0,1,0,1,1,OR,0,1,0,1,0,0,0,0,1,0,139,유주원,65,01018920458,F,박영숙,01005843770,자녀,610313-1234578,xx-xxxxx-xxx,SC제일,서울 동작구 노량진동 219-34,25,37.508563,126.946556,UNAUTHORIZED_MEMBER,가격저렴하고 깨끗하며 노량진역 도보 10분거리,139,139,서울,동작구,empty,만양로 51,139,139,139,139,415,416,417,/homeImage/139/01.jpg,/homeImage/139/02.jpg,/homeImage/139/03.jpg,139,/hostImage/19.jpg,1,0,0,0,0,0,1,0,1
66066d4312efd3b938d7dc56,1,1,1,1,1,1,1,0,1,0,0,0,1,1,OR,0,1,1,1,0,1,0,1,1,0,140,김서연,69,01053819168,M,양지은,01094789414,자녀,640723-1634389,xx-xxxxx-xxx,경남,서울 동작구 노량진동 222-46,40,37.509783,126.945991,USER,풀옵션 깨끗한 원룸 매물 나왔습니다.,140,140,서울,동작구,empty,만양로12길 6,140,140,140,140,418,419,420,/homeImage/140/01.jpg,/homeImage/140/02.jpg,/homeImage/140/03.jpg,140,/hostImage/20.jpg,1,0,0,1,0,1,1,1,1
66066d4312efd3b938d7dc57,1,1,1,1,1,1,1,0,1,0,0,1,1,1,OR,0,1,1,1,1,0,1,0,0,0,141,나상훈,76,01084957775,M,김정훈,01076135061,자녀,280029-1094001,xx-xxxxx-xxx,전북,서울 동작구 노량진동 244-34,48,37.511596,126.938471,USER,위치좋은깔끔한원룸입니다,141,141,서울,동작구,empty,장승배기로27길 16,141,141,141,141,421,422,423,/homeImage/141/01.jpg,/homeImage/141/02.jpg,/homeImage/141/03.jpg,141,/hostImage/21.jpg,1,1,0,0,1,1,1,0,0
66066d4312efd3b938d7dc58,1,1,1,1,1,1,1,0,1,0,0,1,1,1,OR,0,1,1,1,1,0,1,1,1,0,142,박도윤,76,01027876537,M,송영자,01069564868,자녀,970117-2896744,xx-xxxxx-xxx,SC제일,서울 동작구 노량진동 267-48,29,37.51251,126.935118,UNAUTHORIZED_MEMBER,가성비최고 원룸,142,142,서울,동작구,empty,등용로14길 65,142,142,142,142,424,425,426,/homeImage/142/01.jpg,/homeImage/142/02.jpg,/homeImage/142/03.jpg,142,/hostImage/22.jpg,1,1,0,0,1,1,1,1,1
66066d4312efd3b938d7dc59,1,1,1,1,1,1,1,1,1,0,0,1,1,1,OR,1,0,1,0,0,0,0,0,1,1,143,이은지,77,01059015674,F,김영진,01004680580,자녀,900017-2550237,xx-xxxxx-xxx,우리,서울 동작구 노량진동 262-4,37,37.512337,126.936131,UNAUTHORIZED_MEMBER,"진짜 깔끔한 꿀매물,  가격도 저렴해요",143,143,서울,동작구,empty,노량진로8가길 20,143,143,143,143,427,428,429,/homeImage/143/01.jpg,/homeImage/143/02.jpg,/homeImage/143/03.jpg,143,/hostImage/23.jpg,0,0,1,0,0,2,0,0,1
66066d4312efd3b938d7dc5a,1,1,1,1,1,1,1,1,1,0,0,1,1,1,OR,0,0,1,1,1,0,1,0,1,0,144,박준서,82,01083820683,M,엄경숙,01088448637,자녀,180823-1715426,xx-xxxxx-xxx,우체국,서울 동작구 노량진동 244-34,43,37.511596,126.938471,UNAUTHORIZED_MEMBER,위치좋은깔끔한원룸입니다,144,144,서울,동작구,empty,장승배기로27길 16,144,144,144,144,430,431,432,/homeImage/144/01.jpg,/homeImage/144/02.jpg,/homeImage/144/03.jpg,144,/hostImage/24.jpg,1,1,0,0,1,1,0,0,1
66066d4312efd3b938d7dc5b,1,1,1,1,1,1,1,1,1,0,0,0,1,1,OR,1,1,0,0,0,1,1,1,0,0,145,박영숙,87,01089309776,F,민명숙,01044289418,자녀,390827-2192613,xx-xxxxx-xxx,전북,서울 동작구 노량진동 232-43,43,37.509735,126.941879,UNAUTHORIZED_MEMBER,저렴한가격에 신축느낌나는 원룸,145,145,서울,동작구,empty,장승배기로20다길 6,145,145,145,145,433,434,435,/homeImage/145/01.jpg,/homeImage/145/02.jpg,/homeImage/145/03.jpg,145,/hostImage/25.jpg,0,0,1,1,1,0,1,1,0
66066d4312efd3b938d7dc5c,1,1,1,1,1,1,1,0,1,0,1,1,1,1,OR,1,0,1,0,0,1,1,1,1,1,146,김은정,83,01066716994,F,박성수,01053692179,자녀,920110-2219541,xx-xxxxx-xxx,수협,서울 동작구 노량진동 85-7,40,37.512109,126.943524,USER,저렴하고 치안좋은 노량진 원룸,146,146,서울,동작구,노량진동,empty,146,146,146,146,436,437,438,/homeImage/146/01.jpg,/homeImage/146/02.jpg,/homeImage/146/03.jpg,146,/hostImage/26.jpg,0,0,1,1,1,2,0,1,1
66066d4312efd3b938d7dc5d,1,1,1,1,1,1,1,0,1,0,0,1,1,1,OR,1,1,1,1,0,0,1,1,1,0,147,박명자,91,01059179073,M,김준서,01054590242,자녀,540219-1494684,xx-xxxxx-xxx,농협,서울 동작구 노량진동 270,45,37.512297,126.935181,UNAUTHORIZED_MEMBER,깔끔하고 넓직한 원룸입니다.,147,147,서울,동작구,empty,등용로14길 66,147,147,147,147,439,440,441,/homeImage/147/01.jpg,/homeImage/147/02.jpg,/homeImage/147/03.jpg,147,/hostImage/27.jpg,1,0,1,0,1,1,1,1,1
66066d4312efd3b938d7dc5e,1,1,1,1,1,1,1,1,1,0,1,0,1,1,OR,1,0,1,0,1,0,1,1,0,1,148,박예원,95,01042142562,F,김하은,01021653262,자녀,750523-1157346,xx-xxxxx-xxx,기업,서울 동작구 노량진동 215-112,35,37.508452,126.947329,USER,저렴한 원룸입니다,148,148,서울,동작구,empty,만양로6길 9,148,148,148,148,442,443,444,/homeImage/148/01.jpg,/homeImage/148/02.jpg,/homeImage/148/03.jpg,148,/hostImage/28.jpg,0,1,1,0,1,2,0,1,0
66066d4312efd3b938d7dc5f,1,1,1,1,1,1,1,0,1,0,1,0,1,1,OR,1,1,1,0,0,0,1,0,1,1,149,조영진,82,01013690422,F,김도현,01003186035,자녀,340128-1242172,xx-xxxxx-xxx,부산,서울 동작구 노량진동 215-109,42,37.508384,126.947607,UNAUTHORIZED_MEMBER,"노량진 깔끔하고 넓직한 원룸, 창고식 베란다도 있습니다",149,149,서울,동작구,empty,만양로6길 6,149,149,149,149,445,446,447,/homeImage/149/01.jpg,/homeImage/149/02.jpg,/homeImage/149/03.jpg,149,/hostImage/29.jpg,0,0,1,0,1,2,1,0,1
66066d4312efd3b938d7dc60,1,1,1,1,1,1,1,1,1,0,0,1,1,1,OR,0,1,0,0,1,0,1,1,1,1,150,김상철,90,01035634452,F,박영자,01010382541,자녀,130800-2297025,xx-xxxxx-xxx,우체국,서울 동작구 노량진동 125-32,47,37.512324,126.945657,UNAUTHORIZED_MEMBER,위치굿 컨디션굿 풀옵션 크기좋은 가성비 원룸,150,150,서울,동작구,empty,만양로14나길 12,150,150,150,150,448,449,450,/homeImage/150/01.jpg,/homeImage/150/02.jpg,/homeImage/150/03.jpg,150,/hostImage/30.jpg,0,1,0,0,1,1,1,1,1
66066d4312efd3b938d7dc61,1,1,1,1,1,1,1,1,1,0,0,0,1,1,OR,0,1,0,1,1,1,1,1,1,0,151,장종수,82,01077287180,F,남영순,01055651735,자녀,970915-1562577,xx-xxxxx-xxx,우리,서울 동작구 노량진동 222-51,37,37.509568,126.946013,USER,저렴하고 화이트톤의 깨끗한 매물,151,151,서울,동작구,empty,만양로12길 6,151,151,151,151,451,452,453,/homeImage/151/01.jpg,/homeImage/151/02.jpg,/homeImage/151/03.jpg,151,/hostImage/31.jpg,1,1,0,1,1,0,1,1,1
66066d4312efd3b938d7dc62,1,1,1,1,1,1,1,0,1,0,0,1,1,1,OR,1,1,0,1,0,0,1,1,1,0,152,장영식,74,01072212968,F,김서윤,01095065218,자녀,040725-2332935,xx-xxxxx-xxx,산업,서울 동작구 노량진동 125-31,40,37.512271,126.945745,USER,위치좋은 노량진 원룸 입니다,152,152,서울,동작구,empty,만양로14나길 14,152,152,152,152,454,455,456,/homeImage/152/01.jpg,/homeImage/152/02.jpg,/homeImage/152/03.jpg,152,/hostImage/32.jpg,1,0,1,0,1,0,1,1,1
66066d4312efd3b938d7dc63,1,1,1,1,1,1,1,1,1,0,0,1,1,1,OR,1,1,1,0,1,0,1,0,0,1,153,차은서,66,01088254319,F,박영환,01059655075,자녀,650020-1110957,xx-xxxxx-xxx,우체국,서울 동작구 노량진동 35-1,50,37.512648,126.937245,USER,리모델링 깔끔하고 이쁜 공간 노량진역 큰대로변 초근접,153,153,서울,동작구,empty,노량진로8길 33,153,153,153,153,457,458,459,/homeImage/153/01.jpg,/homeImage/153/02.jpg,/homeImage/153/03.jpg,153,/hostImage/33.jpg,0,1,1,0,1,2,1,0,0
66066d4312efd3b938d7dc64,1,1,1,1,1,1,1,0,1,0,0,0,1,1,OR,0,0,0,1,0,1,0,0,0,1,154,박성민,95,01043835053,M,서혜진,01076140927,자녀,080226-1593083,xx-xxxxx-xxx,카카오,서울 동작구 노량진동 222-89,43,37.510208,126.945892,UNAUTHORIZED_MEMBER,정남향으로 채광이 좋습니다,154,154,서울,동작구,empty,만양로6길 60,154,154,154,154,460,461,462,/homeImage/154/01.jpg,/homeImage/154/02.jpg,/homeImage/154/03.jpg,154,/hostImage/34.jpg,1,0,0,1,0,1,0,0,0
66066d4312efd3b938d7dc65,1,1,1,1,1,1,1,0,1,0,0,0,1,1,OR,1,1,1,0,1,0,0,1,0,0,155,고민준,79,01018317739,M,곽현준,01087006991,자녀,620227-1492236,xx-xxxxx-xxx,광주,서울 동작구 노량진동 215-106,30,37.508613,126.947413,USER,고시원가격의 풀옵션원룸,155,155,서울,동작구,empty,만양로6길 12,155,155,155,155,463,464,465,/homeImage/155/01.jpg,/homeImage/155/02.jpg,/homeImage/155/03.jpg,155,/hostImage/35.jpg,0,1,1,0,0,1,1,1,0
66066d4312efd3b938d7dc66,1,1,1,1,1,1,1,1,1,0,1,0,1,1,OR,1,0,0,1,0,1,0,0,0,0,156,김준혁,99,01026281754,M,최우진,01045746308,자녀,300007-2921787,xx-xxxxx-xxx,카카오,서울 동작구 노량진동 215-102,37,37.508769,126.947283,UNAUTHORIZED_MEMBER,신축으로 방이크고 방음이 좋은 풀옵션원룸,156,156,서울,동작구,empty,만양로6길 16,156,156,156,156,466,467,468,/homeImage/156/01.jpg,/homeImage/156/02.jpg,/homeImage/156/03.jpg,156,/hostImage/36.jpg,1,0,1,1,0,0,0,0,0
66066d4312efd3b938d7dc67,1,1,1,1,1,1,1,1,1,0,1,0,1,1,OR,1,1,1,0,1,0,1,1,1,1,157,김은지,98,01083608063,F,김도현,01049263647,자녀,050910-2817356,xx-xxxxx-xxx,농협,서울 동작구 노량진동 215-116,37,37.508775,126.94706,USER,2016년신축한 방음이뛰어난풀옵션원룸,157,157,서울,동작구,empty,만양로6길 19,157,157,157,157,469,470,471,/homeImage/157/01.jpg,/homeImage/157/02.jpg,/homeImage/157/03.jpg,157,/hostImage/37.jpg,0,1,1,0,1,2,1,1,1
66066d4312efd3b938d7dc68,1,1,1,1,1,1,1,1,1,0,1,1,1,1,VL,0,1,0,1,0,1,1,1,0,1,158,오상현,74,01033217334,F,임영수,01067206491,자녀,170414-1634098,xx-xxxxx-xxx,SC제일,서울 동작구 본동 49-32,45,37.511696,126.955595,USER,귀한원룸  풀옵션원룸으로  입주협의,158,158,서울,동작구,empty,노량진로28길 30,158,158,158,158,472,473,474,/homeImage/158/01.jpg,/homeImage/158/02.jpg,/homeImage/158/03.jpg,158,/hostImage/38.jpg,1,0,0,1,1,1,1,1,0
66066d4312efd3b938d7dc69,1,1,1,1,1,1,1,1,1,0,0,1,1,1,OR,0,0,0,0,0,1,0,1,0,0,159,이서영,80,01040972906,F,이하은,01092672848,자녀,930215-2612322,xx-xxxxx-xxx,토스,서울 동작구 대방동 391-315,33,37.501504,126.924261,USER,더블역세권 대방동 원룸,159,159,서울,동작구,empty,대방동27길 81,159,159,159,159,475,476,477,/homeImage/159/01.jpg,/homeImage/159/02.jpg,/homeImage/159/03.jpg,159,/hostImage/39.jpg,0,0,0,1,0,0,0,1,0
66066d4312efd3b938d7dc6a,1,1,1,1,1,1,1,0,1,0,0,0,1,1,OR,1,1,0,0,0,1,1,1,0,1,160,배상호,69,01063051098,M,차상현,01008050038,자녀,550220-2539928,xx-xxxxx-xxx,광주,서울 동작구 대방동 20-48,60,37.509296,126.931714,USER,"방이 아주 크고,  깨끗하며 조용한 원룸",160,160,서울,동작구,empty,여의대방로36길 101,160,160,160,160,478,479,480,/homeImage/160/01.jpg,/homeImage/160/02.jpg,/homeImage/160/03.jpg,160,/hostImage/40.jpg,0,0,1,1,1,1,1,1,0
66066d4312efd3b938d7dc6b,1,1,1,1,1,1,1,0,1,0,0,1,1,1,OR,0,0,1,0,0,0,1,0,1,1,161,이경수,99,01003754552,M,김예준,01081028135,자녀,330627-1782639,xx-xxxxx-xxx,대구,서울 동작구 대방동 391-200,40,37.500476,126.926728,UNAUTHORIZED_MEMBER,실제사진 O｜즉시입주 O｜학교 인근의 조용하고 깨끗한 분리형 원룸,161,161,서울,동작구,empty,대방동1길 8,161,161,161,161,481,482,483,/homeImage/161/01.jpg,/homeImage/161/02.jpg,/homeImage/161/03.jpg,161,/hostImage/41.jpg,0,0,0,0,1,2,0,0,1
66066d4312efd3b938d7dc6c,1,1,1,1,1,1,1,1,1,0,0,0,1,1,OR,1,1,1,0,0,1,1,1,0,0,162,이순자,91,01065996306,M,이미숙,01053377302,자녀,470704-2886426,xx-xxxxx-xxx,농협,서울 동작구 노량진동 222-46,38,37.509783,126.945991,USER,풀옵션 원룸,162,162,서울,동작구,empty,만양로12길 6,162,162,162,162,484,485,486,/homeImage/162/01.jpg,/homeImage/162/02.jpg,/homeImage/162/03.jpg,162,/hostImage/42.jpg,0,0,1,1,1,1,1,1,0
66066d4312efd3b938d7dc6d,1,1,1,1,1,1,1,0,1,0,0,1,1,1,OR,1,0,0,0,0,0,0,0,0,0,163,최정훈,85,01075458774,M,이상훈,01005669785,자녀,870625-2362583,xx-xxxxx-xxx,기업,서울 동작구 상도1동 366-1,52,37.501142,126.950621,USER,"중앙대,숭실대 풀옵션 원룸",163,163,서울,동작구,empty,상도로43길 14,163,163,163,163,487,488,489,/homeImage/163/01.jpg,/homeImage/163/02.jpg,/homeImage/163/03.jpg,163,/hostImage/43.jpg,0,0,1,0,0,0,0,0,0
66066d4312efd3b938d7dc6e,1,1,1,1,1,1,1,0,1,0,0,0,1,1,OR,1,0,1,0,0,0,1,0,0,0,164,김지우,97,01021456808,F,서정호,01099694856,자녀,950801-1684905,xx-xxxxx-xxx,SC제일,서울 동작구 상도동 242-75,30,37.501315,126.934875,UNAUTHORIZED_MEMBER,장승배기역 도보7분 원룸치고 큰방큰방 보증금조절가능 빨리보세요,164,164,서울,동작구,empty,성대로1길 18,164,164,164,164,490,491,492,/homeImage/164/01.jpg,/homeImage/164/02.jpg,/homeImage/164/03.jpg,164,/hostImage/44.jpg,0,0,1,0,1,1,0,0,0
66066d4312efd3b938d7dc6f,1,1,1,1,1,1,1,0,1,0,0,0,1,1,OR,0,1,1,1,1,1,0,1,0,1,165,민은주,91,01088454361,M,황명자,01058274425,자녀,960714-2442732,xx-xxxxx-xxx,카카오,서울 동작구 노량진동 123-43,40,37.510443,126.945963,UNAUTHORIZED_MEMBER,학원가인접한 대로변 치안걱정없는집,165,165,서울,동작구,empty,만양로8길 64,165,165,165,165,493,494,495,/homeImage/165/01.jpg,/homeImage/165/02.jpg,/homeImage/165/03.jpg,165,/hostImage/45.jpg,1,1,0,1,0,2,1,1,0
66066d4312efd3b938d7dc70,1,1,1,1,1,1,1,1,1,0,1,1,1,1,DDDGG,0,0,1,1,0,1,1,1,0,0,166,김서준,65,01027206327,M,서준영,01040851115,자녀,710023-2169441,xx-xxxxx-xxx,카카오,서울 동작구 본동 50-40,50,37.510767,126.954717,USER,노들역5분 방2 내부좋습니다,166,166,서울,동작구,empty,노량진로26길 32,166,166,166,166,496,497,498,/homeImage/166/01.jpg,/homeImage/166/02.jpg,/homeImage/166/03.jpg,166,/hostImage/46.jpg,1,0,0,1,1,1,0,1,0
66066d4312efd3b938d7dc71,1,1,1,1,1,1,1,1,1,0,0,1,1,1,OR,1,0,1,1,1,1,0,0,1,1,167,김지현,79,01065264876,M,이정식,01057399267,자녀,350901-2884188,xx-xxxxx-xxx,SC제일,서울 동작구 대방동 391-315,33,37.501504,126.924261,USER,위치 컨디션 퀄리티 가격 하나도 빼놓을게 없어요,167,167,서울,동작구,empty,대방동27길 81,167,167,167,167,499,500,501,/homeImage/167/01.jpg,/homeImage/167/02.jpg,/homeImage/167/03.jpg,167,/hostImage/47.jpg,1,1,1,1,0,2,0,0,1
66066d4312efd3b938d7dc72,1,1,1,1,1,1,1,1,1,0,0,1,1,1,OR,1,0,1,0,1,1,0,0,0,0,168,이정순,79,01092468578,F,이춘자,01055694308,자녀,480026-2663578,xx-xxxxx-xxx,하나,서울 동작구 상도1동 696,35,37.504099,126.948156,USER,O 상도역 역세권 깔끔한 풀옵션 원룸,168,168,서울,동작구,empty,상도로 265,168,168,168,168,502,503,504,/homeImage/168/01.jpg,/homeImage/168/02.jpg,/homeImage/168/03.jpg,168,/hostImage/48.jpg,0,1,1,1,0,1,0,0,0
66066d4312efd3b938d7dc73,1,1,1,1,1,1,1,1,1,0,1,1,1,1,VL,1,1,1,0,0,1,0,1,1,0,169,최성진,77,01038138279,F,배정식,01032094826,자녀,290802-2086145,xx-xxxxx-xxx,카카오,서울 동작구 본동 49-32,50,37.511696,126.955595,UNAUTHORIZED_MEMBER,2014년식 풀옵션 원룸 내부좋습니다,169,169,서울,동작구,empty,노량진로28길 30,169,169,169,169,505,506,507,/homeImage/169/01.jpg,/homeImage/169/02.jpg,/homeImage/169/03.jpg,169,/hostImage/49.jpg,0,0,1,1,0,1,1,1,1
66066d4312efd3b938d7dc74,1,1,1,1,1,1,1,1,1,0,1,1,1,1,OR,1,0,1,0,0,0,0,1,0,0,170,김은영,93,01030236003,F,윤시우,01096240563,자녀,580411-1144041,xx-xxxxx-xxx,광주,서울 동작구 본동 49-32,50,37.511696,126.955595,USER,풀옵션으로 2013년식 내부좋습니다 빠른입주가능,170,170,서울,동작구,empty,노량진로28길 30,170,170,170,170,508,509,510,/homeImage/170/01.jpg,/homeImage/170/02.jpg,/homeImage/170/03.jpg,170,/hostImage/50.jpg,0,0,1,0,0,1,0,1,0
66066d4312efd3b938d7dc75,1,1,1,1,1,1,1,0,1,0,1,1,1,1,OR,1,1,1,0,1,1,1,0,0,1,171,허재호,71,01093508389,M,이예지,01010947204,자녀,860910-1122530,xx-xxxxx-xxx,광주,서울 동작구 본동 49-38,35,37.511765,126.955285,UNAUTHORIZED_MEMBER,노들역3분 방1 옵션완벽 저렴한시세,171,171,서울,동작구,empty,노량진로28길 16,171,171,171,171,511,512,513,/homeImage/171/01.jpg,/homeImage/171/02.jpg,/homeImage/171/03.jpg,171,/hostImage/51.jpg,0,1,1,1,1,2,1,0,0
66066d4312efd3b938d7dc76,1,1,1,1,1,1,1,0,1,0,0,0,1,1,OR,1,0,1,0,1,0,1,1,1,0,172,노정수,98,01083405895,M,김영숙,01034728316,자녀,610826-1894990,xx-xxxxx-xxx,신한,서울 동작구 노량진동 220-11,42,37.508982,126.945225,USER,개방감있는 양창원룸 노량진역세권,172,172,서울,동작구,empty,만양로13길 37,172,172,172,172,514,515,516,/homeImage/172/01.jpg,/homeImage/172/02.jpg,/homeImage/172/03.jpg,172,/hostImage/52.jpg,0,1,1,0,1,1,0,1,1
66066d4312efd3b938d7dc77,1,1,1,1,1,1,1,0,1,0,0,0,1,1,OR,1,0,0,0,0,1,1,1,0,1,173,지옥순,96,01037512262,F,한지영,01098454269,자녀,110125-2629540,xx-xxxxx-xxx,경남,서울 동작구 노량진동 123-43,48,37.510443,126.945963,USER,노량진.지상층저렴한방.위치좋아안전.편의점인근,173,173,서울,동작구,empty,만양로8길 64,173,173,173,173,517,518,519,/homeImage/173/01.jpg,/homeImage/173/02.jpg,/homeImage/173/03.jpg,173,/hostImage/53.jpg,0,0,1,1,1,1,0,1,0
66066d4312efd3b938d7dc78,1,1,1,1,1,1,1,1,1,0,0,1,1,1,OR,1,0,0,0,0,1,1,1,0,0,174,김현지,83,01081990337,F,정명숙,01066692530,자녀,260424-1770143,xx-xxxxx-xxx,수협,서울 동작구 대방동 391-559,50,37.50054,126.924358,UNAUTHORIZED_MEMBER,실제사진O｜즉시 입주O｜현관보안O｜7호선 이용이 편리한 원룸,174,174,서울,동작구,empty,대방동1길 30,174,174,174,174,520,521,522,/homeImage/174/01.jpg,/homeImage/174/02.jpg,/homeImage/174/03.jpg,174,/hostImage/54.jpg,0,0,1,1,1,0,0,1,0
66066d4312efd3b938d7dc79,1,1,1,1,1,1,1,0,1,0,1,1,1,1,DDDGG,1,1,1,0,0,1,1,0,1,0,175,김영철,67,01043368768,F,송예준,01090234545,자녀,300126-2259511,xx-xxxxx-xxx,농협,서울 동작구 본동 50-19,45,37.511402,126.954329,UNAUTHORIZED_MEMBER,방1크고  내부상태 깔끔 도배장판 새로함,175,175,서울,동작구,empty,노량진로26길 16,175,175,175,175,523,524,525,/homeImage/175/01.jpg,/homeImage/175/02.jpg,/homeImage/175/03.jpg,175,/hostImage/55.jpg,0,0,1,1,1,1,1,0,1
66066d4312efd3b938d7dc7a,1,1,1,1,1,1,1,1,1,0,0,1,1,1,OR,1,0,0,1,0,0,0,0,0,1,176,백영숙,75,01052287657,F,김순자,01050293536,자녀,730901-2230632,xx-xxxxx-xxx,전북,서울 동작구 노량진동 52-35,48,37.512087,126.940868,UNAUTHORIZED_MEMBER,노량진역 도보 2분거리 위치굿 채광 통풍좋고 깨끗한원룸,176,176,서울,동작구,empty,장승배기로28길 16,176,176,176,176,526,527,528,/homeImage/176/01.jpg,/homeImage/176/02.jpg,/homeImage/176/03.jpg,176,/hostImage/56.jpg,1,0,1,0,0,1,0,0,0
66066d4312efd3b938d7dc7b,1,1,1,1,1,1,1,1,1,0,0,1,1,1,OR,0,0,1,1,0,1,0,1,1,1,177,이현숙,78,01009962104,M,장아름,01025846561,자녀,990208-1351690,xx-xxxxx-xxx,하나,서울 동작구 상도1동 366-1,37,37.501142,126.950621,UNAUTHORIZED_MEMBER,상도역5분 중앙대 숭실대 치안굿 채광굿,177,177,서울,동작구,empty,상도로43길 14,177,177,177,177,529,530,531,/homeImage/177/01.jpg,/homeImage/177/02.jpg,/homeImage/177/03.jpg,177,/hostImage/57.jpg,1,0,0,1,0,2,0,1,1
66066d4312efd3b938d7dc7c,1,1,1,1,1,1,1,0,1,0,0,0,1,1,OR,0,0,1,0,0,0,1,1,1,1,178,김현지,83,01003096294,M,이하윤,01020707098,자녀,520918-1718106,xx-xxxxx-xxx,수협,서울 동작구 노량진동 222-48,38,37.509749,126.945797,USER,2개의 큰창으로 햇빛잘들고 통풍좋으며 조용하고 깨끗한 원룸,178,178,서울,동작구,empty,만양로12길 6,178,178,178,178,532,533,534,/homeImage/178/01.jpg,/homeImage/178/02.jpg,/homeImage/178/03.jpg,178,/hostImage/58.jpg,0,0,0,0,1,2,0,1,1
66066d4312efd3b938d7dc7d,1,1,1,1,1,1,1,1,1,0,1,1,1,1,DDDGG,0,0,1,0,1,1,0,0,0,0,179,엄민수,72,01090436028,F,강준서,01012138826,자녀,350208-1831789,xx-xxxxx-xxx,농협,서울 동작구 본동 51,40,37.51077,126.955298,UNAUTHORIZED_MEMBER,풀옵션으로 방 넓고 좋습니다 빠른입주,179,179,서울,동작구,empty,노량진로26길 39,179,179,179,179,535,536,537,/homeImage/179/01.jpg,/homeImage/179/02.jpg,/homeImage/179/03.jpg,179,/hostImage/59.jpg,0,1,0,1,0,1,0,0,0
66066d4312efd3b938d7dc7e,1,1,1,1,1,1,1,1,1,0,1,0,1,1,OR,0,1,1,0,1,1,0,1,1,0,180,김영수,75,01011831709,M,한상호,01000780740,자녀,360717-2801779,xx-xxxxx-xxx,대구,서울 동작구 흑석동 207-45,55,37.505682,126.956051,UNAUTHORIZED_MEMBER,중문 3분 풀옵션 원룸 평지 지상층,180,180,서울,동작구,empty,흑석로6길 34,180,180,180,180,538,539,540,/homeImage/180/01.jpg,/homeImage/180/02.jpg,/homeImage/180/03.jpg,180,/hostImage/60.jpg,0,1,0,1,0,1,1,1,1
66066d4312efd3b938d7dc7f,1,1,1,1,1,1,1,1,1,0,0,0,1,1,OR,0,1,1,0,1,1,0,0,1,1,181,박지현,65,01026020310,M,박혜진,01081829494,자녀,450316-2076491,xx-xxxxx-xxx,국민,서울 동작구 노량진동 218-58,38,37.508545,126.94638,USER,실2층. 리모델링원룸. 깨끗하게 관리잘되는집.,181,181,서울,동작구,empty,만양로11길 3,181,181,181,181,541,542,543,/homeImage/181/01.jpg,/homeImage/181/02.jpg,/homeImage/181/03.jpg,181,/hostImage/61.jpg,0,1,0,1,0,2,1,0,1
66066d4312efd3b938d7dc80,1,1,1,1,1,1,1,0,1,0,0,1,1,1,OR,0,1,0,0,1,1,0,0,0,0,182,김민재,81,01074324699,F,이정희,01053349894,자녀,720811-2080358,xx-xxxxx-xxx,부산,서울 동작구 노량진동 262-4,45,37.512337,126.936131,USER,"진짜 깔끔한 꿀매물,  가격도 저렴해요",182,182,서울,동작구,empty,노량진로8가길 20,182,182,182,182,544,545,546,/homeImage/182/01.jpg,/homeImage/182/02.jpg,/homeImage/182/03.jpg,182,/hostImage/62.jpg,0,1,0,1,0,0,1,0,0
66066d4312efd3b938d7dc81,1,1,1,1,1,1,1,1,1,0,0,1,1,1,OR,1,1,1,0,0,0,1,0,1,0,183,신민석,69,01023506457,M,윤준호,01004979452,자녀,420226-2945022,xx-xxxxx-xxx,수협,서울 동작구 대방동 391-315,40,37.501504,126.924261,USER,대로변 평지 정남향 채광까지 좋은 원룸,183,183,서울,동작구,empty,대방동27길 81,183,183,183,183,547,548,549,/homeImage/183/01.jpg,/homeImage/183/02.jpg,/homeImage/183/03.jpg,183,/hostImage/63.jpg,0,0,1,0,1,1,1,0,1
66066d4312efd3b938d7dc82,1,1,1,1,1,1,1,0,1,0,0,1,1,1,DDDGG,0,1,0,1,1,0,0,1,0,1,184,이지연,98,01012899101,F,한예준,01009367135,자녀,910617-1457270,xx-xxxxx-xxx,신한,서울 동작구 대방동 344-26,40,37.511294,126.926343,UNAUTHORIZED_MEMBER,"1호선 대방역 초초역세권, 샛강역 도보 15분, 풀옵션, 직장인 추천",184,184,서울,동작구,empty,여의대방로46길 34,184,184,184,184,550,551,552,/homeImage/184/01.jpg,/homeImage/184/02.jpg,/homeImage/184/03.jpg,184,/hostImage/64.jpg,1,1,0,0,0,1,1,1,0
66066d4312efd3b938d7dc83,1,1,1,1,1,1,1,1,1,0,0,0,1,1,OR,1,0,0,0,0,0,1,0,0,0,185,김영희,89,01031088418,M,김지후,01088491259,자녀,070401-1583618,xx-xxxxx-xxx,광주,서울 동작구 상도동 464-5,60,37.500217,126.952386,USER,융자없는집. 엘베있는집. 리모델링완료. 화이트톤넓은집,185,185,서울,동작구,empty,상도로47나길 4,185,185,185,185,553,554,555,/homeImage/185/01.jpg,/homeImage/185/02.jpg,/homeImage/185/03.jpg,185,/hostImage/65.jpg,0,0,1,0,1,0,0,0,0
66066d4312efd3b938d7dc84,1,1,1,1,1,1,1,1,1,0,0,1,1,1,OR,0,1,0,1,1,1,0,0,0,1,186,이미정,95,01097392682,M,이옥순,01065411645,자녀,760812-1513254,xx-xxxxx-xxx,우체국,서울 동작구 상도동 361-101,40,37.503849,126.934701,UNAUTHORIZED_MEMBER,7호선 장승배기역 도보5분 원룸,186,186,서울,동작구,empty,상도로15아길 11,186,186,186,186,556,557,558,/homeImage/186/01.jpg,/homeImage/186/02.jpg,/homeImage/186/03.jpg,186,/hostImage/66.jpg,1,1,0,1,0,1,1,0,0
66066d4312efd3b938d7dc85,1,1,1,1,1,1,1,0,1,0,0,1,1,1,DDDGG,1,1,0,0,0,1,0,1,0,0,187,윤예진,67,01019038614,F,이순옥,01077862399,자녀,060912-2076068,xx-xxxxx-xxx,산업,서울 동작구 대방동 344-26,40,37.511294,126.926343,USER,"1호선 대방역 초초역세권, 샛강역 도보 15분, 풀옵션, 직장인 추천",187,187,서울,동작구,empty,여의대방로46길 34,187,187,187,187,559,560,561,/homeImage/187/01.jpg,/homeImage/187/02.jpg,/homeImage/187/03.jpg,187,/hostImage/67.jpg,0,0,1,1,0,0,1,1,0
66066d4312efd3b938d7dc86,1,1,1,1,1,1,1,1,1,0,0,0,1,1,OR,1,1,1,1,1,0,1,0,1,1,188,이순옥,76,01097157784,F,송옥순,01009382176,자녀,370306-1604093,xx-xxxxx-xxx,전북,서울 동작구 흑석동 201-27,60,37.508188,126.95698,USER,신축원룸 중앙대3분거리 중대병원5분거리 흑석역8분거리 저렴한원룸,188,188,서울,동작구,empty,흑석로5길 36,188,188,188,188,562,563,564,/homeImage/188/01.jpg,/homeImage/188/02.jpg,/homeImage/188/03.jpg,188,/hostImage/68.jpg,1,1,1,0,1,2,1,0,1
66066d4312efd3b938d7dc87,1,1,1,1,1,1,1,1,1,0,0,1,1,1,OR,1,1,0,1,1,0,0,1,0,1,189,양경숙,66,01086578340,F,김준혁,01043942780,자녀,050708-2231348,xx-xxxxx-xxx,씨티,서울 동작구 상도동 17-51,49,37.506221,126.948326,UNAUTHORIZED_MEMBER,신축5년된 풀옵션원룸으로 조용하고 깨끗하며 전세가능,189,189,서울,동작구,empty,만양로 20,189,189,189,189,565,566,567,/homeImage/189/01.jpg,/homeImage/189/02.jpg,/homeImage/189/03.jpg,189,/hostImage/69.jpg,1,1,1,0,0,1,1,1,0
66066d4312efd3b938d7dc88,1,1,1,1,1,1,1,0,1,0,0,0,1,1,OR,0,1,0,1,1,1,0,0,0,1,190,김정식,69,01096612394,M,김현숙,01060257915,자녀,920407-1691784,xx-xxxxx-xxx,신한,서울 동작구 노량진동 218-60,40,37.50842,126.946562,USER,남동향 남서향 2개의 큰창으로 햇빛 잘들고 가격이 정말 저렴한 원룸,190,190,서울,동작구,empty,만양로 51,190,190,190,190,568,569,570,/homeImage/190/01.jpg,/homeImage/190/02.jpg,/homeImage/190/03.jpg,190,/hostImage/70.jpg,1,1,0,1,0,1,1,0,0
66066d4312efd3b938d7dc89,1,1,1,1,1,1,1,1,1,0,0,0,1,1,OR,0,1,0,1,0,0,1,1,0,1,191,김현정,90,01031178774,M,윤동현,01062843036,자녀,270114-1470525,xx-xxxxx-xxx,SC제일,서울 동작구 노량진동 222-46,40,37.509783,126.945991,UNAUTHORIZED_MEMBER,학원가 관리잘된 원룸,191,191,서울,동작구,empty,만양로12길 6,191,191,191,191,571,572,573,/homeImage/191/01.jpg,/homeImage/191/02.jpg,/homeImage/191/03.jpg,191,/hostImage/71.jpg,1,0,0,0,1,1,1,1,0
66066d4312efd3b938d7dc8a,1,1,1,1,1,1,1,1,1,0,1,0,1,1,OR,1,1,0,1,1,1,0,0,1,1,192,이경숙,81,01006554869,M,남은정,01028232394,자녀,600826-1839376,xx-xxxxx-xxx,전북,서울 동작구 노량진동 215-107,35,37.508535,126.947478,UNAUTHORIZED_MEMBER,깨끗한준신축. 보안좋고 관리잘되는집. 안심대로변,192,192,서울,동작구,empty,만양로6길 10,192,192,192,192,574,575,576,/homeImage/192/01.jpg,/homeImage/192/02.jpg,/homeImage/192/03.jpg,192,/hostImage/72.jpg,1,1,1,1,0,1,1,0,1
66066d4312efd3b938d7dc8b,1,1,1,1,1,1,1,1,1,0,0,1,1,1,OR,1,1,1,1,1,1,0,1,0,1,193,김성진,68,01055610145,M,박현지,01060922923,자녀,230519-1918305,xx-xxxxx-xxx,카카오,서울 동작구 노량진동 256-60,40,37.512146,126.937809,UNAUTHORIZED_MEMBER,안심추천.깔끔.풀옵션.가성비굿.,193,193,서울,동작구,empty,노량진로10길 27,193,193,193,193,577,578,579,/homeImage/193/01.jpg,/homeImage/193/02.jpg,/homeImage/193/03.jpg,193,/hostImage/73.jpg,1,1,1,1,0,2,1,1,0
66066d4312efd3b938d7dc8c,1,1,1,1,1,1,1,0,1,0,0,1,1,1,OR,1,1,1,0,0,0,0,1,1,1,194,장은영,98,01096569724,M,이진우,01027433931,자녀,580909-2393855,xx-xxxxx-xxx,하나,서울 동작구 노량진동 119-176,48,37.511609,126.944829,UNAUTHORIZED_MEMBER,신축4년차 보안 잘 되어 있는 원룸 월세,194,194,서울,동작구,empty,만양로16길 6,194,194,194,194,580,581,582,/homeImage/194/01.jpg,/homeImage/194/02.jpg,/homeImage/194/03.jpg,194,/hostImage/74.jpg,0,0,1,0,0,2,1,1,1
66066d4312efd3b938d7dc8d,1,1,1,1,1,1,1,1,1,0,0,1,1,1,OR,0,1,0,1,1,1,0,0,1,1,195,홍경자,83,01072847287,F,황영미,01091633948,자녀,390022-1361948,xx-xxxxx-xxx,부산,서울 동작구 상도1동 366-1,52,37.501142,126.950621,USER,융자없는집. 상도역4분. 중앙대숭실대. 편의시설밀집. 안전한위치,195,195,서울,동작구,empty,상도로43길 14,195,195,195,195,583,584,585,/homeImage/195/01.jpg,/homeImage/195/02.jpg,/homeImage/195/03.jpg,195,/hostImage/75.jpg,1,1,0,1,0,1,1,0,1
66066d4312efd3b938d7dc8e,1,1,1,0,0,1,0,1,0,0,0,1,1,0,OR,1,1,0,0,1,0,1,1,1,0,196,손유진,92,01023504527,F,김지후,01052733490,자녀,090612-1592645,xx-xxxxx-xxx,카카오,서울 동작구 상도동 247-6,50,37.500102,126.933507,USER,empty,196,196,서울,동작구,empty,성대로3길 8,196,196,196,196,586,587,588,/homeImage/196/01.jpg,/homeImage/196/02.jpg,/homeImage/196/03.jpg,196,/hostImage/76.jpg,0,1,1,0,1,0,1,1,1
66066d4312efd3b938d7dc8f,1,1,1,1,1,1,1,0,1,0,0,1,1,1,DDDGG,1,1,0,1,1,0,0,0,1,1,197,이지민,71,01039131274,M,조경희,01073373020,자녀,330906-1668847,xx-xxxxx-xxx,경남,서울 동작구 대방동 344-26,30,37.511294,126.926343,UNAUTHORIZED_MEMBER,"1호선 대방역 초초역세권, 샛강역 도보 15분, 풀옵션, 직장인 추천",197,197,서울,동작구,empty,여의대방로46길 34,197,197,197,197,589,590,591,/homeImage/197/01.jpg,/homeImage/197/02.jpg,/homeImage/197/03.jpg,197,/hostImage/77.jpg,1,1,1,0,0,1,1,0,1
66066d4312efd3b938d7dc90,1,1,1,1,1,1,1,1,1,0,0,1,1,1,OR,0,1,0,1,1,1,0,0,0,0,198,장승현,88,01076422294,M,권현정,01072200621,자녀,620102-1677656,xx-xxxxx-xxx,부산,서울 동작구 노량진동 87-14,42,37.512428,126.94346,USER,노량진역 도보 3분거리 신축4년차 원룸,198,198,서울,동작구,empty,노량진로14나길 5,198,198,198,198,592,593,594,/homeImage/198/01.jpg,/homeImage/198/02.jpg,/homeImage/198/03.jpg,198,/hostImage/78.jpg,1,1,0,1,0,0,1,0,0
66066d4312efd3b938d7dc91,1,1,1,1,1,1,1,1,1,0,0,1,1,1,DDDGG,0,1,0,0,0,1,0,1,0,1,199,이준서,74,01024971727,M,김옥순,01030968203,자녀,910022-1191787,xx-xxxxx-xxx,하나,서울 동작구 대방동 344-26,30,37.511294,126.926343,USER,"1호선 대방역 초초역세권, 샛강역 도보 15분, 풀옵션, 직장인 추천",199,199,서울,동작구,empty,여의대방로46길 34,199,199,199,199,595,596,597,/homeImage/199/01.jpg,/homeImage/199/02.jpg,/homeImage/199/03.jpg,199,/hostImage/79.jpg,0,0,0,1,0,1,1,1,0
66066d4312efd3b938d7dc92,1,1,1,1,1,1,1,0,1,0,1,0,1,1,OR,1,1,1,0,0,1,0,0,1,0,200,박정호,94,01016791580,M,김민재,01080130294,자녀,450304-1126976,xx-xxxxx-xxx,전북,서울 동작구 상도동 464-5,60,37.500217,126.952386,USER,중대숭실대 오픈형 엘베유 주택가메인도로 위치,200,200,서울,동작구,empty,상도로47나길 4,200,200,200,200,598,599,600,/homeImage/200/01.jpg,/homeImage/200/02.jpg,/homeImage/200/03.jpg,200,/hostImage/80.jpg,0,0,1,1,0,1,1,0,1
66066d4312efd3b938d7dc93,1,1,1,1,1,1,1,0,1,0,0,1,1,1,DDDGG,0,1,1,1,1,0,1,0,1,0,201,김민수,96,01059650814,M,박지아,01013235274,자녀,700513-2070193,xx-xxxxx-xxx,농협,서울 동작구 대방동 344-26,40,37.511294,126.926343,USER,"1호선 대방역 초초역세권, 샛강역 도보 15분, 풀옵션, 직장인 추천",201,201,서울,동작구,empty,여의대방로46길 34,201,201,201,201,601,602,603,/homeImage/201/01.jpg,/homeImage/201/02.jpg,/homeImage/201/03.jpg,201,/hostImage/81.jpg,1,1,0,0,1,1,1,0,1
66066d4312efd3b938d7dc94,1,1,1,1,1,1,1,0,1,0,0,1,1,1,DDDGG,0,0,0,1,0,1,0,1,1,0,202,한상현,78,01008329647,M,김채원,01009215630,자녀,400708-1138186,xx-xxxxx-xxx,기업,서울 동작구 대방동 344-26,40,37.511294,126.926343,USER,"1호선 대방역 초초역세권, 샛강역 도보 15분, 풀옵션, 직장인 추천",202,202,서울,동작구,empty,여의대방로46길 34,202,202,202,202,604,605,606,/homeImage/202/01.jpg,/homeImage/202/02.jpg,/homeImage/202/03.jpg,202,/hostImage/82.jpg,1,0,0,1,0,0,0,1,1
66066d4312efd3b938d7dc95,1,1,1,1,1,1,1,1,1,0,0,1,1,1,DDDGG,1,0,0,0,1,0,0,1,0,1,203,박수진,97,01010898974,F,김서준,01046912379,자녀,920312-2134779,xx-xxxxx-xxx,케이,서울 동작구 노량진동 246-34,60,37.511026,126.938933,USER,노량진역 초역세권 도보 3분,203,203,서울,동작구,empty,장승배기로27길 30,203,203,203,203,607,608,609,/homeImage/203/01.jpg,/homeImage/203/02.jpg,/homeImage/203/03.jpg,203,/hostImage/83.jpg,0,1,1,0,0,1,0,1,0
66066d4312efd3b938d7dc96,1,1,1,1,1,1,1,0,1,0,1,0,1,1,OR,1,0,1,0,1,0,0,1,0,0,204,김현지,94,01097319984,M,최정웅,01016536297,자녀,140128-1114816,xx-xxxxx-xxx,국민,서울 동작구 노량진동 215-115,27,37.508692,126.947129,USER,깨끗하고 조용한데 가격이 고시텔보다 저렴한 원룸,204,204,서울,동작구,empty,만양로6길 15,204,204,204,204,610,611,612,/homeImage/204/01.jpg,/homeImage/204/02.jpg,/homeImage/204/03.jpg,204,/hostImage/84.jpg,0,1,1,0,0,1,0,1,0
66066d4312efd3b938d7dc97,1,1,1,1,1,1,1,1,1,0,1,0,1,1,OR,1,1,0,1,0,1,1,1,0,1,205,윤상호,80,01002885416,F,오현준,01001512542,자녀,530419-1492039,xx-xxxxx-xxx,씨티,서울 동작구 흑석동 213-1,60,37.50547,126.955937,USER,"중앙대 중문 30초거리 깔끔한 원룸, 젠틀 임대인 원하는거 다 들어줌",205,205,서울,동작구,empty,흑석로6길 31,205,205,205,205,613,614,615,/homeImage/205/01.jpg,/homeImage/205/02.jpg,/homeImage/205/03.jpg,205,/hostImage/85.jpg,1,0,1,1,1,1,1,1,0
66066d4312efd3b938d7dc98,1,1,1,1,1,1,1,1,1,0,0,1,1,1,OR,0,0,1,1,1,1,1,0,1,1,206,성서현,68,01057622647,M,강예원,01065489877,자녀,820200-2721673,xx-xxxxx-xxx,농협,서울 동작구 노량진동 119-149,33,37.511573,126.945076,USER,풀옵션입니다 단기가능합니다,206,206,서울,동작구,empty,만양로14길 13,206,206,206,206,616,617,618,/homeImage/206/01.jpg,/homeImage/206/02.jpg,/homeImage/206/03.jpg,206,/hostImage/86.jpg,1,1,0,1,1,2,0,0,1
66066d4312efd3b938d7dc99,1,1,1,1,1,1,1,0,1,0,1,1,1,1,OR,1,1,1,0,1,0,0,0,1,1,207,이영길,90,01058831569,M,손지후,01007280121,자녀,660202-2029673,xx-xxxxx-xxx,국민,서울 동작구 상도동 358-7,50,37.503765,126.935998,UNAUTHORIZED_MEMBER,7호선 역세권 풀옵션 원룸 무료주차 선착순,207,207,서울,동작구,empty,상도로19길 39,207,207,207,207,619,620,621,/homeImage/207/01.jpg,/homeImage/207/02.jpg,/homeImage/207/03.jpg,207,/hostImage/87.jpg,0,1,1,0,0,2,1,0,1
66066d4312efd3b938d7dc9a,1,1,1,1,1,1,1,0,1,0,0,1,1,1,OR,0,0,1,0,0,1,1,1,1,0,208,홍예은,77,01087651319,F,최상호,01079295637,자녀,750023-1096779,xx-xxxxx-xxx,기업,서울 동작구 노량진동 127-11,35,37.512498,126.946252,USER,가성비굿 위치좋고 컨디션 좋은 리모델링 귀한 매물,208,208,서울,동작구,empty,만양로14길 39,208,208,208,208,622,623,624,/homeImage/208/01.jpg,/homeImage/208/02.jpg,/homeImage/208/03.jpg,208,/hostImage/88.jpg,0,0,0,1,1,1,0,1,1
66066d4312efd3b938d7dc9b,1,1,1,1,1,1,1,0,1,0,0,1,1,1,OR,1,0,1,1,1,1,0,1,1,1,209,황아름,69,01055789021,M,김영희,01074916176,자녀,330601-2536858,xx-xxxxx-xxx,케이,서울 동작구 상도1동 428-13,45,37.501948,126.950379,UNAUTHORIZED_MEMBER,2016년 사용승인 잘 관리된 넓고 깔끔한 풀옵션 대로변 편의시설 인접,209,209,서울,동작구,empty,상도로41길 22,209,209,209,209,625,626,627,/homeImage/209/01.jpg,/homeImage/209/02.jpg,/homeImage/209/03.jpg,209,/hostImage/89.jpg,1,1,1,1,0,2,0,1,1
66066d4312efd3b938d7dc9c,1,1,1,1,1,1,1,0,1,0,0,0,1,1,OR,0,0,1,0,1,0,1,1,0,1,210,나예준,71,01063402155,M,김서영,01005661483,자녀,680308-1396171,xx-xxxxx-xxx,하나,서울 동작구 노량진동 220-29,34,37.509222,126.945285,UNAUTHORIZED_MEMBER,융자없는집. 학원가3분. 가성비좋은방,210,210,서울,동작구,empty,만양로 67,210,210,210,210,628,629,630,/homeImage/210/01.jpg,/homeImage/210/02.jpg,/homeImage/210/03.jpg,210,/hostImage/90.jpg,0,1,0,0,1,2,0,1,0
66066d4312efd3b938d7dc9d,1,1,1,1,1,1,1,0,1,0,0,1,1,1,OR,0,0,1,0,1,0,0,0,0,1,211,박영순,75,01094738619,M,김현준,01026109806,자녀,790022-2354310,xx-xxxxx-xxx,수협,서울 동작구 상도동 361-141,40,37.504976,126.935138,UNAUTHORIZED_MEMBER,장승배기역 역세권 엘베있는 초저렴 원룸,211,211,서울,동작구,empty,상도로15바길 26,211,211,211,211,631,632,633,/homeImage/211/01.jpg,/homeImage/211/02.jpg,/homeImage/211/03.jpg,211,/hostImage/91.jpg,0,1,0,0,0,2,0,0,0
66066d4312efd3b938d7dc9e,1,1,1,1,1,1,1,0,1,0,0,1,1,1,OR,0,0,0,1,0,0,0,1,1,1,212,박예지,97,01016980085,F,조성현,01015515139,자녀,880711-1698959,xx-xxxxx-xxx,우체국,서울 동작구 상도동 361-101,40,37.503849,126.934701,UNAUTHORIZED_MEMBER,장승배기역 도보 5분거리 이용 가능 언제 든지 입주협의 가능 밝고환해요,212,212,서울,동작구,empty,상도로15아길 11,212,212,212,212,634,635,636,/homeImage/212/01.jpg,/homeImage/212/02.jpg,/homeImage/212/03.jpg,212,/hostImage/92.jpg,1,0,0,0,0,1,0,1,1
66066d4312efd3b938d7dc9f,1,1,1,1,1,1,1,0,1,0,1,0,1,1,OR,0,1,0,1,1,0,1,1,1,1,213,김성훈,96,01022812103,F,최영일,01069147975,자녀,580321-1427407,xx-xxxxx-xxx,농협,서울 동작구 상도동 243-19,45,37.500712,126.934578,UNAUTHORIZED_MEMBER,"L신대방삼거리역, 장승배기역 도보권 극강 원룸",213,213,서울,동작구,empty,성대로29길 122,213,213,213,213,637,638,639,/homeImage/213/01.jpg,/homeImage/213/02.jpg,/homeImage/213/03.jpg,213,/hostImage/93.jpg,1,1,0,0,1,1,1,1,1
66066d4312efd3b938d7dca0,1,1,1,1,1,1,1,0,1,0,0,1,1,1,OR,0,0,1,1,1,0,0,0,1,1,214,이서연,90,01088507904,F,이민지,01024464578,자녀,400829-2419230,xx-xxxxx-xxx,씨티,서울 동작구 노량진동 119-146,48,37.511739,126.945052,USER,노량진 학원가 큰 원룸 실6P 내부시설 좋음 빠른입주 가능,214,214,서울,동작구,empty,만양로16길 31,214,214,214,214,640,641,642,/homeImage/214/01.jpg,/homeImage/214/02.jpg,/homeImage/214/03.jpg,214,/hostImage/94.jpg,1,1,0,0,0,2,0,0,1
66066d4312efd3b938d7dca1,1,1,1,1,1,1,1,1,1,0,0,0,1,1,OR,1,1,0,1,0,0,0,1,0,1,215,한재현,79,01061090304,F,권준혁,01029179921,자녀,310503-1383204,xx-xxxxx-xxx,산업,서울 동작구 상도1동 483-1,60,37.503738,126.951926,USER,중앙대5분 남학생전용 신축급컨디션 풀옵션 원룸입니다.,215,215,서울,동작구,empty,상도로47길 102,215,215,215,215,643,644,645,/homeImage/215/01.jpg,/homeImage/215/02.jpg,/homeImage/215/03.jpg,215,/hostImage/95.jpg,1,0,1,0,0,1,1,1,0
66066d4312efd3b938d7dca2,1,1,1,1,1,1,1,0,1,0,0,0,1,1,OR,1,0,0,0,0,0,0,1,1,1,216,오민지,75,01001832681,F,양미영,01022089308,자녀,740302-1236055,xx-xxxxx-xxx,우체국,서울 동작구 대방동 20-48,43,37.509296,126.931714,UNAUTHORIZED_MEMBER,대방역도보10분 리모델링완료 옵션최고 넓은원룸 가성비최고,216,216,서울,동작구,empty,여의대방로36길 101,216,216,216,216,646,647,648,/homeImage/216/01.jpg,/homeImage/216/02.jpg,/homeImage/216/03.jpg,216,/hostImage/96.jpg,0,0,1,0,0,1,0,1,1
66066d4312efd3b938d7dca3,1,1,1,1,1,1,1,0,1,0,0,1,1,1,OR,0,0,0,1,0,1,0,0,1,0,217,김정남,67,01048223372,M,장정남,01014816963,자녀,140425-1658237,xx-xxxxx-xxx,신한,서울 동작구 상도1동 428-13,45,37.501948,126.950379,UNAUTHORIZED_MEMBER,상도역 큰대로변 깔끔한 신축급 원룸,217,217,서울,동작구,empty,상도로41길 22,217,217,217,217,649,650,651,/homeImage/217/01.jpg,/homeImage/217/02.jpg,/homeImage/217/03.jpg,217,/hostImage/97.jpg,1,0,0,1,0,0,0,0,1
66066d4312efd3b938d7dca4,1,1,1,1,1,1,1,0,1,0,0,0,1,1,OR,1,0,0,0,1,1,1,1,1,0,218,김민석,86,01065330414,M,김준호,01007863941,자녀,980718-2025024,xx-xxxxx-xxx,대구,서울 동작구 노량진동 215-108,43,37.508459,126.947545,UNAUTHORIZED_MEMBER,깔끔한 풀옵션 원룸,218,218,서울,동작구,empty,만양로6길 8,218,218,218,218,652,653,654,/homeImage/218/01.jpg,/homeImage/218/02.jpg,/homeImage/218/03.jpg,218,/hostImage/98.jpg,0,1,1,1,1,0,0,1,1
66066d4312efd3b938d7dca5,1,1,1,1,1,1,1,1,1,0,0,0,1,1,OR,0,1,1,0,0,1,0,0,1,0,219,박은주,76,01047375287,M,이서현,01021952956,자녀,480610-1018827,xx-xxxxx-xxx,부산,서울 동작구 상도동 464-5,60,37.500217,126.952386,UNAUTHORIZED_MEMBER,융자없고 깔끔수리된 엘베있는 풀옵션 원룸입니다.,219,219,서울,동작구,empty,상도로47나길 4,219,219,219,219,655,656,657,/homeImage/219/01.jpg,/homeImage/219/02.jpg,/homeImage/219/03.jpg,219,/hostImage/99.jpg,0,0,0,1,0,1,1,0,1
66066d4312efd3b938d7dca6,1,1,1,1,1,1,1,0,1,0,0,0,1,1,OR,0,1,1,0,1,1,0,0,0,0,220,김상현,96,01064547375,M,차영길,01007187907,자녀,780328-2320424,xx-xxxxx-xxx,전북,서울 동작구 대방동 20-48,38,37.509296,126.931714,UNAUTHORIZED_MEMBER,대방역도보10분 리모델링완료 옵션최고 넓은원룸 가성비최고,220,220,서울,동작구,empty,여의대방로36길 101,220,220,220,220,658,659,660,/homeImage/220/01.jpg,/homeImage/220/02.jpg,/homeImage/220/03.jpg,220,/hostImage/100.jpg,0,1,0,1,0,1,1,0,0
66066d4312efd3b938d7dca7,1,1,1,1,1,1,1,1,1,0,0,1,1,1,OR,1,0,1,1,0,1,1,1,0,1,221,홍진우,88,01041218693,F,김서현,01030893193,자녀,260814-2464499,xx-xxxxx-xxx,전북,서울 동작구 노량진동 119-241,33,37.511688,126.943687,USER,"공실, 학원가 인근,신축급 깨끗한 풀옵션 원룸",221,221,서울,동작구,empty,노량진로14나길 19,221,221,221,221,661,662,663,/homeImage/221/01.jpg,/homeImage/221/02.jpg,/homeImage/221/03.jpg,221,/hostImage/101.jpg,1,0,1,1,1,2,0,1,0
66066d4312efd3b938d7dca8,1,1,1,1,1,1,1,0,1,0,0,0,1,1,OR,1,1,1,1,0,0,0,1,1,0,222,이민서,71,01053782532,F,김성진,01014498504,자녀,170206-1436052,xx-xxxxx-xxx,제주,서울 동작구 노량진동 205-259,37,37.511523,126.947336,UNAUTHORIZED_MEMBER,가성비최고 크기좋고 관리잘 된 풀옵션 원룸,222,222,서울,동작구,empty,만양로14사길 20,222,222,222,222,664,665,666,/homeImage/222/01.jpg,/homeImage/222/02.jpg,/homeImage/222/03.jpg,222,/hostImage/102.jpg,1,0,1,0,0,1,1,1,1
66066d4312efd3b938d7dca9,1,1,1,1,1,1,1,0,1,0,1,1,1,1,OR,1,1,0,0,0,1,0,0,0,0,223,이미영,86,01037838409,M,장지원,01083287695,자녀,370619-2140365,xx-xxxxx-xxx,하나,서울 동작구 상도동 331-86,30,37.501755,126.932957,USER,"L신대방삼거리역, 장승배기역 도보권 극강 원룸",223,223,서울,동작구,empty,상도로15나길 3,223,223,223,223,667,668,669,/homeImage/223/01.jpg,/homeImage/223/02.jpg,/homeImage/223/03.jpg,223,/hostImage/103.jpg,0,0,1,1,0,0,1,0,0
66066d4312efd3b938d7dcaa,1,1,1,1,1,1,1,0,1,0,1,0,1,1,OR,1,0,1,0,1,1,1,1,1,1,224,최지원,72,01008308281,F,김지훈,01038523095,자녀,170820-2617448,xx-xxxxx-xxx,토스,서울 동작구 노량진동 215-100,30,37.508848,126.947218,USER,실1층 지상층. 금액좋은방. 학원가7분. 관리잘되는집,224,224,서울,동작구,empty,만양로6길 18,224,224,224,224,670,671,672,/homeImage/224/01.jpg,/homeImage/224/02.jpg,/homeImage/224/03.jpg,224,/hostImage/104.jpg,0,1,1,1,1,2,0,1,1
66066d4312efd3b938d7dcab,1,1,1,1,1,1,1,0,1,0,1,0,1,1,OR,0,1,0,1,1,0,0,1,1,1,225,최영진,72,01073361136,F,박서영,01036522724,자녀,080002-1550373,xx-xxxxx-xxx,경남,서울 동작구 노량진동 219-34,44,37.508563,126.946556,UNAUTHORIZED_MEMBER,실제면적 훨씬 넓고 앞이 틔여있어 채광좋고 깨끗한 도시형생활주택,225,225,서울,동작구,empty,만양로 51,225,225,225,225,673,674,675,/homeImage/225/01.jpg,/homeImage/225/02.jpg,/homeImage/225/03.jpg,225,/hostImage/105.jpg,1,1,0,0,0,1,1,1,1
66066d4312efd3b938d7dcac,1,1,1,1,1,1,1,1,1,0,0,0,1,1,DDDGG,1,0,1,1,0,0,0,0,1,0,226,박상철,73,01027262976,F,장수진,01087525207,자녀,060515-1146008,xx-xxxxx-xxx,부산,서울 동작구 대방동 20-48,38,37.509296,126.931714,UNAUTHORIZED_MEMBER,대방역도보10분 리모델링완료 옵션최고 넓은원룸 가성비최고,226,226,서울,동작구,empty,여의대방로36길 101,226,226,226,226,676,677,678,/homeImage/226/01.jpg,/homeImage/226/02.jpg,/homeImage/226/03.jpg,226,/hostImage/106.jpg,1,0,1,0,0,1,0,0,1
66066d4312efd3b938d7dcad,1,1,1,1,1,1,1,0,1,0,1,0,1,1,OR,0,0,1,0,0,0,0,0,0,1,227,김영환,68,01066430582,M,이춘자,01058253192,자녀,880001-2109676,xx-xxxxx-xxx,토스,서울 동작구 노량진동 215-115,45,37.508692,126.947129,UNAUTHORIZED_MEMBER,방크고  깨끗하며 채광좋고 조용한  원룸,227,227,서울,동작구,empty,만양로6길 15,227,227,227,227,679,680,681,/homeImage/227/01.jpg,/homeImage/227/02.jpg,/homeImage/227/03.jpg,227,/hostImage/107.jpg,0,0,0,0,0,2,0,0,0
66066d4312efd3b938d7dcae,1,1,1,1,1,1,1,0,1,0,0,0,1,1,OR,0,1,0,1,1,1,0,0,0,0,228,황예은,72,01036911663,F,김지훈,01049199972,자녀,980329-1619275,xx-xxxxx-xxx,기업,서울 동작구 대방동 20-48,43,37.509296,126.931714,USER,돌침대옵션 리모델링 사이즈좋은 원룸 즉시입주,228,228,서울,동작구,empty,여의대방로36길 101,228,228,228,228,682,683,684,/homeImage/228/01.jpg,/homeImage/228/02.jpg,/homeImage/228/03.jpg,228,/hostImage/108.jpg,1,1,0,1,0,0,1,0,0
66066d4312efd3b938d7dcaf,1,1,1,1,1,1,1,0,1,0,0,1,1,1,OR,1,0,1,1,0,1,0,1,1,1,229,김승현,96,01011191692,F,김영철,01067299603,자녀,900012-1108232,xx-xxxxx-xxx,전북,서울 동작구 상도1동 696,45,37.504099,126.948156,UNAUTHORIZED_MEMBER,상도역1분.관리인상주해 안전.채광좋아요.안심대로변,229,229,서울,동작구,empty,상도로 265,229,229,229,229,685,686,687,/homeImage/229/01.jpg,/homeImage/229/02.jpg,/homeImage/229/03.jpg,229,/hostImage/109.jpg,1,0,1,1,0,2,0,1,1
66066d4312efd3b938d7dcb0,1,1,1,1,1,1,1,0,1,0,0,0,1,1,OR,1,0,1,0,1,1,0,0,0,0,230,안영희,75,01019944133,M,주수진,01042178197,자녀,270409-1868981,xx-xxxxx-xxx,토스,서울 동작구 대방동 20-89,43,37.509193,126.931516,UNAUTHORIZED_MEMBER,따뜻하고 조용한 방,230,230,서울,동작구,empty,여의대방로36길 101,230,230,230,230,688,689,690,/homeImage/230/01.jpg,/homeImage/230/02.jpg,/homeImage/230/03.jpg,230,/hostImage/110.jpg,0,1,1,1,0,1,0,0,0
66066d4312efd3b938d7dcb1,1,1,1,1,1,1,1,0,1,0,0,1,1,1,OR,0,0,0,0,0,1,1,1,0,0,231,이예은,82,01036064057,M,강순자,01036168855,자녀,560305-2832975,xx-xxxxx-xxx,카카오,서울 동작구 상도1동 428-13,45,37.501948,126.950379,USER,단기가능.상도역신축원룸. 안전한 대로변. 중대.숭대 통학가능.,231,231,서울,동작구,empty,상도로41길 22,231,231,231,231,691,692,693,/homeImage/231/01.jpg,/homeImage/231/02.jpg,/homeImage/231/03.jpg,231,/hostImage/111.jpg,0,0,0,1,1,0,0,1,0
66066d4312efd3b938d7dcb2,1,1,1,1,1,1,1,0,1,0,0,0,1,1,OR,0,0,1,1,1,0,0,1,1,0,232,허준호,79,01067941518,M,김서영,01063470076,자녀,710209-1894749,xx-xxxxx-xxx,산업,서울 동작구 노량진동 220-11,45,37.508982,126.945225,UNAUTHORIZED_MEMBER,실2층 베란다있는방. 신축급컨디션. 관리잘되는집. 채광좋은집,232,232,서울,동작구,empty,만양로13길 37,232,232,232,232,694,695,696,/homeImage/232/01.jpg,/homeImage/232/02.jpg,/homeImage/232/03.jpg,232,/hostImage/112.jpg,1,1,0,0,0,1,0,1,1
66066d4312efd3b938d7dcb3,1,1,1,1,1,1,1,0,1,0,0,0,1,1,OR,0,0,0,1,0,1,1,1,0,0,233,이지영,73,01088317951,M,이성민,01014316231,자녀,110823-1132218,xx-xxxxx-xxx,수협,서울 동작구 노량진동 123-43,38,37.510443,126.945963,UNAUTHORIZED_MEMBER,종일 햇살이 들어오는 노량진에서 보기 드문  가성비 좋은 정남향 원룸,233,233,서울,동작구,empty,만양로8길 64,233,233,233,233,697,698,699,/homeImage/233/01.jpg,/homeImage/233/02.jpg,/homeImage/233/03.jpg,233,/hostImage/113.jpg,1,0,0,1,1,0,0,1,0
66066d4312efd3b938d7dcb4,1,1,1,1,1,1,1,1,1,0,0,1,1,1,OR,0,1,1,1,1,1,0,1,0,0,234,오성진,82,01091884638,F,하현지,01063837413,자녀,420122-1192817,xx-xxxxx-xxx,토스,서울 동작구 대방동 391-23,40,37.501686,126.927859,USER,대출가능 가성비끝판왕 초저렴신축원룸,234,234,서울,동작구,empty,대방동길 21,234,234,234,234,700,701,702,/homeImage/234/01.jpg,/homeImage/234/02.jpg,/homeImage/234/03.jpg,234,/hostImage/114.jpg,1,1,0,1,0,1,1,1,0
66066d4312efd3b938d7dcb5,1,1,1,1,1,1,1,1,1,0,0,1,1,1,OR,1,0,1,0,0,0,1,1,1,0,235,최상호,86,01016199422,F,한동현,01072824875,자녀,420009-1287037,xx-xxxxx-xxx,신한,서울 동작구 상도1동 732,40,37.50259,126.947235,UNAUTHORIZED_MEMBER,상도역초역세권 보면 바로 계약가능 저렴한 신축분리형,235,235,서울,동작구,empty,상도로38나길 14,235,235,235,235,703,704,705,/homeImage/235/01.jpg,/homeImage/235/02.jpg,/homeImage/235/03.jpg,235,/hostImage/115.jpg,0,0,1,0,1,1,0,1,1
66066d4312efd3b938d7dcb6,1,1,1,1,1,1,1,1,1,0,0,0,1,1,OR,0,1,0,0,0,1,0,1,1,1,236,황예준,69,01058977132,F,이윤서,01010087703,자녀,910415-1534229,xx-xxxxx-xxx,SC제일,서울 동작구 상도1동 312-2,35,37.500551,126.952351,USER,안심대로변 상도역가까운 가성비원룸,236,236,서울,동작구,empty,상도로47길 32,236,236,236,236,706,707,708,/homeImage/236/01.jpg,/homeImage/236/02.jpg,/homeImage/236/03.jpg,236,/hostImage/116.jpg,0,0,0,1,0,1,1,1,1
66066d4312efd3b938d7dcb7,1,1,1,1,1,1,1,0,1,0,0,1,1,1,OR,0,0,0,1,0,1,1,1,0,1,237,송순옥,87,01017660672,M,차지혜,01008848880,자녀,790106-1097671,xx-xxxxx-xxx,수협,서울 동작구 상도1동 732,50,37.50259,126.947235,UNAUTHORIZED_MEMBER,상도역1분.신축넓은분리형.위치좋아안전.집주인거주,237,237,서울,동작구,empty,상도로38나길 14,237,237,237,237,709,710,711,/homeImage/237/01.jpg,/homeImage/237/02.jpg,/homeImage/237/03.jpg,237,/hostImage/117.jpg,1,0,0,1,1,1,0,1,0
66066d4312efd3b938d7dcb8,1,1,1,1,1,1,1,1,1,0,1,1,1,1,OR,1,1,1,1,1,1,1,0,0,1,238,홍지현,98,01055785171,F,박승민,01086268800,자녀,360111-2396549,xx-xxxxx-xxx,SC제일,서울 동작구 상도1동 426-1,45,37.501511,126.950602,USER,"중앙대,숭실대 깔끔한 반지층 풀옵션 원룸",238,238,서울,동작구,empty,상도로47가길 38,238,238,238,238,712,713,714,/homeImage/238/01.jpg,/homeImage/238/02.jpg,/homeImage/238/03.jpg,238,/hostImage/118.jpg,1,1,1,1,1,2,1,0,0
66066d4312efd3b938d7dcb9,1,1,1,1,1,1,1,1,1,0,1,1,1,1,OR,1,0,0,0,0,1,1,1,0,1,239,이아름,98,01051954860,M,이예진,01061341238,자녀,200419-2786828,xx-xxxxx-xxx,수협,서울 동작구 상도동 22-52,45,37.506346,126.946436,USER,풀옵션원룸 빠른입주가능,239,239,서울,동작구,empty,만양로1길 15,239,239,239,239,715,716,717,/homeImage/239/01.jpg,/homeImage/239/02.jpg,/homeImage/239/03.jpg,239,/hostImage/119.jpg,0,0,1,1,1,1,0,1,0
66066d4312efd3b938d7dcba,1,1,1,1,1,1,1,0,1,0,1,1,1,1,OR,1,0,1,1,0,1,1,1,0,0,240,홍종수,67,01047225066,F,강민석,01032069739,자녀,450209-1808282,xx-xxxxx-xxx,신한,서울 동작구 상도동 356-140,45,37.502288,126.933696,USER,채광좋은 깔끔한 원룸 전세가능 주차가능,240,240,서울,동작구,empty,상도로15길 33,240,240,240,240,718,719,720,/homeImage/240/01.jpg,/homeImage/240/02.jpg,/homeImage/240/03.jpg,240,/hostImage/120.jpg,1,0,1,1,1,1,0,1,0
66066d4312efd3b938d7dcbb,1,1,1,1,1,1,1,0,1,0,1,0,1,1,OR,1,1,1,1,1,1,1,1,0,1,241,김영순,96,01059565299,F,이상호,01052432376,자녀,340118-1389667,xx-xxxxx-xxx,제주,서울 동작구 대방동 20-87,40,37.509329,126.931514,UNAUTHORIZED_MEMBER,"집앞이 마을버스 정류장, 월세가 저렴한 집,",241,241,서울,동작구,empty,여의대방로36길 101,241,241,241,241,721,722,723,/homeImage/241/01.jpg,/homeImage/241/02.jpg,/homeImage/241/03.jpg,241,/hostImage/1.jpg,1,1,1,1,1,2,1,1,0
66066d4312efd3b938d7dcbc,1,1,1,1,1,1,1,0,1,0,1,0,1,1,OR,1,0,1,1,0,0,0,0,1,1,242,이상철,73,01024442145,M,김예진,01010086129,자녀,840719-1991155,xx-xxxxx-xxx,광주,서울 동작구 대방동 20-48,38,37.509296,126.931714,UNAUTHORIZED_MEMBER,"넓은 원룸, 침대있음,  상태 아주깨끗하고  저렴",242,242,서울,동작구,empty,여의대방로36길 101,242,242,242,242,724,725,726,/homeImage/242/01.jpg,/homeImage/242/02.jpg,/homeImage/242/03.jpg,242,/hostImage/2.jpg,1,0,1,0,0,2,0,0,1
66066d4312efd3b938d7dcbd,1,1,1,1,1,1,1,0,1,0,1,0,1,1,OR,0,0,0,0,0,1,1,0,0,1,243,홍지원,72,01002571285,F,박옥순,01028686465,자녀,150206-2289150,xx-xxxxx-xxx,경남,서울 동작구 대방동 17-39,50,37.509138,126.93186,USER,역세권신축급의 채광조은 큰 방,243,243,서울,동작구,empty,등용로9길 1,243,243,243,243,727,728,729,/homeImage/243/01.jpg,/homeImage/243/02.jpg,/homeImage/243/03.jpg,243,/hostImage/3.jpg,0,0,0,1,1,1,0,0,0
66066d4312efd3b938d7dcbe,1,1,1,1,1,1,1,0,1,0,1,1,1,1,OR,1,1,1,0,0,1,0,1,0,1,244,김상훈,93,01048399328,M,이민재,01006272481,자녀,880110-1665717,xx-xxxxx-xxx,케이,서울 동작구 노량진동 270,40,37.512297,126.935181,USER,햇살맛집넉넉한평수깔끔한내실,244,244,서울,동작구,empty,등용로14길 66,244,244,244,244,730,731,732,/homeImage/244/01.jpg,/homeImage/244/02.jpg,/homeImage/244/03.jpg,244,/hostImage/4.jpg,0,0,1,1,0,2,1,1,0
66066d4312efd3b938d7dcbf,1,1,1,1,1,1,1,0,1,0,1,0,1,1,OR,0,1,0,1,1,1,1,0,1,1,245,이민수,94,01091778366,F,이아름,01064932091,자녀,010719-2170493,xx-xxxxx-xxx,산업,서울 동작구 대방동 20-87,40,37.509329,126.931514,UNAUTHORIZED_MEMBER,역세권 신축급의 햇살조은 깔끔한 원룸,245,245,서울,동작구,empty,여의대방로36길 101,245,245,245,245,733,734,735,/homeImage/245/01.jpg,/homeImage/245/02.jpg,/homeImage/245/03.jpg,245,/hostImage/5.jpg,1,1,0,1,1,1,1,0,1
66066d4312efd3b938d7dcc0,1,1,1,1,1,1,1,0,1,0,0,0,1,1,OR,0,1,0,0,0,1,1,0,0,0,246,이민지,83,01033394171,M,이지민,01077477322,자녀,010504-1864598,xx-xxxxx-xxx,케이,서울 동작구 대방동 20-48,43,37.509296,126.931714,UNAUTHORIZED_MEMBER,"넓은방 아주 깨끗함, 바로 입주, 침대도 있음",246,246,서울,동작구,empty,여의대방로36길 101,246,246,246,246,736,737,738,/homeImage/246/01.jpg,/homeImage/246/02.jpg,/homeImage/246/03.jpg,246,/hostImage/6.jpg,0,0,0,1,1,0,1,0,0
66066d4312efd3b938d7dcc1,1,1,1,1,1,1,1,0,1,0,1,0,1,1,OR,1,1,0,0,0,1,1,1,1,0,247,이예원,89,01077754242,M,박지훈,01009109529,자녀,000927-1537800,xx-xxxxx-xxx,케이,서울 동작구 노량진동 206-8,45,37.512176,126.946913,UNAUTHORIZED_MEMBER,깔끔하고 학원가에 인접한 원룸입니다,247,247,서울,동작구,empty,만양로14바길 5,247,247,247,247,739,740,741,/homeImage/247/01.jpg,/homeImage/247/02.jpg,/homeImage/247/03.jpg,247,/hostImage/7.jpg,0,0,1,1,1,0,1,1,1
66066d4312efd3b938d7dcc2,0,1,1,0,1,1,0,1,1,0,1,0,1,0,OR,0,1,1,1,0,0,1,0,0,0,248,오서준,89,01096341972,M,최성현,01027540146,자녀,120024-1045642,xx-xxxxx-xxx,국민,서울 동작구 대방동 391-80,30,37.502483,126.924278,USER,empty,248,248,서울,동작구,empty,대방동27길 61,248,248,248,248,742,743,744,/homeImage/248/01.jpg,/homeImage/248/02.jpg,/homeImage/248/03.jpg,248,/hostImage/8.jpg,1,0,0,0,1,1,1,0,0
66066d4312efd3b938d7dcc3,1,1,0,0,0,0,1,0,0,0,1,1,0,0,OR,1,0,1,0,0,1,1,1,0,0,249,김채원,98,01025363199,F,박영길,01021326601,자녀,040920-1293448,xx-xxxxx-xxx,우리,서울 동작구 대방동 392-4,40,37.502583,126.927677,USER,empty,249,249,서울,동작구,empty,대방동2길 33,249,249,249,249,745,746,747,/homeImage/249/01.jpg,/homeImage/249/02.jpg,/homeImage/249/03.jpg,249,/hostImage/9.jpg,0,0,1,1,1,1,0,1,0
66066d4312efd3b938d7dcc4,1,1,0,1,1,0,1,0,1,1,1,0,1,1,OR,0,0,0,1,1,1,0,0,1,1,250,김수진,81,01017312598,M,우보람,01086261464,자녀,650514-1438043,xx-xxxxx-xxx,우체국,서울 동작구 대방동 391-245,35,37.502724,126.924984,UNAUTHORIZED_MEMBER,empty,250,250,서울,동작구,empty,대방동15길 5,250,250,250,250,748,749,750,/homeImage/250/01.jpg,/homeImage/250/02.jpg,/homeImage/250/03.jpg,250,/hostImage/10.jpg,1,1,0,1,0,1,0,0,1
66066d4312efd3b938d7dcc5,1,0,1,0,0,0,1,1,0,1,1,1,1,0,OR,1,1,1,0,0,0,1,0,1,1,251,이미경,90,01049146952,M,이민준,01051695237,자녀,120024-2914176,xx-xxxxx-xxx,씨티,서울 동작구 대방동 391-540,35,37.501324,126.927407,USER,empty,251,251,서울,동작구,empty,대방동5길 4,251,251,251,251,751,752,753,/homeImage/251/01.jpg,/homeImage/251/02.jpg,/homeImage/251/03.jpg,251,/hostImage/11.jpg,0,0,1,0,1,2,1,0,1
66066d4312efd3b938d7dcc6,1,1,1,1,1,1,1,0,1,0,0,1,1,1,DDDGG,0,0,1,1,0,0,1,1,1,0,252,권상현,96,01022991699,F,강영진,01056283606,자녀,040020-1123260,xx-xxxxx-xxx,수협,서울 동작구 대방동 391-152,45,37.501173,126.925904,USER,초역세권 합리적인 금액에 좋은 컨디션을 보여주는 원룸 소개해드립니다,252,252,서울,동작구,empty,대방동3길 29,252,252,252,252,754,755,756,/homeImage/252/01.jpg,/homeImage/252/02.jpg,/homeImage/252/03.jpg,252,/hostImage/12.jpg,1,0,0,0,1,1,0,1,1
66066d4312efd3b938d7dcc7,1,1,1,1,1,1,1,1,1,0,0,1,1,1,DDDGG,0,0,0,0,1,0,0,1,1,0,253,박준영,67,01064239065,F,오아름,01089826760,자녀,790407-1125311,xx-xxxxx-xxx,제주,서울 동작구 상도동 248-24,40,37.500373,126.933337,UNAUTHORIZED_MEMBER,채광 좋은 가성비 꿀 매물,253,253,서울,동작구,empty,성대로3길 17,253,253,253,253,757,758,759,/homeImage/253/01.jpg,/homeImage/253/02.jpg,/homeImage/253/03.jpg,253,/hostImage/13.jpg,0,1,0,0,0,0,0,1,1
66066d4312efd3b938d7dcc8,1,1,1,1,1,1,1,0,1,0,0,1,1,1,OR,1,0,0,0,1,1,1,1,0,0,254,권채원,94,01043554771,M,김영길,01007451441,자녀,810204-2351137,xx-xxxxx-xxx,우리,서울 동작구 상도1동 426-1,45,37.501511,126.950602,USER,상도역4분. 화장실이 넓은방. 화이트톤. 안전한집,254,254,서울,동작구,empty,상도로47가길 38,254,254,254,254,760,761,762,/homeImage/254/01.jpg,/homeImage/254/02.jpg,/homeImage/254/03.jpg,254,/hostImage/14.jpg,0,1,1,1,1,0,0,1,0
