_id,internet,gas,washing_machine,air_conditioner,refrigerator,elevator,microwave,breakfast,toilet,heating,parking,station,move_in_date,sink,type,smoke,pet,clean,daytime,nighttime,extrovert,introvert,cold,hot,no_touch,home_no,host_name,host_age,host_phone,host_gender,guardian_name,guardian_phone,relation,host_register_no,host_account_no,host_bank,address,rent,lat,lng,register_member_role,introduce,host_personality_no,home_option_no,si,sgg,emd,ro,home_image_no,home_image[0].home_no,home_image[1].home_no,home_image[2].home_no,home_image[0].home_image_no,home_image[1].home_image_no,home_image[2].home_image_no,home_image[0].home_image_url,home_image[1].home_image_url,home_image[2].home_image_url,host_image_no,host_image_url,host_vector.day_element,host_vector.night_element,host_vector.smoke_element,host_vector.extro_element,host_vector.intro_element,host_vector.mannered_element,host_vector.pet_lover_element,host_vector.cold_element,host_vector.hot_element
6606822a2b9cfb2855556460,1,1,1,1,1,1,1,0,1,0,0,1,1,1,OR,0,0,1,1,0,0,0,1,1,1,1,이성진,78,01098806951,M,김상철,01032246827,자녀,270427-2788102,xx-xxxxx-xxx,수협,서울 성동구 성수동1가 7-3,70,37.548342,127.046468,USER,"뚝섬역 도보 3분, 컨디션 좋은 풀옵션 원룸",1,1,서울,성동구,empty,왕십리로14길 28,1,1,1,1,1,2,3,/homeImage/1/01.jpg,/homeImage/1/02.jpg,/homeImage/1/03.jpg,1,/hostImage/1.jpg,1,0,0,0,0,2,0,1,1
6606822a2b9cfb2855556461,1,1,1,1,1,1,1,1,1,0,1,0,1,1,VL,1,0,1,0,1,1,1,1,1,0,2,김민준,89,01093587090,F,김현숙,01047836345,자녀,900807-2995437,xx-xxxxx-xxx,SC제일,서울 성동구 응봉동 265-96,35,37.552341,127.029985,USER,올수리 깨끗함,2,2,서울,성동구,empty,독서당로59가길 27,2,2,2,2,4,5,6,/homeImage/2/01.jpg,/homeImage/2/02.jpg,/homeImage/2/03.jpg,2,/hostImage/2.jpg,0,1,1,1,1,1,0,1,1
6606822a2b9cfb2855556462,1,1,1,1,1,1,1,0,1,0,0,1,1,1,OR,1,0,1,0,0,1,1,1,1,1,3,박성현,89,01035788721,F,이주원,01053136753,자녀,010526-2209708,xx-xxxxx-xxx,신한,서울 성동구 용답동 24-13,50,37.561471,127.054653,UNAUTHORIZED_MEMBER,풀옵션의 깔끔한 분리형 원룸 더블 역세권으로 교통편리,3,3,서울,성동구,empty,용답25길 4,3,3,3,3,7,8,9,/homeImage/3/01.jpg,/homeImage/3/02.jpg,/homeImage/3/03.jpg,3,/hostImage/3.jpg,0,0,1,1,1,2,0,1,1
6606822a2b9cfb2855556463,1,1,1,1,1,1,1,0,1,0,0,1,1,1,OR,0,0,0,1,0,0,1,0,1,0,4,권경희,89,01000687615,M,박지원,01043613181,자녀,260728-2540761,xx-xxxxx-xxx,대구,서울 성동구 용답동 24-13,25,37.561471,127.054653,USER,풀옵션의 깔끔한 분리형 원룸 더블 역세권으로 교통편리,4,4,서울,성동구,empty,용답25길 4,4,4,4,4,10,11,12,/homeImage/4/01.jpg,/homeImage/4/02.jpg,/homeImage/4/03.jpg,4,/hostImage/4.jpg,1,0,0,0,1,0,0,0,1
6606822a2b9cfb2855556464,1,1,1,1,1,1,1,0,1,0,1,0,1,1,DDDGG,1,0,0,0,1,0,0,1,0,0,5,강지원,92,01093240995,M,황선영,01057185699,자녀,120014-2831482,xx-xxxxx-xxx,광주,서울 성동구 성수동2가 566-27,60,37.537809,127.055521,UNAUTHORIZED_MEMBER,투룸. 풀옵션. 수리된. 컨디션우수,5,5,서울,성동구,empty,성덕정17길 4,5,5,5,5,13,14,15,/homeImage/5/01.jpg,/homeImage/5/02.jpg,/homeImage/5/03.jpg,5,/hostImage/5.jpg,0,1,1,0,0,0,0,1,0
6606822a2b9cfb2855556465,1,1,1,1,1,1,1,0,1,0,0,1,1,1,DDDGG,1,0,0,0,1,0,0,1,0,1,6,박지연,100,01097061742,M,박재현,01016315345,자녀,590815-2983044,xx-xxxxx-xxx,카카오,서울 성동구 성수동2가 301-27,60,37.544543,127.050563,USER,"내부컨디션 깔끔한 분리형 원룸, 풀옵션",6,6,서울,성동구,성수동2가,empty,6,6,6,6,16,17,18,/homeImage/6/01.jpg,/homeImage/6/02.jpg,/homeImage/6/03.jpg,6,/hostImage/6.jpg,0,1,1,0,0,1,0,1,0
6606822a2b9cfb2855556466,1,1,1,1,1,1,1,0,1,0,0,1,1,1,DDDGG,0,0,0,1,1,1,1,0,0,1,7,김현숙,72,01006418640,F,최영철,01011936398,자녀,040511-1851237,xx-xxxxx-xxx,경남,서울 성동구 성수동1가 7-3,70,37.548342,127.046468,UNAUTHORIZED_MEMBER,뚝섬역 초역세권 분리형 원룸 풀옵션,7,7,서울,성동구,empty,왕십리로14길 28,7,7,7,7,19,20,21,/homeImage/7/01.jpg,/homeImage/7/02.jpg,/homeImage/7/03.jpg,7,/hostImage/7.jpg,1,1,0,1,1,1,0,0,0
6606822a2b9cfb2855556467,1,1,1,1,1,1,1,0,1,0,0,1,1,1,DDDGG,0,0,0,1,0,1,1,1,1,1,8,남영순,86,01005698721,F,심정자,01086393074,자녀,910423-1623001,xx-xxxxx-xxx,토스,서울 성동구 성수동1가 656-342,55,37.551234,127.045418,UNAUTHORIZED_MEMBER,"뚝섬역7분거리, 3층, 오픈형원룸, 풀옵션,4월14일이후,직장인,한양대생",8,8,서울,성동구,성수동1가,empty,8,8,8,8,22,23,24,/homeImage/8/01.jpg,/homeImage/8/02.jpg,/homeImage/8/03.jpg,8,/hostImage/8.jpg,1,0,0,1,1,1,0,1,1
6606822a2b9cfb2855556468,1,1,1,1,1,1,1,0,1,0,1,1,1,1,OR,1,0,1,1,1,0,0,0,0,1,9,김경희,86,01004720465,M,한은주,01018202808,자녀,060725-2409073,xx-xxxxx-xxx,카카오,서울 성동구 성수동1가 656-1010,70,37.542166,127.047105,USER,서울숲 맞은편 새촌 저렴한 월세 분당선 이용편리 더블역세권,9,9,서울,성동구,empty,성수일로1길 16,9,9,9,9,25,26,27,/homeImage/9/01.jpg,/homeImage/9/02.jpg,/homeImage/9/03.jpg,9,/hostImage/9.jpg,1,1,1,0,0,2,0,0,0
6606822a2b9cfb2855556469,1,1,1,1,1,1,1,0,1,0,0,1,1,1,DDDGG,1,0,0,1,1,0,1,0,0,0,10,김동현,96,01068010036,M,이명자,01013999111,자녀,960629-2032447,xx-xxxxx-xxx,부산,서울 성동구 성수동1가 656-827,55,37.548281,127.046287,UNAUTHORIZED_MEMBER,"뚝섬역 초역세권, 수리되어 깨끗한집, 방2개, 도배장판완료",10,10,서울,성동구,empty,왕십리로14길 26,10,10,10,10,28,29,30,/homeImage/10/01.jpg,/homeImage/10/02.jpg,/homeImage/10/03.jpg,10,/hostImage/10.jpg,1,1,1,0,1,0,0,0,0
6606822a2b9cfb285555646a,1,1,1,1,1,1,1,0,1,0,0,1,1,1,DDDGG,0,0,1,0,1,0,1,0,0,1,11,김서연,73,01040184962,F,최지혜,01088353179,자녀,820000-1082589,xx-xxxxx-xxx,대구,서울 성동구 성수동1가 656-342,55,37.551234,127.045418,UNAUTHORIZED_MEMBER,내부 넓고 깨끗한 풀옵션 원룸,11,11,서울,성동구,성수동1가,empty,11,11,11,11,31,32,33,/homeImage/11/01.jpg,/homeImage/11/02.jpg,/homeImage/11/03.jpg,11,/hostImage/11.jpg,0,1,0,0,1,2,0,0,0
6606822a2b9cfb285555646b,1,1,1,1,1,1,1,0,1,0,0,0,1,1,OR,1,0,0,1,1,0,0,0,0,0,12,이동현,87,01015267636,M,장혜진,01040705283,자녀,820325-1982600,xx-xxxxx-xxx,우체국,서울 성동구 성수동2가 396,50,37.536861,127.050765,UNAUTHORIZED_MEMBER,"성수동 저렴한 월세, 넓직한 원룸, 주방 분리형 원룸",12,12,서울,성동구,empty,둘레9길 10,12,12,12,12,34,35,36,/homeImage/12/01.jpg,/homeImage/12/02.jpg,/homeImage/12/03.jpg,12,/hostImage/12.jpg,1,1,1,0,0,0,0,0,0
6606822a2b9cfb285555646c,1,1,1,1,1,1,1,0,1,0,0,1,1,1,OR,1,0,1,0,1,1,0,1,0,1,13,문현정,94,01050748284,M,최순옥,01033878939,자녀,360126-2839574,xx-xxxxx-xxx,하나,서울 성동구 성수동1가 656-342,55,37.551234,127.045418,UNAUTHORIZED_MEMBER,내부 넓고 깨끗한 풀옵션 원룸 밝은 집,13,13,서울,성동구,성수동1가,empty,13,13,13,13,37,38,39,/homeImage/13/01.jpg,/homeImage/13/02.jpg,/homeImage/13/03.jpg,13,/hostImage/13.jpg,0,1,1,1,0,2,0,1,0
6606822a2b9cfb285555646d,1,1,1,1,1,1,1,0,1,0,0,1,1,1,OR,0,1,0,1,1,0,1,0,0,1,14,김예진,82,01070345324,F,이예준,01017816613,자녀,480608-1006364,xx-xxxxx-xxx,전북,서울 성동구 마장동 388-25,60,37.562444,127.042052,UNAUTHORIZED_MEMBER,채광되는 미니멀 투룸,14,14,서울,성동구,empty,마조로12길 1,14,14,14,14,40,41,42,/homeImage/14/01.jpg,/homeImage/14/02.jpg,/homeImage/14/03.jpg,14,/hostImage/14.jpg,1,1,0,0,1,1,1,0,0
6606822a2b9cfb285555646e,1,1,1,1,1,1,1,1,1,0,1,0,1,1,VL,0,1,1,1,0,1,0,1,1,1,15,이민준,82,01059067561,F,황지민,01087949682,자녀,050719-1897699,xx-xxxxx-xxx,케이,서울 성동구 응봉동 265-96,35,37.552341,127.029985,UNAUTHORIZED_MEMBER,올수리 깨끗,15,15,서울,성동구,empty,독서당로59가길 27,15,15,15,15,43,44,45,/homeImage/15/01.jpg,/homeImage/15/02.jpg,/homeImage/15/03.jpg,15,/hostImage/15.jpg,1,0,0,1,0,2,1,1,1
6606822a2b9cfb285555646f,1,1,1,1,1,1,1,0,1,0,0,0,1,1,OR,1,0,1,0,0,1,0,0,0,0,16,최은영,81,01007753585,M,심상훈,01023712583,자녀,680817-2941112,xx-xxxxx-xxx,토스,서울 성동구 성수동2가 576-2,55,37.536906,127.055638,UNAUTHORIZED_MEMBER,"사진O 성수동 엘베O 풀옵션 원룸형,실5",16,16,서울,성동구,empty,둘레15길 24,16,16,16,16,46,47,48,/homeImage/16/01.jpg,/homeImage/16/02.jpg,/homeImage/16/03.jpg,16,/hostImage/16.jpg,0,0,1,1,0,1,0,0,0
6606822a2b9cfb2855556470,1,1,1,1,1,1,1,1,1,0,0,1,1,1,DDDGG,1,0,1,0,0,0,1,1,1,0,17,이수진,65,01023738737,F,박정식,01070763926,자녀,010324-2091794,xx-xxxxx-xxx,제주,서울 성동구 행당동 70-23,55,37.556268,127.041601,USER,"한양대정문 도보 3분, 리모델링 컨디션 좋음, 주택가 위치 조용합니다.",17,17,서울,성동구,empty,살곶이4길 8,17,17,17,17,49,50,51,/homeImage/17/01.jpg,/homeImage/17/02.jpg,/homeImage/17/03.jpg,17,/hostImage/17.jpg,0,0,1,0,1,1,0,1,1
6606822a2b9cfb2855556471,1,1,1,1,1,1,1,1,1,0,0,1,1,1,OR,1,1,1,0,1,0,0,0,1,0,18,이지은,79,01042611915,F,최진호,01033194000,자녀,840825-2191878,xx-xxxxx-xxx,씨티,서울 성동구 행당동 20-17,45,37.558331,127.040211,UNAUTHORIZED_MEMBER,왕십리역 역세권 한양대인접 풀옵션원룸 즉시입주,18,18,서울,성동구,empty,마조로1길 2,18,18,18,18,52,53,54,/homeImage/18/01.jpg,/homeImage/18/02.jpg,/homeImage/18/03.jpg,18,/hostImage/18.jpg,0,1,1,0,0,1,1,0,1
6606822a2b9cfb2855556472,1,1,1,1,1,1,1,0,1,0,0,0,1,1,DDDGG,1,1,1,1,1,1,1,0,1,1,19,이지민,87,01004849591,M,이정자,01004023796,자녀,220125-1421819,xx-xxxxx-xxx,수협,서울 성동구 성수동2가 566-27,60,37.537809,127.055521,UNAUTHORIZED_MEMBER,즉시입주. 수리된 2룸 월세,19,19,서울,성동구,empty,성덕정17길 4,19,19,19,19,55,56,57,/homeImage/19/01.jpg,/homeImage/19/02.jpg,/homeImage/19/03.jpg,19,/hostImage/19.jpg,1,1,1,1,1,2,1,0,1
6606822a2b9cfb2855556473,1,1,1,1,1,1,1,1,1,0,0,1,1,1,OR,1,0,1,1,1,1,0,0,1,0,20,김승민,87,01026887426,M,이승현,01001994805,자녀,440615-1449300,xx-xxxxx-xxx,농협,서울 성동구 마장동 797-7,35,37.563771,127.039048,UNAUTHORIZED_MEMBER,왕십리역 도보5분거리 조용한 원룸입니다.,20,20,서울,성동구,empty,마조로15길 24,20,20,20,20,58,59,60,/homeImage/20/01.jpg,/homeImage/20/02.jpg,/homeImage/20/03.jpg,20,/hostImage/20.jpg,1,1,1,1,0,1,0,0,1
6606822a2b9cfb2855556474,1,1,1,1,1,1,1,1,1,0,0,1,1,1,OPST,0,0,0,0,0,0,1,0,0,1,21,이영숙,88,01009318324,M,성진우,01076101326,자녀,600719-2773661,xx-xxxxx-xxx,산업,서울 성동구 마장동 777-3,60,37.567407,127.045813,USER,대로변 초역세권 복층 오피스텔,21,21,서울,성동구,empty,마장로46길 4,21,21,21,21,61,62,63,/homeImage/21/01.jpg,/homeImage/21/02.jpg,/homeImage/21/03.jpg,21,/hostImage/21.jpg,0,0,0,0,1,1,0,0,0
6606822a2b9cfb2855556475,1,1,1,1,1,1,1,0,1,0,1,1,1,1,OR,1,0,1,1,0,1,0,1,1,0,22,권병철,72,01058346597,F,김진호,01023173371,자녀,930002-2726327,xx-xxxxx-xxx,경남,서울 성동구 하왕십리동 956-2,66,37.563635,127.030671,USER,5월입주 대로변 엘베O 고층뷰 전입x 레지던스,22,22,서울,성동구,empty,왕십리로 353,22,22,22,22,64,65,66,/homeImage/22/01.jpg,/homeImage/22/02.jpg,/homeImage/22/03.jpg,22,/hostImage/22.jpg,1,0,1,1,0,1,0,1,1
6606822a2b9cfb2855556476,1,1,1,1,1,1,1,1,1,0,0,1,1,1,OR,0,0,0,1,0,1,0,0,0,1,23,신정자,100,01073063717,F,최지현,01079002679,자녀,760902-2450746,xx-xxxxx-xxx,전북,서울 성동구 홍익동 398-6,55,37.565557,127.030744,USER,상왕십리역 인근 풀옵션 원룸,23,23,서울,성동구,empty,왕십리로30길 13,23,23,23,23,67,68,69,/homeImage/23/01.jpg,/homeImage/23/02.jpg,/homeImage/23/03.jpg,23,/hostImage/23.jpg,1,0,0,1,0,1,0,0,0
6606822a2b9cfb2855556477,1,1,1,1,1,1,1,0,1,0,1,0,1,1,DDDGG,0,0,1,0,1,0,1,1,0,0,24,이정순,87,01072767031,F,우현지,01081095847,자녀,640122-2617934,xx-xxxxx-xxx,우체국,서울 성동구 마장동 559-6,50,37.567735,127.035215,USER,거실도있는 분리형원룸 풀옵션 저렴한월세,24,24,서울,성동구,empty,청계천로12나길 4,24,24,24,24,70,71,72,/homeImage/24/01.jpg,/homeImage/24/02.jpg,/homeImage/24/03.jpg,24,/hostImage/24.jpg,0,1,0,0,1,1,0,1,0
6606822a2b9cfb2855556478,1,1,1,1,1,1,1,1,1,0,1,1,1,1,DDDGG,1,0,1,0,1,1,1,0,1,0,25,김은서,94,01092829602,F,박승민,01073734391,자녀,680512-2107621,xx-xxxxx-xxx,부산,서울 성동구 홍익동 398-6,70,37.565557,127.030744,USER,즉시입주 가능한 전용넓은 원룸입니다,25,25,서울,성동구,empty,왕십리로30길 13,25,25,25,25,73,74,75,/homeImage/25/01.jpg,/homeImage/25/02.jpg,/homeImage/25/03.jpg,25,/hostImage/25.jpg,0,1,1,1,1,1,0,0,1
6606822a2b9cfb2855556479,1,1,1,1,1,1,1,0,1,0,0,1,1,1,DDDGG,1,1,0,1,0,1,0,0,1,1,26,이윤서,87,01011458115,M,양서연,01029693462,자녀,230705-1290364,xx-xxxxx-xxx,수협,서울 성동구 마장동 797-74,50,37.563896,127.039992,USER,"왕십리역세권, 조용한 주택가, 깨끗한 풀옵션 원룸",26,26,서울,성동구,empty,마조로15나길 5,26,26,26,26,76,77,78,/homeImage/26/01.jpg,/homeImage/26/02.jpg,/homeImage/26/03.jpg,26,/hostImage/26.jpg,1,0,1,1,0,1,1,0,1
6606822a2b9cfb285555647a,0,1,0,0,1,1,1,0,1,0,0,1,0,0,OR,0,1,1,1,1,0,0,1,0,0,27,정주원,91,01065488192,M,구영철,01062870316,자녀,270908-1390425,xx-xxxxx-xxx,국민,서울 성동구 마장동 797-74,50,37.563896,127.039992,USER,empty,27,27,서울,성동구,empty,마조로15나길 5,27,27,27,27,79,80,81,/homeImage/27/01.jpg,/homeImage/27/02.jpg,/homeImage/27/03.jpg,27,/hostImage/27.jpg,1,1,0,0,0,1,1,1,0
6606822a2b9cfb285555647b,1,1,1,1,1,1,1,1,1,0,0,1,1,1,OR,0,0,0,1,1,0,0,1,1,0,28,김영일,84,01058282475,M,김정식,01082249788,자녀,680816-1918254,xx-xxxxx-xxx,신한,서울 성동구 마장동 797-6,35,37.564283,127.040484,UNAUTHORIZED_MEMBER,사이즈 정말좋은 깨끗한 풀옵션,28,28,서울,성동구,empty,마조로15나길 9,28,28,28,28,82,83,84,/homeImage/28/01.jpg,/homeImage/28/02.jpg,/homeImage/28/03.jpg,28,/hostImage/28.jpg,1,1,0,0,0,0,0,1,1
6606822a2b9cfb285555647c,1,1,1,1,1,1,1,1,1,0,0,1,1,1,OR,0,0,1,0,0,0,0,0,0,1,29,이은서,76,01033690264,M,박명자,01040113391,자녀,780025-2707515,xx-xxxxx-xxx,씨티,서울 성동구 마장동 797-29,50,37.564646,127.038897,USER,즉시입주가능한 풀옵션,29,29,서울,성동구,empty,마조로19길 21,29,29,29,29,85,86,87,/homeImage/29/01.jpg,/homeImage/29/02.jpg,/homeImage/29/03.jpg,29,/hostImage/29.jpg,0,0,0,0,0,2,0,0,0
6606822a2b9cfb285555647d,1,1,1,1,1,1,1,1,1,0,0,0,1,1,OR,0,0,0,1,0,0,0,1,0,0,30,서선영,75,01036583603,M,송정훈,01044764832,자녀,170304-2307345,xx-xxxxx-xxx,기업,서울 성동구 마장동 566-34,60,37.566629,127.034902,UNAUTHORIZED_MEMBER,도선사거리 인접 컨디션좋은 풀옵션원룸 즉시입주,30,30,서울,성동구,empty,마장로27길 2,30,30,30,30,88,89,90,/homeImage/30/01.jpg,/homeImage/30/02.jpg,/homeImage/30/03.jpg,30,/hostImage/30.jpg,1,0,0,0,0,0,0,1,0
6606822a2b9cfb285555647e,1,1,1,1,1,1,1,1,1,0,1,0,1,1,APT,0,0,1,1,0,1,0,0,0,1,31,김명숙,95,01064079853,F,오현준,01078836298,자녀,310122-1987114,xx-xxxxx-xxx,국민,서울 성동구 하왕십리동 258,45,37.568214,127.031981,USER,방2개 월세  화장실단독사용 여성분만가능 주차가능,31,31,서울,성동구,empty,무학로 50,31,31,31,31,91,92,93,/homeImage/31/01.jpg,/homeImage/31/02.jpg,/homeImage/31/03.jpg,31,/hostImage/31.jpg,1,0,0,1,0,2,0,0,0
6606822a2b9cfb285555647f,1,1,1,1,1,1,1,1,1,0,1,1,1,1,OR,0,1,1,1,1,1,1,0,0,0,32,김성현,100,01049876066,F,김민수,01012218560,자녀,070607-2957131,xx-xxxxx-xxx,기업,서울 성동구 홍익동 398-6,55,37.565557,127.030744,USER,즉시입주가능 저렴한 오픈형 풀옵션,32,32,서울,성동구,empty,왕십리로30길 13,32,32,32,32,94,95,96,/homeImage/32/01.jpg,/homeImage/32/02.jpg,/homeImage/32/03.jpg,32,/hostImage/32.jpg,1,1,0,1,1,1,1,0,0
6606822a2b9cfb2855556480,1,1,1,1,1,1,1,0,1,0,1,0,1,1,OR,0,1,0,0,1,0,0,0,1,0,33,이정훈,80,01034263877,M,김승현,01091726547,자녀,040911-1945096,xx-xxxxx-xxx,기업,서울 성동구 마장동 382-30,25,37.563012,127.044494,USER,통풍 잘 되고 햇빛이 잘 들어 쾌적한 2층 원룸,33,33,서울,성동구,empty,살곶이2가길 76,33,33,33,33,97,98,99,/homeImage/33/01.jpg,/homeImage/33/02.jpg,/homeImage/33/03.jpg,33,/hostImage/33.jpg,0,1,0,0,0,0,1,0,1
6606822a2b9cfb2855556481,1,1,1,1,1,1,1,0,1,0,0,0,1,1,DDDGG,1,0,0,0,1,0,0,1,0,0,34,남유진,95,01046647877,F,이민석,01012715903,자녀,370124-1619011,xx-xxxxx-xxx,카카오,서울 성동구 마장동 556,40,37.567885,127.035843,UNAUTHORIZED_MEMBER,2층 방1칸 분리형 원룸 옵션x,34,34,서울,성동구,empty,마장로29길 29,34,34,34,34,100,101,102,/homeImage/34/01.jpg,/homeImage/34/02.jpg,/homeImage/34/03.jpg,34,/hostImage/34.jpg,0,1,1,0,0,0,0,1,0
6606822a2b9cfb2855556482,1,1,1,1,1,1,1,0,1,0,0,1,1,1,OR,0,1,0,0,0,1,1,0,1,1,35,김준영,81,01069595436,F,이서연,01062882693,자녀,550920-1516229,xx-xxxxx-xxx,SC제일,서울 성동구 하왕십리동 955-1,30,37.563538,127.030482,USER,풀옵션 원룸,35,35,서울,성동구,empty,무학봉15길 26,35,35,35,35,103,104,105,/homeImage/35/01.jpg,/homeImage/35/02.jpg,/homeImage/35/03.jpg,35,/hostImage/35.jpg,0,0,0,1,1,1,1,0,1
6606822a2b9cfb2855556483,1,1,1,1,1,1,1,1,1,0,1,1,1,1,OPST,0,1,1,1,1,0,1,0,0,1,36,김민지,76,01011962415,M,김경숙,01051501333,자녀,940127-2607688,xx-xxxxx-xxx,대구,서울 성동구 행당동 192-29,70,37.565189,127.03674,USER,왕십리초역세권 도보3분 성동구청 바로옆 빠른 입주협의,36,36,서울,성동구,empty,고산자로 284,36,36,36,36,106,107,108,/homeImage/36/01.jpg,/homeImage/36/02.jpg,/homeImage/36/03.jpg,36,/hostImage/36.jpg,1,1,0,0,1,2,1,0,0
6606822a2b9cfb2855556484,1,1,1,1,1,1,1,1,1,0,0,1,1,1,OR,0,0,1,1,1,1,0,1,1,1,37,김옥자,91,01091268185,F,한하윤,01008318185,자녀,490202-1150661,xx-xxxxx-xxx,농협,서울 성동구 마장동 800-1,65,37.563626,127.040083,USER,왕십리역 역세권 넓고 채광좋은 풀옵션원룸,37,37,서울,성동구,empty,마조로15길 13,37,37,37,37,109,110,111,/homeImage/37/01.jpg,/homeImage/37/02.jpg,/homeImage/37/03.jpg,37,/hostImage/37.jpg,1,1,0,1,0,2,0,1,1
6606822a2b9cfb2855556485,1,1,1,1,1,1,1,1,1,0,0,1,1,1,OR,0,1,1,0,1,1,0,1,0,1,38,송지혜,95,01092496866,M,허지은,01049399716,자녀,710125-1751929,xx-xxxxx-xxx,씨티,서울 성동구 홍익동 398-6,70,37.565557,127.030744,USER,즉시입주 8P넓은 원룸 풀옵션 남향세대 공동보안,38,38,서울,성동구,empty,왕십리로30길 13,38,38,38,38,112,113,114,/homeImage/38/01.jpg,/homeImage/38/02.jpg,/homeImage/38/03.jpg,38,/hostImage/38.jpg,0,1,0,1,0,2,1,1,0
6606822a2b9cfb2855556486,1,1,1,1,1,1,1,0,1,0,0,1,1,1,DDDGG,0,0,0,0,1,0,1,1,0,0,39,송윤서,100,01045301805,F,김정식,01089284736,자녀,410901-2793470,xx-xxxxx-xxx,씨티,서울 성동구 마장동 777-6,60,37.567531,127.0456,UNAUTHORIZED_MEMBER,"마장역,답십리역5호선 신답역2호석 더블 역세권 원룸 즉시입주",39,39,서울,성동구,empty,마장로 328,39,39,39,39,115,116,117,/homeImage/39/01.jpg,/homeImage/39/02.jpg,/homeImage/39/03.jpg,39,/hostImage/39.jpg,0,1,0,0,1,0,0,1,0
6606822a2b9cfb2855556487,1,1,1,1,1,1,1,0,1,0,1,0,1,1,DDDGG,0,0,0,0,1,0,0,0,0,1,40,김재현,78,01040614551,M,김서윤,01025634324,자녀,030919-2065865,xx-xxxxx-xxx,SC제일,서울 성동구 마장동 444-5,50,37.569326,127.033743,USER,도배장판 해드립니다 층간소음없는집,40,40,서울,성동구,empty,청계천로10나길 12,40,40,40,40,118,119,120,/homeImage/40/01.jpg,/homeImage/40/02.jpg,/homeImage/40/03.jpg,40,/hostImage/40.jpg,0,1,0,0,0,1,0,0,0
6606822a2b9cfb2855556488,1,1,1,1,1,1,1,0,1,0,1,0,1,1,DDDGG,1,1,0,1,1,0,0,1,1,1,41,박성호,92,01081214943,F,윤정순,01023213660,자녀,570124-2561818,xx-xxxxx-xxx,하나,서울 성동구 홍익동 268,40,37.565735,127.033513,UNAUTHORIZED_MEMBER,홍익동 넓은 다가구 1.5룸,41,41,서울,성동구,empty,무학로10길 24,41,41,41,41,121,122,123,/homeImage/41/01.jpg,/homeImage/41/02.jpg,/homeImage/41/03.jpg,41,/hostImage/41.jpg,1,1,1,0,0,1,1,1,1
6606822a2b9cfb2855556489,1,1,1,1,1,1,1,1,1,0,1,1,1,1,OPST,0,1,0,0,1,1,1,0,0,0,42,황경수,91,01027133512,M,김정수,01017223227,자녀,080323-1218355,xx-xxxxx-xxx,씨티,서울 성동구 용답동 238-12,63,37.559906,127.069378,UNAUTHORIZED_MEMBER,"중랑천고층뷰,저렴한월세 장한평역서희스타힐스오피스텔",42,42,서울,성동구,용답동,empty,42,42,42,42,124,125,126,/homeImage/42/01.jpg,/homeImage/42/02.jpg,/homeImage/42/03.jpg,42,/hostImage/42.jpg,0,1,0,1,1,0,1,0,0
6606822a2b9cfb285555648a,1,1,1,1,1,1,1,0,1,0,0,1,1,1,OPST,0,0,1,1,1,0,1,0,1,1,43,조영환,73,01024564972,F,정광수,01045433040,자녀,280811-1076205,xx-xxxxx-xxx,신한,서울 성동구 용답동 233-8,70,37.560731,127.065465,UNAUTHORIZED_MEMBER,장한평역 초역세권 전입 가능한 풀옵션 신축급 오피스텔 부라다,43,43,서울,성동구,empty,자동차시장1길 73,43,43,43,43,127,128,129,/homeImage/43/01.jpg,/homeImage/43/02.jpg,/homeImage/43/03.jpg,43,/hostImage/43.jpg,1,1,0,0,1,2,0,0,1
6606822a2b9cfb285555648b,1,1,1,1,1,1,1,1,1,0,1,0,1,1,OR,1,0,0,1,1,0,0,1,0,1,44,우영길,66,01096296587,M,안영철,01047851529,자녀,190422-2752675,xx-xxxxx-xxx,기업,서울 성동구 성수동2가 211-18,30,37.535879,127.059636,USER,"삼정 실5, 깔끔한 1층 원룸",44,44,서울,성동구,성수동2가,empty,44,44,44,44,130,131,132,/homeImage/44/01.jpg,/homeImage/44/02.jpg,/homeImage/44/03.jpg,44,/hostImage/44.jpg,1,1,1,0,0,1,0,1,0
6606822a2b9cfb285555648c,1,1,1,1,1,1,1,1,1,0,0,0,1,1,OR,1,1,1,0,0,0,0,0,0,0,45,김지연,69,01039244690,M,정도현,01079119420,자녀,620004-1690203,xx-xxxxx-xxx,우체국,서울 성동구 송정동 66-127,38,37.548881,127.067075,UNAUTHORIZED_MEMBER,"화양사거리 위치, 즉시입주가능, 풀옵션 반지층 분리형 원룸",45,45,서울,성동구,empty,송정10길 22,45,45,45,45,133,134,135,/homeImage/45/01.jpg,/homeImage/45/02.jpg,/homeImage/45/03.jpg,45,/hostImage/45.jpg,0,0,1,0,0,1,1,0,0
6606822a2b9cfb285555648d,1,1,1,1,1,1,1,1,1,0,0,1,1,1,DDDGG,1,0,0,0,0,1,0,1,1,1,46,이영수,96,01086950778,F,김미숙,01015773937,자녀,590219-2197150,xx-xxxxx-xxx,신한,서울 마포구 노고산동 12-154,50,37.553671,126.9401,USER,"주방분리형원룸, 풀옵션, 신촌역 도보6분, 버스정류장 도보 6분, 이마트",46,46,서울,마포구,empty,고산2길 48,46,46,46,46,136,137,138,/homeImage/46/01.jpg,/homeImage/46/02.jpg,/homeImage/46/03.jpg,46,/hostImage/46.jpg,0,0,1,1,0,1,0,1,1
6606822a2b9cfb285555648e,1,1,1,1,1,1,1,1,1,0,1,0,1,1,OR,0,1,0,0,0,1,0,1,1,1,47,김영자,75,01013791997,F,윤병철,01085179608,자녀,430114-2079132,xx-xxxxx-xxx,부산,서울 마포구 연남동 223-98,60,37.565038,126.924926,USER,O 신축급 O 연남동 조용한 주택가 O,47,47,서울,마포구,empty,성미산로 165,47,47,47,47,139,140,141,/homeImage/47/01.jpg,/homeImage/47/02.jpg,/homeImage/47/03.jpg,47,/hostImage/47.jpg,0,0,0,1,0,1,1,1,1
6606822a2b9cfb285555648f,1,1,1,1,1,1,1,1,1,0,1,0,1,1,OR,0,1,1,1,0,1,0,1,0,1,48,강상현,89,01075181233,M,고지영,01006667518,자녀,050802-2520977,xx-xxxxx-xxx,우체국,서울 마포구 연남동 223-98,60,37.565038,126.924926,UNAUTHORIZED_MEMBER,가성비 좋은 연남동 수리한 원룸,48,48,서울,마포구,empty,성미산로 165,48,48,48,48,142,143,144,/homeImage/48/01.jpg,/homeImage/48/02.jpg,/homeImage/48/03.jpg,48,/hostImage/48.jpg,1,0,0,1,0,2,1,1,0
6606822a2b9cfb2855556490,1,1,1,1,1,1,1,0,1,0,0,0,1,1,OR,0,0,1,1,1,1,1,1,0,1,49,김지연,67,01039949778,M,강예준,01015474879,자녀,650116-1121978,xx-xxxxx-xxx,부산,서울 마포구 연남동 228-4,46,37.563012,126.926085,USER,O 옥탑 옥상단독사용 O 깔끔한 분리형 O 기본옵션 O,49,49,서울,마포구,empty,성미산로 188,49,49,49,49,145,146,147,/homeImage/49/01.jpg,/homeImage/49/02.jpg,/homeImage/49/03.jpg,49,/hostImage/49.jpg,1,1,0,1,1,2,0,1,0
6606822a2b9cfb2855556491,1,1,1,1,1,1,1,0,1,0,0,0,1,1,OR,0,1,0,0,0,0,0,0,1,1,50,이경자,94,01056862106,M,김현준,01085056261,자녀,870712-1407230,xx-xxxxx-xxx,경남,서울 광진구 구의동 253-16,55,37.544241,127.084427,USER,"풀옵션 원룸, 어린이대공원 인근",50,50,서울,광진구,empty,자양로29길 8,50,50,50,50,148,149,150,/homeImage/50/01.jpg,/homeImage/50/02.jpg,/homeImage/50/03.jpg,50,/hostImage/50.jpg,0,0,0,0,0,1,1,0,1
6606822a2b9cfb2855556492,1,1,1,1,1,1,1,0,1,0,0,0,1,1,OR,0,0,0,0,1,1,1,0,0,1,51,이유진,98,01068637374,M,허광수,01060906328,자녀,190922-2788245,xx-xxxxx-xxx,제주,서울 광진구 자양동 772-18,47,37.538407,127.079864,USER,핫한월세  풀옵션   월세에모든공과금포함요금  건대생에인기,51,51,서울,광진구,empty,자양로19길 68,51,51,51,51,151,152,153,/homeImage/51/01.jpg,/homeImage/51/02.jpg,/homeImage/51/03.jpg,51,/hostImage/51.jpg,0,1,0,1,1,1,0,0,0
6606822a2b9cfb2855556493,1,1,1,1,1,1,1,1,1,0,0,0,1,1,DDDGG,0,0,1,0,1,0,0,0,0,0,52,김채원,92,01002224128,M,강병철,01094153495,자녀,090307-1425827,xx-xxxxx-xxx,광주,서울 광진구 구의동 231-53,45,37.543875,127.089159,USER,깔끔하고 넓은 풀옵션 통원룸,52,52,서울,광진구,empty,자양로32길 70,52,52,52,52,154,155,156,/homeImage/52/01.jpg,/homeImage/52/02.jpg,/homeImage/52/03.jpg,52,/hostImage/52.jpg,0,1,0,0,0,1,0,0,0
6606822a2b9cfb2855556494,1,1,1,1,1,1,1,1,1,0,0,1,1,1,DDDGG,0,1,1,0,1,1,1,0,0,1,53,이종수,82,01038709533,F,한준혁,01011902994,자녀,610905-1300819,xx-xxxxx-xxx,우체국,서울 광진구 능동 224-40,45,37.555347,127.079824,USER,"군자역 초역세권 원룸, 옥상이용가능",53,53,서울,광진구,empty,능동로34길 12,53,53,53,53,157,158,159,/homeImage/53/01.jpg,/homeImage/53/02.jpg,/homeImage/53/03.jpg,53,/hostImage/53.jpg,0,1,0,1,1,2,1,0,0
6606822a2b9cfb2855556495,1,1,1,1,1,1,1,1,1,0,0,1,1,1,OR,0,1,0,0,1,1,0,0,0,1,54,조광수,67,01076111719,M,김은영,01084733761,자녀,000003-2947766,xx-xxxxx-xxx,농협,서울 광진구 능동 221-18,50,37.555768,127.079246,USER,"지하철군자역 도보1분 교통편리, 5호선,7호선 출퇴근직장인 적합",54,54,서울,광진구,empty,천호대로110길 30,54,54,54,54,160,161,162,/homeImage/54/01.jpg,/homeImage/54/02.jpg,/homeImage/54/03.jpg,54,/hostImage/54.jpg,0,1,0,1,0,1,1,0,0
6606822a2b9cfb2855556496,1,1,1,1,1,1,1,1,1,0,0,1,1,1,OR,1,0,1,0,1,0,1,1,1,0,55,장경수,96,01007553470,M,유은주,01094502754,자녀,300916-2630763,xx-xxxxx-xxx,국민,서울 광진구 구의동 246-8,60,37.537677,127.085115,UNAUTHORIZED_MEMBER,"리모델링한 신축급 풀옵션 원룸, 구의역 1분",55,55,서울,광진구,empty,자양로18길 26,55,55,55,55,163,164,165,/homeImage/55/01.jpg,/homeImage/55/02.jpg,/homeImage/55/03.jpg,55,/hostImage/55.jpg,0,1,1,0,1,1,0,1,1
6606822a2b9cfb2855556497,1,1,1,1,1,1,1,0,1,0,0,1,1,1,DDDGG,1,1,0,1,1,1,1,0,1,0,56,김미영,71,01006764567,M,김승현,01006941833,자녀,520712-2469045,xx-xxxxx-xxx,신한,서울 광진구 자양동 850-5,55,37.537757,127.067473,UNAUTHORIZED_MEMBER,올수리2년차 보증금최소월세 대출없음,56,56,서울,광진구,empty,뚝섬로23길 75,56,56,56,56,166,167,168,/homeImage/56/01.jpg,/homeImage/56/02.jpg,/homeImage/56/03.jpg,56,/hostImage/56.jpg,1,1,1,1,1,0,1,0,1
6606822a2b9cfb2855556498,1,1,1,1,1,1,1,1,1,0,0,1,1,1,DDDGG,1,0,1,1,1,0,0,1,1,1,57,김준서,65,01088967492,F,김수진,01086485178,자녀,030818-2769419,xx-xxxxx-xxx,전북,서울 광진구 자양동 12-13,60,37.539191,127.065127,USER,"옥상 단독 사용, 풀옵션 공간 활용 좋은 원룸",57,57,서울,광진구,empty,동일로18나길 6,57,57,57,57,169,170,171,/homeImage/57/01.jpg,/homeImage/57/02.jpg,/homeImage/57/03.jpg,57,/hostImage/57.jpg,1,1,1,0,0,2,0,1,1
6606822a2b9cfb2855556499,1,1,1,1,1,1,1,0,1,0,1,0,1,1,OR,1,1,0,0,1,0,0,0,1,0,58,이윤서,78,01090071137,F,이민지,01026678487,자녀,210805-2172707,xx-xxxxx-xxx,씨티,서울 광진구 자양동 40-14,30,37.537696,127.064466,USER,건대입구역세권 도보8분 깔끔한 풀옵션 원룸,58,58,서울,광진구,empty,동일로10다길 8,58,58,58,58,172,173,174,/homeImage/58/01.jpg,/homeImage/58/02.jpg,/homeImage/58/03.jpg,58,/hostImage/58.jpg,0,1,1,0,0,0,1,0,1
6606822a2b9cfb285555649a,1,1,1,1,1,1,1,0,1,0,0,1,1,1,OR,1,1,0,1,1,1,0,1,1,1,59,김민수,81,01057377069,M,문아름,01063243892,자녀,170614-1166855,xx-xxxxx-xxx,전북,서울 광진구 구의동 217-10,50,37.538448,127.093432,USER,풀옵션 남향 밝고 깨끗 초역세권 즉시입주가능,59,59,서울,광진구,empty,구의강변로 87,59,59,59,59,175,176,177,/homeImage/59/01.jpg,/homeImage/59/02.jpg,/homeImage/59/03.jpg,59,/hostImage/59.jpg,1,1,1,1,0,1,1,1,1
6606822a2b9cfb285555649b,1,1,1,1,1,1,1,1,1,0,0,0,1,1,DDDGG,1,1,1,0,0,0,1,0,1,1,60,이상현,75,01095194991,F,나지후,01027916130,자녀,960117-2180994,xx-xxxxx-xxx,국민,서울 광진구 중곡동 583-5,29,37.571071,127.080557,UNAUTHORIZED_MEMBER,중곡동 깔끔한 풀옵션 원룸,60,60,서울,광진구,empty,답십리로74길 11,60,60,60,60,178,179,180,/homeImage/60/01.jpg,/homeImage/60/02.jpg,/homeImage/60/03.jpg,60,/hostImage/60.jpg,0,0,1,0,1,2,1,0,1
6606822a2b9cfb285555649c,0,0,0,1,0,0,1,0,1,1,1,0,1,0,OR,0,0,0,1,1,1,1,1,0,0,61,장서준,89,01014849082,F,이보람,01012728563,자녀,510529-1117405,xx-xxxxx-xxx,제주,서울 광진구 자양동 605-27,30,37.531167,127.078616,USER,empty,61,61,서울,광진구,empty,자양번영로4길 59,61,61,61,61,181,182,183,/homeImage/61/01.jpg,/homeImage/61/02.jpg,/homeImage/61/03.jpg,61,/hostImage/61.jpg,1,1,0,1,1,0,0,1,0
6606822a2b9cfb285555649d,1,1,1,1,1,1,1,1,1,0,1,1,1,1,OR,1,0,1,0,0,0,0,1,1,0,62,이준영,100,01020328392,F,하영식,01036055492,자녀,490108-2895195,xx-xxxxx-xxx,대구,서울 양천구 신정동 928-26,35,37.52506,126.853333,USER,신정역2분 풀옵션 빠른입주가능,62,62,서울,양천구,empty,오목로29길 3,62,62,62,62,184,185,186,/homeImage/62/01.jpg,/homeImage/62/02.jpg,/homeImage/62/03.jpg,62,/hostImage/62.jpg,0,0,1,0,0,1,0,1,1
6606822a2b9cfb285555649e,1,1,1,1,1,1,1,1,1,0,1,1,1,1,DDDGG,0,0,1,0,1,0,1,0,1,0,63,송지훈,84,01008465048,F,이현숙,01044690577,자녀,130114-2403368,xx-xxxxx-xxx,농협,서울 양천구 신월동 503-15,40,37.523038,126.850488,USER,"신정네거리역,신정역 풀옵션1.5룸 주차가능 단기임대",63,63,서울,양천구,empty,중앙로49길 11,63,63,63,63,187,188,189,/homeImage/63/01.jpg,/homeImage/63/02.jpg,/homeImage/63/03.jpg,63,/hostImage/63.jpg,0,1,0,0,1,1,0,0,1
6606822a2b9cfb285555649f,1,1,1,1,1,1,1,0,1,0,1,0,1,1,DDDGG,0,0,1,1,0,0,0,1,0,1,64,강예준,95,01029462609,F,김예지,01014378054,자녀,710604-2552663,xx-xxxxx-xxx,농협,서울 양천구 신월동 575-11,40,37.518012,126.842758,UNAUTHORIZED_MEMBER,"상태깨끗,이사협의,생활편리,교통이용편리",64,64,서울,양천구,empty,남부순환로79길 31,64,64,64,64,190,191,192,/homeImage/64/01.jpg,/homeImage/64/02.jpg,/homeImage/64/03.jpg,64,/hostImage/64.jpg,1,0,0,0,0,2,0,1,0
6606822a2b9cfb28555564a0,1,1,1,1,1,1,1,0,1,0,0,1,1,1,DDDGG,0,0,0,0,1,1,1,1,1,1,65,조영수,91,01027826485,M,양예준,01050994887,자녀,770611-1212504,xx-xxxxx-xxx,씨티,서울 양천구 신정동 1210-12,35,37.519834,126.849902,USER,방2화1 지하철도보이용 도배.장판.씽크대 수리함. 방넓고 주방공간있어요,65,65,서울,양천구,empty,중앙로39길 22,65,65,65,65,193,194,195,/homeImage/65/01.jpg,/homeImage/65/02.jpg,/homeImage/65/03.jpg,65,/hostImage/65.jpg,0,1,0,1,1,1,0,1,1
6606822a2b9cfb28555564a1,1,1,1,1,1,1,1,1,1,0,0,1,1,1,DDDGG,0,1,0,0,0,1,0,0,0,0,66,장경숙,79,01040653340,F,김정희,01057527778,자녀,150112-1762201,xx-xxxxx-xxx,경남,서울 양천구 신정동 1210-12,40,37.519834,126.849902,USER,방2화1베1 저렴한지상층 주방공간O 지하철도보이용 연식대비깔끔 언덕위치함,66,66,서울,양천구,empty,중앙로39길 22,66,66,66,66,196,197,198,/homeImage/66/01.jpg,/homeImage/66/02.jpg,/homeImage/66/03.jpg,66,/hostImage/66.jpg,0,0,0,1,0,0,1,0,0
6606822a2b9cfb28555564a2,1,1,1,1,1,1,1,1,1,0,0,1,1,1,DDDGG,0,0,1,0,1,0,0,1,0,1,67,이은영,98,01009204361,F,이정웅,01098938319,자녀,070708-2289528,xx-xxxxx-xxx,광주,서울 양천구 신정동 1193-5,30,37.52194,126.849647,USER,신정네거리역세권. 계단없는 지층. 방1.화1. 상태깨끗해요,67,67,서울,양천구,empty,중앙로45길 28,67,67,67,67,199,200,201,/homeImage/67/01.jpg,/homeImage/67/02.jpg,/homeImage/67/03.jpg,67,/hostImage/67.jpg,0,1,0,0,0,2,0,1,0
6606822a2b9cfb28555564a3,1,1,1,1,1,1,1,1,1,0,1,1,1,1,DDDGG,1,1,0,1,1,1,1,0,1,1,68,이은지,100,01043719079,M,이영진,01009359890,자녀,850321-2310295,xx-xxxxx-xxx,우리,서울 양천구 신정동 1193-5,35,37.52194,126.849647,USER,계단없음 지층임1층같음 방 주방 크고 깨끗함 즉시입주 신정네거리역5분,68,68,서울,양천구,empty,중앙로45길 28,68,68,68,68,202,203,204,/homeImage/68/01.jpg,/homeImage/68/02.jpg,/homeImage/68/03.jpg,68,/hostImage/68.jpg,1,1,1,1,1,1,1,0,1
6606822a2b9cfb28555564a4,1,1,1,1,1,1,1,0,1,0,1,1,1,1,DDDGG,0,1,1,1,0,1,0,1,1,0,69,박예원,90,01032158335,M,김수빈,01091425442,자녀,740314-2114324,xx-xxxxx-xxx,제주,서울 양천구 신정동 1050-4,35,37.519244,126.854831,UNAUTHORIZED_MEMBER,"전철3분,신서학군,즉시입주,공원앞",69,69,서울,양천구,empty,중앙로36길 8,69,69,69,69,205,206,207,/homeImage/69/01.jpg,/homeImage/69/02.jpg,/homeImage/69/03.jpg,69,/hostImage/69.jpg,1,0,0,1,0,1,1,1,1
6606822a2b9cfb28555564a5,1,1,1,1,1,1,1,1,1,0,0,0,1,1,DDDGG,0,1,1,1,0,0,0,0,0,1,70,김은영,65,01009247091,F,안서준,01052676139,자녀,890705-1948448,xx-xxxxx-xxx,수협,서울 양천구 신정동 1029-7,60,37.521049,126.854274,UNAUTHORIZED_MEMBER,올수리 투룸 옥상마당 사용가능 사무실 공방 등 사용가능,70,70,서울,양천구,empty,신월로 300,70,70,70,70,208,209,210,/homeImage/70/01.jpg,/homeImage/70/02.jpg,/homeImage/70/03.jpg,70,/hostImage/70.jpg,1,0,0,0,0,2,1,0,0
6606822a2b9cfb28555564a6,1,1,1,1,1,1,1,0,1,0,0,1,1,1,DDDGG,1,0,1,1,0,0,0,1,0,0,71,강승현,79,01044066971,F,최지영,01033408315,자녀,360203-2490547,xx-xxxxx-xxx,대구,서울 양천구 신정동 1201-7,35,37.520162,126.850106,USER,"깔끔수리 함,즉시입주,전철5분",71,71,서울,양천구,empty,중앙로45길 25,71,71,71,71,211,212,213,/homeImage/71/01.jpg,/homeImage/71/02.jpg,/homeImage/71/03.jpg,71,/hostImage/71.jpg,1,0,1,0,0,1,0,1,0
6606822a2b9cfb28555564a7,1,1,1,1,1,1,1,1,1,0,0,1,1,1,DDDGG,0,1,1,1,0,0,0,1,1,1,72,심주원,84,01066018110,F,이재현,01070139237,자녀,310801-2795216,xx-xxxxx-xxx,토스,서울 양천구 신정동 1206-10,25,37.519564,126.850667,UNAUTHORIZED_MEMBER,"분리형 원룸, 풀옵션, 옥상 마당 사용 가능한 옥탑",72,72,서울,양천구,empty,중앙로47길 20,72,72,72,72,214,215,216,/homeImage/72/01.jpg,/homeImage/72/02.jpg,/homeImage/72/03.jpg,72,/hostImage/72.jpg,1,0,0,0,0,2,1,1,1
6606822a2b9cfb28555564a8,1,1,1,1,1,1,1,1,1,0,1,1,1,1,DDDGG,1,0,0,1,1,0,0,1,1,1,73,김경수,93,01095922606,M,김민준,01053485680,자녀,540500-2317793,xx-xxxxx-xxx,케이,서울 양천구 신정동 940-39,40,37.524496,126.851967,USER,역세권 I 대로변 1.5룸 월세 I 설명란 확인,73,73,서울,양천구,empty,오목로 131,73,73,73,73,217,218,219,/homeImage/73/01.jpg,/homeImage/73/02.jpg,/homeImage/73/03.jpg,73,/hostImage/73.jpg,1,1,1,0,0,1,0,1,1
6606822a2b9cfb28555564a9,1,1,1,1,1,1,1,1,1,0,0,1,1,1,DDDGG,0,0,1,1,0,0,0,0,0,1,74,박상철,84,01006198246,F,손혜진,01092161066,자녀,390419-1971604,xx-xxxxx-xxx,케이,서울 양천구 신정동 1210-12,35,37.519834,126.849902,USER,"도배장판,싱크대,변기교체. 지하철역인접. 계단없는바닥1층",74,74,서울,양천구,empty,중앙로39길 22,74,74,74,74,220,221,222,/homeImage/74/01.jpg,/homeImage/74/02.jpg,/homeImage/74/03.jpg,74,/hostImage/74.jpg,1,0,0,0,0,2,0,0,0
6606822a2b9cfb28555564aa,1,1,1,1,1,1,1,1,1,1,1,1,1,1,DDDGG,0,1,0,0,1,1,1,0,1,1,75,한수빈,76,01051575133,F,김영희,01094032813,자녀,490926-2015259,xx-xxxxx-xxx,산업,서울 양천구 신정동 1160-6,25,37.517218,126.849807,USER,즉시입주가 계단없는 지층 에어컨 가스렌지있음 상태 양호,75,75,서울,양천구,empty,중앙로47길 47,75,75,75,75,223,224,225,/homeImage/75/01.jpg,/homeImage/75/02.jpg,/homeImage/75/03.jpg,75,/hostImage/75.jpg,0,1,0,1,1,1,1,0,1
6606822a2b9cfb28555564ab,1,1,1,1,1,1,1,0,1,0,1,0,1,1,VL,0,0,1,0,1,1,1,1,0,0,76,이준서,92,01078212942,M,이준혁,01031155953,자녀,260929-2983454,xx-xxxxx-xxx,기업,서울 양천구 신정동 1216-1,40,37.519335,126.848704,UNAUTHORIZED_MEMBER,보증금 조정가능 진입이 편리하며 거주자 우선주차지역 방 오전만 볼수있음,76,76,서울,양천구,empty,중앙로29길 88,76,76,76,76,226,227,228,/homeImage/76/01.jpg,/homeImage/76/02.jpg,/homeImage/76/03.jpg,76,/hostImage/76.jpg,0,1,0,1,1,1,0,1,0
6606822a2b9cfb28555564ac,1,1,1,1,1,1,1,1,1,0,0,1,1,1,DDDGG,1,1,1,0,1,0,0,0,1,1,77,남채원,100,01084279599,F,김상호,01035542085,자녀,020116-2926155,xx-xxxxx-xxx,전북,서울 양천구 신정동 1210-12,40,37.519834,126.849902,USER,"싱크대,변기,벽지,바닥교체. 지하철역인접.보일러실 넓어요. 1.5층",77,77,서울,양천구,empty,중앙로39길 22,77,77,77,77,229,230,231,/homeImage/77/01.jpg,/homeImage/77/02.jpg,/homeImage/77/03.jpg,77,/hostImage/77.jpg,0,1,1,0,0,2,1,0,1
6606822a2b9cfb28555564ad,1,1,1,1,1,1,1,0,1,0,0,1,1,1,OR,0,0,1,0,1,0,0,1,0,0,78,한현지,83,01085544614,F,박정숙,01006534484,자녀,720602-2867254,xx-xxxxx-xxx,광주,서울 양천구 목동 526-17,30,37.545565,126.874293,UNAUTHORIZED_MEMBER,"염창역도보2분,풀옵션",78,78,서울,양천구,empty,목동중앙북로 102,78,78,78,78,232,233,234,/homeImage/78/01.jpg,/homeImage/78/02.jpg,/homeImage/78/03.jpg,78,/hostImage/78.jpg,0,1,0,0,0,1,0,1,0
6606822a2b9cfb28555564ae,1,1,1,1,1,1,1,0,1,0,0,0,1,1,OR,0,1,1,1,0,0,0,1,1,0,79,김주원,72,01051559874,F,김정순,01043343479,자녀,400519-2667532,xx-xxxxx-xxx,기업,서울 양천구 목동 789-37,30,37.533452,126.865459,UNAUTHORIZED_MEMBER,목사거리인근 신축급 올수리 여성전용 원룸,79,79,서울,양천구,empty,목동중앙서로3길 20,79,79,79,79,235,236,237,/homeImage/79/01.jpg,/homeImage/79/02.jpg,/homeImage/79/03.jpg,79,/hostImage/79.jpg,1,0,0,0,0,1,1,1,1
6606822a2b9cfb28555564af,1,1,1,1,1,1,1,0,1,0,0,1,1,1,OR,0,1,1,1,1,0,1,1,1,0,80,김상현,65,01080570685,M,김진우,01007752899,자녀,940228-1701442,xx-xxxxx-xxx,우리,서울 양천구 목동 526-17,30,37.545565,126.874293,USER,염창역 최저가 풀옵션 관리 잘해서 깔끔한 원룸,80,80,서울,양천구,empty,목동중앙북로 102,80,80,80,80,238,239,240,/homeImage/80/01.jpg,/homeImage/80/02.jpg,/homeImage/80/03.jpg,80,/hostImage/80.jpg,1,1,0,0,1,1,1,1,1
6606822a2b9cfb28555564b0,1,1,1,1,1,1,1,1,1,0,0,0,1,1,VL,0,1,1,0,1,1,1,1,0,0,81,송시우,100,01083842531,M,서명자,01015764765,자녀,310310-2629090,xx-xxxxx-xxx,하나,서울 양천구 목동 779-16,47,37.534834,126.866647,UNAUTHORIZED_MEMBER,깔끔하고 실용적인 저렴한 원룸월세,81,81,서울,양천구,empty,목동중앙서로11길 65,81,81,81,81,241,242,243,/homeImage/81/01.jpg,/homeImage/81/02.jpg,/homeImage/81/03.jpg,81,/hostImage/81.jpg,0,1,0,1,1,1,1,1,0
6606822a2b9cfb28555564b1,1,1,1,1,1,1,1,1,1,0,1,0,1,1,DDDGG,1,0,1,1,0,1,1,0,1,0,82,강지아,97,01043969011,F,권미경,01075660006,자녀,220027-2152418,xx-xxxxx-xxx,우리,서울 양천구 목동 788-5,40,37.533862,126.864318,USER,주차가능.옥탑방전용면적9.넓음.풀옵션.옥상씀.큰도로옆안전,82,82,서울,양천구,empty,목동중앙서로7나길 11,82,82,82,82,244,245,246,/homeImage/82/01.jpg,/homeImage/82/02.jpg,/homeImage/82/03.jpg,82,/hostImage/82.jpg,1,0,1,1,1,1,0,0,1
6606822a2b9cfb28555564b2,1,1,1,1,0,1,1,0,1,1,0,1,0,0,OR,1,0,1,0,1,0,0,1,0,0,83,김예원,86,01037966182,M,이선영,01001462689,자녀,360116-2258073,xx-xxxxx-xxx,우체국,서울 양천구 목동 604-2,41,37.550155,126.86598,USER,empty,83,83,서울,양천구,empty,공항대로 542,83,83,83,83,247,248,249,/homeImage/83/01.jpg,/homeImage/83/02.jpg,/homeImage/83/03.jpg,83,/hostImage/83.jpg,0,1,1,0,0,1,0,1,0
6606822a2b9cfb28555564b3,1,1,1,1,1,1,1,1,1,0,1,0,1,1,DDDGG,0,1,1,0,1,0,0,1,1,0,84,장정자,72,01062043376,M,최성수,01006653963,자녀,770123-2881318,xx-xxxxx-xxx,기업,서울 양천구 목동 789-30,40,37.533696,126.865138,USER,조용한 주택가. 바닥층. 도배 등 수리되어깨끗. 대중교통이용편리,84,84,서울,양천구,empty,목동중앙서로7길 17,84,84,84,84,250,251,252,/homeImage/84/01.jpg,/homeImage/84/02.jpg,/homeImage/84/03.jpg,84,/hostImage/84.jpg,0,1,0,0,0,1,1,1,1
6606822a2b9cfb28555564b4,1,1,1,1,1,1,1,1,1,0,1,0,1,1,DDDGG,0,0,0,1,0,1,1,1,0,1,85,오준혁,92,01090070466,F,박민석,01026057452,자녀,010314-1685441,xx-xxxxx-xxx,카카오,서울 양천구 목동 789-30,40,37.533696,126.865138,UNAUTHORIZED_MEMBER,올수리 깨끗한 방2,85,85,서울,양천구,empty,목동중앙서로7길 17,85,85,85,85,253,254,255,/homeImage/85/01.jpg,/homeImage/85/02.jpg,/homeImage/85/03.jpg,85,/hostImage/85.jpg,1,0,0,1,1,1,0,1,0
6606822a2b9cfb28555564b5,1,1,1,1,1,1,1,0,1,0,0,1,1,1,OR,0,0,1,1,1,0,1,1,1,0,86,김중수,65,01029991229,F,강민준,01091275865,자녀,540021-1873357,xx-xxxxx-xxx,씨티,서울 양천구 목동 604-2,41,37.550155,126.86598,USER,등촌역 초역세권 보증금 저렴한 원룸,86,86,서울,양천구,empty,공항대로 542,86,86,86,86,256,257,258,/homeImage/86/01.jpg,/homeImage/86/02.jpg,/homeImage/86/03.jpg,86,/hostImage/86.jpg,1,1,0,0,1,1,0,1,1
6606822a2b9cfb28555564b6,1,1,1,1,1,1,1,1,1,0,0,1,1,1,OR,1,0,0,0,0,1,0,1,0,0,87,박동현,72,01077284278,F,김지후,01006254834,자녀,150907-2754106,xx-xxxxx-xxx,전북,서울 양천구 목동 604-2,41,37.550155,126.86598,USER,"안전한 대로변위치,9호선 등촌역 깨끗한 풀옵션",87,87,서울,양천구,empty,공항대로 542,87,87,87,87,259,260,261,/homeImage/87/01.jpg,/homeImage/87/02.jpg,/homeImage/87/03.jpg,87,/hostImage/87.jpg,0,0,1,1,0,0,0,1,0
6606822a2b9cfb28555564b7,1,1,1,1,1,1,1,0,1,0,0,1,1,1,VL,1,1,0,1,0,0,1,1,1,1,88,이민준,79,01049143280,M,한예준,01007075888,자녀,100413-2479633,xx-xxxxx-xxx,산업,서울 양천구 신정동 999-24,57,37.524506,126.862248,USER,풀옵션 깔끔 채광좋은 바닥층 목동역4분 빌라형 다가구,88,88,서울,양천구,empty,목동로17길 16,88,88,88,88,262,263,264,/homeImage/88/01.jpg,/homeImage/88/02.jpg,/homeImage/88/03.jpg,88,/hostImage/88.jpg,1,0,1,0,1,1,1,1,1
6606822a2b9cfb28555564b8,1,1,1,1,1,1,1,1,1,0,0,1,1,1,DDDGG,0,1,0,1,0,1,0,1,0,0,89,윤우진,66,01096515592,F,이성수,01063052953,자녀,370128-1995501,xx-xxxxx-xxx,신한,서울 양천구 신정동 888-4,35,37.527068,126.861904,USER,목동역 단독주택에 있는 옥탑 입니다.,89,89,서울,양천구,empty,신정중앙로21길 12,89,89,89,89,265,266,267,/homeImage/89/01.jpg,/homeImage/89/02.jpg,/homeImage/89/03.jpg,89,/hostImage/89.jpg,1,0,0,1,0,0,1,1,0
6606822a2b9cfb28555564b9,1,1,1,1,1,1,1,1,1,0,1,0,1,1,DDDGG,1,1,1,0,0,0,1,0,1,0,90,이상훈,71,01077084684,F,박준혁,01036943292,자녀,560029-1232111,xx-xxxxx-xxx,우체국,서울 양천구 신월동 153-5,25,37.534563,126.824885,UNAUTHORIZED_MEMBER,신월3동옥탑방,90,90,서울,양천구,empty,가로공원로60길 8,90,90,90,90,268,269,270,/homeImage/90/01.jpg,/homeImage/90/02.jpg,/homeImage/90/03.jpg,90,/hostImage/90.jpg,0,0,1,0,1,1,1,0,1
6606822a2b9cfb28555564ba,1,1,1,1,1,1,1,0,1,0,0,0,1,1,OR,1,0,1,1,0,0,0,1,0,1,91,이현주,98,01077170729,M,김성현,01033867838,자녀,480402-2998427,xx-xxxxx-xxx,국민,서울 양천구 신월동 166-10,42,37.534291,126.829007,UNAUTHORIZED_MEMBER,"JS드림,대로변,복층,저렴한관리비",91,91,서울,양천구,empty,남부순환로 368,91,91,91,91,271,272,273,/homeImage/91/01.jpg,/homeImage/91/02.jpg,/homeImage/91/03.jpg,91,/hostImage/91.jpg,1,0,1,0,0,2,0,1,0
6606822a2b9cfb28555564bb,1,1,1,1,1,1,1,1,1,0,0,0,1,1,OR,1,1,1,0,1,0,1,1,0,0,92,이영자,90,01092924920,M,김성진,01010437985,자녀,010216-1102877,xx-xxxxx-xxx,토스,서울 양천구 신월동 166-10,44,37.534291,126.829007,USER,"JS드림,대로변,복층,저렴한관리비",92,92,서울,양천구,empty,남부순환로 368,92,92,92,92,274,275,276,/homeImage/92/01.jpg,/homeImage/92/02.jpg,/homeImage/92/03.jpg,92,/hostImage/92.jpg,0,1,1,0,1,1,1,1,0
6606822a2b9cfb28555564bc,1,1,1,1,1,1,1,0,1,0,0,0,1,1,DDDGG,1,0,1,1,0,0,1,1,1,0,93,김서준,97,01069728037,M,김지민,01072907564,자녀,560211-2487328,xx-xxxxx-xxx,우리,서울 양천구 신월동 22-6,40,37.54056,126.832364,UNAUTHORIZED_MEMBER,신축수준으로 올수리 밝고 습기없는 반지층 방2,93,93,서울,양천구,empty,월정로46길 4,93,93,93,93,277,278,279,/homeImage/93/01.jpg,/homeImage/93/02.jpg,/homeImage/93/03.jpg,93,/hostImage/93.jpg,1,0,1,0,1,1,0,1,1
6606822a2b9cfb28555564bd,1,1,1,1,1,1,1,0,1,0,0,0,1,1,DDDGG,1,1,0,1,1,0,0,1,1,1,94,김영수,96,01090980029,M,이서윤,01067739255,자녀,030003-2258931,xx-xxxxx-xxx,제주,서울 양천구 신월동 186-24,35,37.532368,126.825228,UNAUTHORIZED_MEMBER,"신월사거리 8분,다가구 지상1층 방2,벽걸이에어컨 옵션,실면적 약7",94,94,서울,양천구,empty,남부순환로40길 85,94,94,94,94,280,281,282,/homeImage/94/01.jpg,/homeImage/94/02.jpg,/homeImage/94/03.jpg,94,/hostImage/94.jpg,1,1,1,0,0,1,1,1,1
6606822a2b9cfb28555564be,1,1,1,1,1,1,1,1,1,0,0,1,1,1,OR,0,1,1,0,1,1,0,0,1,0,95,이영길,74,01039721937,F,윤재호,01051610424,자녀,270323-1734531,xx-xxxxx-xxx,제주,서울 동작구 노량진동 148-62,37,37.513309,126.945607,USER,권리관계확실한 풀옵션전세원룸,95,95,서울,동작구,empty,만양로18길 19,95,95,95,95,283,284,285,/homeImage/95/01.jpg,/homeImage/95/02.jpg,/homeImage/95/03.jpg,95,/hostImage/95.jpg,0,1,0,1,0,1,1,0,1
6606822a2b9cfb28555564bf,1,1,1,1,1,1,1,0,1,0,1,0,1,1,OR,0,1,0,1,0,1,0,0,1,0,96,김영식,65,01068253346,M,김재현,01069398091,자녀,320228-1507646,xx-xxxxx-xxx,SC제일,서울 동작구 노량진동 218-100,35,37.508466,126.946443,UNAUTHORIZED_MEMBER,고시원가격의 가성비좋은 풀옵션원룸,96,96,서울,동작구,empty,만양로11길 3,96,96,96,96,286,287,288,/homeImage/96/01.jpg,/homeImage/96/02.jpg,/homeImage/96/03.jpg,96,/hostImage/96.jpg,1,0,0,1,0,0,1,0,1
6606822a2b9cfb28555564c0,1,1,1,1,1,1,1,0,1,0,1,0,1,1,OR,0,0,1,1,1,0,0,0,0,0,97,홍성민,100,01040099707,M,최광수,01049868276,자녀,790119-2036073,xx-xxxxx-xxx,광주,서울 동작구 노량진동 215-102,32,37.508769,126.947283,UNAUTHORIZED_MEMBER,고시원가격의 풀옵션원룸,97,97,서울,동작구,empty,만양로6길 16,97,97,97,97,289,290,291,/homeImage/97/01.jpg,/homeImage/97/02.jpg,/homeImage/97/03.jpg,97,/hostImage/97.jpg,1,1,0,0,0,1,0,0,0
6606822a2b9cfb28555564c1,1,1,1,1,1,1,1,0,1,0,0,0,1,1,OR,0,1,0,0,1,1,0,1,0,1,98,오명숙,96,01091273111,M,박서연,01043148932,자녀,500524-2313137,xx-xxxxx-xxx,하나,서울 동작구 노량진동 215-106,28,37.508613,126.947413,USER,권리관계확실한 고시원가격의 풀옵션원룸입니다,98,98,서울,동작구,empty,만양로6길 12,98,98,98,98,292,293,294,/homeImage/98/01.jpg,/homeImage/98/02.jpg,/homeImage/98/03.jpg,98,/hostImage/98.jpg,0,1,0,1,0,1,1,1,0
6606822a2b9cfb28555564c2,1,1,1,1,1,1,1,1,1,0,1,0,1,1,OR,1,0,1,0,0,1,0,1,0,1,99,김서연,98,01068157782,F,이경자,01064319574,자녀,740507-1912328,xx-xxxxx-xxx,제주,서울 동작구 노량진동 205-141,40,37.511081,126.947823,UNAUTHORIZED_MEMBER,노량진 학원가부근 가격대비 방크고 채광과 통풍좋은 깨끗한 원룸,99,99,서울,동작구,empty,만양로12가길 10,99,99,99,99,295,296,297,/homeImage/99/01.jpg,/homeImage/99/02.jpg,/homeImage/99/03.jpg,99,/hostImage/99.jpg,0,0,1,1,0,2,0,1,0
6606822a2b9cfb28555564c3,0,1,1,1,0,1,1,1,0,1,0,1,1,1,OR,0,0,1,1,1,1,0,1,1,1,100,정성민,100,01052155362,F,김영식,01059699697,자녀,340721-2427809,xx-xxxxx-xxx,수협,서울 동작구 대방동 392-16,28,37.502576,126.927457,UNAUTHORIZED_MEMBER,empty,100,100,서울,동작구,empty,대방동2길 33,100,100,100,100,298,299,300,/homeImage/100/01.jpg,/homeImage/100/02.jpg,/homeImage/100/03.jpg,100,/hostImage/100.jpg,1,1,0,1,0,2,0,1,1
6606822a2b9cfb28555564c4,1,1,1,1,1,1,1,1,1,0,1,0,1,1,OR,0,1,0,1,1,0,0,1,1,1,101,박성진,92,01051732094,M,송준영,01001485924,자녀,680003-2137114,xx-xxxxx-xxx,수협,서울 동작구 노량진동 219-33,55,37.508682,126.946478,USER,대로변이고 동선이 안전한 창문이2개임,101,101,서울,동작구,empty,만양로 53,101,101,101,101,301,302,303,/homeImage/101/01.jpg,/homeImage/101/02.jpg,/homeImage/101/03.jpg,101,/hostImage/101.jpg,1,1,0,0,0,1,1,1,1
6606822a2b9cfb28555564c5,1,1,1,1,1,1,1,0,1,0,0,0,1,1,OR,1,1,0,1,0,0,0,1,1,1,102,박상훈,65,01045073066,F,장상호,01054048485,자녀,400103-2685834,xx-xxxxx-xxx,케이,서울 동작구 노량진동 205-141,37,37.511081,126.947823,USER,방에 비해 정말 가격저렴하고 채광과 통풍좋은 깨끗한 원룸,102,102,서울,동작구,empty,만양로12가길 10,102,102,102,102,304,305,306,/homeImage/102/01.jpg,/homeImage/102/02.jpg,/homeImage/102/03.jpg,102,/hostImage/102.jpg,1,0,1,0,0,1,1,1,1
6606822a2b9cfb28555564c6,1,1,1,1,1,1,1,1,1,0,0,0,1,1,OR,1,0,1,1,1,1,0,0,0,1,103,박상훈,91,01064318684,M,김상훈,01057997134,자녀,400222-2183724,xx-xxxxx-xxx,하나,서울 동작구 노량진동 218-59,32,37.508376,126.946456,USER,집주인이 관리를잘해주는 권리관계확실한 매물입니다,103,103,서울,동작구,empty,만양로11길 3,103,103,103,103,307,308,309,/homeImage/103/01.jpg,/homeImage/103/02.jpg,/homeImage/103/03.jpg,103,/hostImage/103.jpg,1,1,1,1,0,2,0,0,0
6606822a2b9cfb28555564c7,1,1,1,1,1,1,1,1,1,0,1,0,1,1,OR,1,0,1,1,0,1,1,1,0,0,104,김도현,68,01016067770,M,고민서,01018678448,자녀,910816-1499589,xx-xxxxx-xxx,SC제일,서울 동작구 노량진동 214-127,47,37.50868,126.947534,USER,2018년신축한 방음이뛰어난풀옵션원룸,104,104,서울,동작구,empty,만양로8길 13,104,104,104,104,310,311,312,/homeImage/104/01.jpg,/homeImage/104/02.jpg,/homeImage/104/03.jpg,104,/hostImage/104.jpg,1,0,1,1,1,1,0,1,0
6606822a2b9cfb28555564c8,1,1,0,0,0,1,0,0,0,0,0,1,0,1,OR,0,1,0,1,1,0,1,0,1,1,105,강옥자,68,01072074678,M,이서현,01037294882,자녀,950314-2764668,xx-xxxxx-xxx,SC제일,서울 동작구 대방동 391-87,38,37.501832,126.92791,UNAUTHORIZED_MEMBER,empty,105,105,서울,동작구,empty,대방동길 27,105,105,105,105,313,314,315,/homeImage/105/01.jpg,/homeImage/105/02.jpg,/homeImage/105/03.jpg,105,/hostImage/105.jpg,1,1,0,0,1,1,1,0,1
6606822a2b9cfb28555564c9,1,1,1,1,1,1,1,0,1,0,0,1,1,1,OR,1,0,0,1,1,1,0,1,0,0,106,박미정,65,01022259344,F,조영일,01025105824,자녀,530918-2035844,xx-xxxxx-xxx,산업,서울 동작구 상도동 356-86,31,37.503334,126.933507,USER,저렴한 원룸이 있다 깔끔한을 원한다면 한번 봅시다,106,106,서울,동작구,empty,상도로15마길 21,106,106,106,106,316,317,318,/homeImage/106/01.jpg,/homeImage/106/02.jpg,/homeImage/106/03.jpg,106,/hostImage/106.jpg,1,1,1,1,0,0,0,1,0
6606822a2b9cfb28555564ca,1,1,1,1,1,1,1,0,1,0,0,0,1,1,OR,0,0,1,0,1,1,0,0,1,0,107,권혜진,65,01026657911,M,고보람,01074104976,자녀,230207-1934168,xx-xxxxx-xxx,대구,서울 동작구 노량진동 222-51,34,37.509568,126.946013,USER,저렴하고 화이트톤의 깨끗한 매물,107,107,서울,동작구,empty,만양로12길 6,107,107,107,107,319,320,321,/homeImage/107/01.jpg,/homeImage/107/02.jpg,/homeImage/107/03.jpg,107,/hostImage/107.jpg,0,1,0,1,0,1,0,0,1
6606822a2b9cfb28555564cb,1,1,1,1,1,1,1,1,1,0,1,1,1,1,OR,1,1,0,1,1,0,1,0,1,1,108,최현준,97,01096973580,M,오은주,01008175057,자녀,690523-2788039,xx-xxxxx-xxx,씨티,서울 동작구 상도동 247-6,50,37.500102,126.933507,UNAUTHORIZED_MEMBER,신대방삼거리역 1번출구 도보 3분 초역세권 저렴하고 깔끔한 원룸,108,108,서울,동작구,empty,성대로3길 8,108,108,108,108,322,323,324,/homeImage/108/01.jpg,/homeImage/108/02.jpg,/homeImage/108/03.jpg,108,/hostImage/108.jpg,1,1,1,0,1,1,1,0,1
6606822a2b9cfb28555564cc,1,1,1,1,1,1,1,1,1,0,0,1,1,1,OR,1,0,1,1,0,0,1,1,0,1,109,이지훈,89,01056811686,M,박예지,01005413708,자녀,970523-1011857,xx-xxxxx-xxx,경남,서울 동작구 노량진동 277-8,36,37.512204,126.936138,UNAUTHORIZED_MEMBER,깔끔한 가성비 좋은 원룸풀옵션,109,109,서울,동작구,empty,노량진로8가길 19,109,109,109,109,325,326,327,/homeImage/109/01.jpg,/homeImage/109/02.jpg,/homeImage/109/03.jpg,109,/hostImage/109.jpg,1,0,1,0,1,2,0,1,0
6606822a2b9cfb28555564cd,1,1,1,1,1,1,1,0,1,0,0,1,1,1,OR,0,0,1,1,0,1,0,1,1,1,110,손지우,76,01090892613,M,김영일,01021496846,자녀,850500-2234210,xx-xxxxx-xxx,대구,서울 동작구 상도동 361-69,35,37.504562,126.935673,UNAUTHORIZED_MEMBER,장승배기역 4번출구 도보 3분거리 초역세권 도배예정 깔끔한 원룸여기,110,110,서울,동작구,empty,상도로15차길 5,110,110,110,110,328,329,330,/homeImage/110/01.jpg,/homeImage/110/02.jpg,/homeImage/110/03.jpg,110,/hostImage/110.jpg,1,0,0,1,0,2,0,1,1
6606822a2b9cfb28555564ce,1,1,1,1,1,1,1,1,1,0,0,1,1,1,OR,1,1,0,0,1,1,0,1,1,1,111,류현준,82,01095940916,F,김영호,01078225641,자녀,000720-1588032,xx-xxxxx-xxx,SC제일,서울 동작구 상도동 356-86,32,37.503334,126.933507,USER,장승배기역 도보 7분 역세권 풀옵션 가성비 좋은 원룸,111,111,서울,동작구,empty,상도로15마길 21,111,111,111,111,331,332,333,/homeImage/111/01.jpg,/homeImage/111/02.jpg,/homeImage/111/03.jpg,111,/hostImage/111.jpg,0,1,1,1,0,1,1,1,1
6606822a2b9cfb28555564cf,1,1,1,1,1,1,1,1,1,0,0,1,1,1,OR,1,1,1,1,1,1,1,1,0,0,112,김승현,67,01088283890,F,박예진,01085376362,자녀,630201-2634365,xx-xxxxx-xxx,광주,서울 동작구 노량진동 127-3,37,37.512401,126.946188,USER,가성비최고 크기좋고 깨끗한 풀옵션 원룸,112,112,서울,동작구,empty,만양로14나길 19,112,112,112,112,334,335,336,/homeImage/112/01.jpg,/homeImage/112/02.jpg,/homeImage/112/03.jpg,112,/hostImage/112.jpg,1,1,1,1,1,1,1,1,0
6606822a2b9cfb28555564d0,1,1,1,1,1,1,1,0,1,0,0,1,1,1,OR,1,1,1,0,0,0,0,1,1,1,113,이지현,77,01026371637,M,성정순,01058501692,자녀,030511-2325019,xx-xxxxx-xxx,광주,서울 동작구 대방동 391-301,40,37.501837,126.924584,UNAUTHORIZED_MEMBER,보라매역 도보 8분 풀옵션 원룸,113,113,서울,동작구,empty,대방동27길 73,113,113,113,113,337,338,339,/homeImage/113/01.jpg,/homeImage/113/02.jpg,/homeImage/113/03.jpg,113,/hostImage/113.jpg,0,0,1,0,0,2,1,1,1
6606822a2b9cfb28555564d1,1,1,1,1,1,1,1,0,1,0,0,1,1,1,OR,0,1,1,0,1,0,1,0,1,0,114,장주원,66,01059490465,M,이정수,01081593647,자녀,950904-1952466,xx-xxxxx-xxx,카카오,서울 동작구 노량진동 244-34,40,37.511596,126.938471,USER,노량진 학원가 인접 깔끔한방,114,114,서울,동작구,empty,장승배기로27길 16,114,114,114,114,340,341,342,/homeImage/114/01.jpg,/homeImage/114/02.jpg,/homeImage/114/03.jpg,114,/hostImage/114.jpg,0,1,0,0,1,1,1,0,1
6606822a2b9cfb28555564d2,1,1,1,1,1,1,1,1,1,0,0,1,1,1,OR,0,1,1,0,1,0,0,1,0,0,115,강수빈,71,01057142462,M,송영자,01067960727,자녀,860625-1541524,xx-xxxxx-xxx,경남,서울 동작구 대방동 391-540,35,37.501324,126.927407,UNAUTHORIZED_MEMBER,신대방삼거리역 도보 3분 깔끔하고 가성비 좋은 원룸,115,115,서울,동작구,empty,대방동5길 4,115,115,115,115,343,344,345,/homeImage/115/01.jpg,/homeImage/115/02.jpg,/homeImage/115/03.jpg,115,/hostImage/115.jpg,0,1,0,0,0,1,1,1,0
6606822a2b9cfb28555564d3,1,1,1,1,1,1,1,1,1,0,0,1,1,1,OR,1,0,1,0,0,0,0,1,0,1,116,김미숙,85,01064061026,F,안경수,01080843436,자녀,580603-1389851,xx-xxxxx-xxx,광주,서울 동작구 대방동 391-23,42,37.501686,126.927859,UNAUTHORIZED_MEMBER,신대방삼거리역 도보 4분 풀옵션 역세권 원룸,116,116,서울,동작구,empty,대방동길 21,116,116,116,116,346,347,348,/homeImage/116/01.jpg,/homeImage/116/02.jpg,/homeImage/116/03.jpg,116,/hostImage/116.jpg,0,0,1,0,0,2,0,1,0
6606822a2b9cfb28555564d4,1,1,1,1,1,1,1,0,1,0,0,0,1,1,OR,1,1,1,1,1,0,0,1,1,0,117,이지우,91,01056037870,M,양지원,01025452380,자녀,840324-2315666,xx-xxxxx-xxx,국민,서울 동작구 대방동 391-245,38,37.502724,126.924984,UNAUTHORIZED_MEMBER,가성비 끝판왕 풀옵션 원룸,117,117,서울,동작구,empty,대방동15길 5,117,117,117,117,349,350,351,/homeImage/117/01.jpg,/homeImage/117/02.jpg,/homeImage/117/03.jpg,117,/hostImage/117.jpg,1,1,1,0,0,1,1,1,1
6606822a2b9cfb28555564d5,1,1,1,1,1,1,1,1,1,0,0,1,1,1,OR,0,0,1,1,0,1,0,1,0,1,118,김서영,75,01026177708,F,김정숙,01042692984,자녀,730522-2913229,xx-xxxxx-xxx,토스,서울 동작구 대방동 391-152,40,37.501173,126.925904,USER,신대방삼거리역 도보 4분 초역세권 풀옵션 원룸,118,118,서울,동작구,empty,대방동3길 29,118,118,118,118,352,353,354,/homeImage/118/01.jpg,/homeImage/118/02.jpg,/homeImage/118/03.jpg,118,/hostImage/118.jpg,1,0,0,1,0,2,0,1,0
6606822a2b9cfb28555564d6,1,1,1,1,1,1,1,0,1,0,0,0,1,1,OR,0,0,0,1,0,1,0,0,1,1,119,이정웅,82,01072597113,F,박지현,01033653219,자녀,330519-1987635,xx-xxxxx-xxx,우리,서울 동작구 상도1동 483-1,60,37.503738,126.951926,UNAUTHORIZED_MEMBER,중앙대 초역세권 가장 넓은 원룸,119,119,서울,동작구,empty,상도로47길 102,119,119,119,119,355,356,357,/homeImage/119/01.jpg,/homeImage/119/02.jpg,/homeImage/119/03.jpg,119,/hostImage/119.jpg,1,0,0,1,0,1,0,0,1
6606822a2b9cfb28555564d7,1,1,1,1,1,1,1,1,1,0,0,1,1,1,OR,1,0,0,0,0,1,0,1,0,1,120,황종수,81,01032792413,M,이서연,01045500156,자녀,380503-2778777,xx-xxxxx-xxx,신한,서울 동작구 노량진동 270,40,37.512297,126.935181,USER,위치놓고깔끔한원룸,120,120,서울,동작구,empty,등용로14길 66,120,120,120,120,358,359,360,/homeImage/120/01.jpg,/homeImage/120/02.jpg,/homeImage/120/03.jpg,120,/hostImage/120.jpg,0,0,1,1,0,1,0,1,0
6606822a2b9cfb28555564d8,1,1,1,1,1,1,1,1,1,0,0,1,1,1,OR,1,0,0,0,0,0,1,0,1,0,121,안은경,90,01052669074,F,박순옥,01021612811,자녀,070819-1540976,xx-xxxxx-xxx,씨티,서울 동작구 노량진동 270,58,37.512297,126.935181,UNAUTHORIZED_MEMBER,위치놓고깔끔한원룸,121,121,서울,동작구,empty,등용로14길 66,121,121,121,121,361,362,363,/homeImage/121/01.jpg,/homeImage/121/02.jpg,/homeImage/121/03.jpg,121,/hostImage/1.jpg,0,0,1,0,1,0,0,0,1
6606822a2b9cfb28555564d9,1,1,1,1,1,1,1,1,1,0,0,1,1,1,OR,0,1,0,0,0,1,1,1,1,0,122,박지은,86,01090000655,M,장동현,01043126441,자녀,870001-1888153,xx-xxxxx-xxx,경남,서울 동작구 대방동 391-561,35,37.500816,126.924228,USER,보라매역 도보 5분 초역세권 풀옵션 원룸,122,122,서울,동작구,empty,대방동27길 97,122,122,122,122,364,365,366,/homeImage/122/01.jpg,/homeImage/122/02.jpg,/homeImage/122/03.jpg,122,/hostImage/2.jpg,0,0,0,1,1,0,1,1,1
6606822a2b9cfb28555564da,1,1,1,1,1,1,1,1,1,0,0,1,1,1,OR,0,1,1,0,0,1,1,1,0,1,123,박종수,75,01021184210,M,김정웅,01083328637,자녀,980603-1409662,xx-xxxxx-xxx,케이,서울 동작구 노량진동 270,40,37.512297,126.935181,USER,위치놓고깔끔한원룸,123,123,서울,동작구,empty,등용로14길 66,123,123,123,123,367,368,369,/homeImage/123/01.jpg,/homeImage/123/02.jpg,/homeImage/123/03.jpg,123,/hostImage/3.jpg,0,0,0,1,1,2,1,1,0
6606822a2b9cfb28555564db,1,1,1,1,1,1,1,1,1,0,0,1,1,1,OR,0,1,1,1,0,1,1,1,0,1,124,문성현,66,01029866449,M,김도현,01060709196,자녀,680116-1077603,xx-xxxxx-xxx,우체국,서울 동작구 대방동 391-559,42,37.50054,126.924358,UNAUTHORIZED_MEMBER,신대방삼거리역 보라매역 도보 5분거리 역세권 풀옵션 원룸,124,124,서울,동작구,empty,대방동1길 30,124,124,124,124,370,371,372,/homeImage/124/01.jpg,/homeImage/124/02.jpg,/homeImage/124/03.jpg,124,/hostImage/4.jpg,1,0,0,1,1,2,1,1,0
6606822a2b9cfb28555564dc,1,1,1,1,1,1,1,1,1,0,0,1,1,1,OR,1,1,1,0,0,0,1,0,1,1,125,윤서윤,79,01081419309,F,김지혜,01027465892,자녀,920826-2665731,xx-xxxxx-xxx,제주,서울 동작구 노량진동 120-20,40,37.510986,126.943759,UNAUTHORIZED_MEMBER,컨디션 좋은 가성비 최고매물,125,125,서울,동작구,empty,만양로15길 14,125,125,125,125,373,374,375,/homeImage/125/01.jpg,/homeImage/125/02.jpg,/homeImage/125/03.jpg,125,/hostImage/5.jpg,0,0,1,0,1,2,1,0,1
6606822a2b9cfb28555564dd,1,1,1,1,1,1,1,0,1,0,0,1,1,1,OR,1,0,1,0,0,1,0,0,0,0,126,김지영,83,01032298815,F,홍민서,01009807326,자녀,610509-2301097,xx-xxxxx-xxx,수협,서울 동작구 노량진동 127-11,43,37.512498,126.946252,USER,가성비굿 위치좋고 컨디션 좋은 리모델링 귀한 매물,126,126,서울,동작구,empty,만양로14길 39,126,126,126,126,376,377,378,/homeImage/126/01.jpg,/homeImage/126/02.jpg,/homeImage/126/03.jpg,126,/hostImage/6.jpg,0,0,1,1,0,1,0,0,0
6606822a2b9cfb28555564de,1,1,1,1,1,1,1,0,1,0,0,0,1,1,OR,0,0,1,0,1,1,1,1,0,1,127,이영길,85,01069159467,M,김준혁,01025450145,자녀,790812-1339366,xx-xxxxx-xxx,케이,서울 동작구 노량진동 219-33,43,37.508682,126.946478,USER,대로변이고 동선이 안전한 2018년신축된 방음이좋은원룸,127,127,서울,동작구,empty,만양로 53,127,127,127,127,379,380,381,/homeImage/127/01.jpg,/homeImage/127/02.jpg,/homeImage/127/03.jpg,127,/hostImage/7.jpg,0,1,0,1,1,2,0,1,0
6606822a2b9cfb28555564df,1,1,1,1,1,1,1,0,1,0,0,1,1,1,OR,1,0,0,1,1,0,1,0,0,0,128,장성민,85,01075921558,M,정성현,01014879346,자녀,730003-2921116,xx-xxxxx-xxx,산업,서울 동작구 노량진동 277-8,33,37.512204,126.936138,UNAUTHORIZED_MEMBER,노량진에서 귀한 큰 원룸입니다,128,128,서울,동작구,empty,노량진로8가길 19,128,128,128,128,382,383,384,/homeImage/128/01.jpg,/homeImage/128/02.jpg,/homeImage/128/03.jpg,128,/hostImage/8.jpg,1,1,1,0,1,0,0,0,0
6606822a2b9cfb28555564e0,1,1,1,1,1,1,1,0,1,0,1,0,1,1,OR,0,0,0,1,0,1,0,0,1,1,129,서영진,73,01025923762,M,이우진,01067798376,자녀,190801-2969128,xx-xxxxx-xxx,수협,서울 동작구 노량진동 219-34,44,37.508563,126.946556,UNAUTHORIZED_MEMBER,실제면적 훨씬 넓고 앞이 틔여있어 채광좋고 깨끗한 도시형생활주택,129,129,서울,동작구,empty,만양로 51,129,129,129,129,385,386,387,/homeImage/129/01.jpg,/homeImage/129/02.jpg,/homeImage/129/03.jpg,129,/hostImage/9.jpg,1,0,0,1,0,1,0,0,1
6606822a2b9cfb28555564e1,1,1,1,1,1,1,1,0,1,0,0,1,1,1,OR,0,0,1,1,0,0,1,0,1,1,130,김하은,100,01010502602,M,오주원,01011675527,자녀,740327-1034728,xx-xxxxx-xxx,SC제일,서울 동작구 노량진동 262-5,38,37.512443,126.936114,UNAUTHORIZED_MEMBER,노량진에서 보기힘든 완전깔끔한 화이트톤원룸,130,130,서울,동작구,empty,노량진로6가길 3,130,130,130,130,388,389,390,/homeImage/130/01.jpg,/homeImage/130/02.jpg,/homeImage/130/03.jpg,130,/hostImage/10.jpg,1,0,0,0,1,2,0,0,1
6606822a2b9cfb28555564e2,1,1,1,1,1,1,1,0,1,0,0,1,1,1,OR,0,1,0,1,0,1,1,1,1,1,131,이정남,72,01081906727,F,이하은,01057537218,자녀,720207-2536193,xx-xxxxx-xxx,광주,서울 동작구 노량진동 267-21,29,37.512535,126.934998,USER,깔끔하고 저렴한 원룸 찾으시는분들,131,131,서울,동작구,empty,등용로14길 63,131,131,131,131,391,392,393,/homeImage/131/01.jpg,/homeImage/131/02.jpg,/homeImage/131/03.jpg,131,/hostImage/11.jpg,1,0,0,1,1,1,1,1,1
6606822a2b9cfb28555564e3,1,1,1,1,1,1,1,0,1,0,0,1,1,1,OR,0,1,0,0,0,1,0,1,0,0,132,신옥자,84,01012055530,F,진영호,01048136801,자녀,980329-1132456,xx-xxxxx-xxx,카카오,서울 동작구 노량진동 119-113,30,37.511229,126.943678,USER,저렴하고 위치좋은 원룸 찾으시나,132,132,서울,동작구,empty,만양로15길 6,132,132,132,132,394,395,396,/homeImage/132/01.jpg,/homeImage/132/02.jpg,/homeImage/132/03.jpg,132,/hostImage/12.jpg,0,0,0,1,0,0,1,1,0
6606822a2b9cfb28555564e4,1,1,1,1,1,1,1,0,1,0,0,1,1,1,OR,0,1,0,1,0,1,0,1,1,0,133,박진호,77,01029815229,F,이광수,01054013083,자녀,280118-2980891,xx-xxxxx-xxx,하나,서울 동작구 노량진동 253-5,45,37.51119,126.938202,USER,깔끔하고 단아한 원룸입니다,133,133,서울,동작구,empty,노량진로10길 45,133,133,133,133,397,398,399,/homeImage/133/01.jpg,/homeImage/133/02.jpg,/homeImage/133/03.jpg,133,/hostImage/13.jpg,1,0,0,1,0,0,1,1,1
6606822a2b9cfb28555564e5,1,1,1,1,1,1,1,0,1,0,0,1,1,1,OR,1,0,1,1,1,0,1,1,1,0,134,최지원,87,01046700271,F,진병철,01083053854,자녀,220121-1513869,xx-xxxxx-xxx,수협,서울 동작구 노량진동 276-3,45,37.512043,126.936445,UNAUTHORIZED_MEMBER,깔끔한 풀옵션 원룸 월세 나왔습니다.,134,134,서울,동작구,empty,노량진로6가길 17,134,134,134,134,400,401,402,/homeImage/134/01.jpg,/homeImage/134/02.jpg,/homeImage/134/03.jpg,134,/hostImage/14.jpg,1,1,1,0,1,1,0,1,1
6606822a2b9cfb28555564e6,1,1,1,1,1,1,1,0,1,0,0,1,1,1,OR,0,1,1,1,0,1,1,0,1,0,135,박예지,95,01099515927,M,이건우,01025601251,자녀,230129-1401969,xx-xxxxx-xxx,케이,서울 동작구 노량진동 267-21,29,37.512535,126.934998,UNAUTHORIZED_MEMBER,깔끔하고 저렴한 원룸 찾으시는분들,135,135,서울,동작구,empty,등용로14길 63,135,135,135,135,403,404,405,/homeImage/135/01.jpg,/homeImage/135/02.jpg,/homeImage/135/03.jpg,135,/hostImage/15.jpg,1,0,0,1,1,1,1,0,1
6606822a2b9cfb28555564e7,1,1,1,1,1,1,1,1,1,0,1,1,1,1,OR,0,0,1,0,0,1,0,1,1,1,136,이영철,92,01029198793,F,오정순,01048781674,자녀,250610-2248876,xx-xxxxx-xxx,신한,서울 동작구 노량진동 233-10,30,37.510126,126.939822,UNAUTHORIZED_MEMBER,위치좋은 저렴한 노량진 원룸3,136,136,서울,동작구,empty,장승배기로23길 4,136,136,136,136,406,407,408,/homeImage/136/01.jpg,/homeImage/136/02.jpg,/homeImage/136/03.jpg,136,/hostImage/16.jpg,0,0,0,1,0,2,0,1,1
6606822a2b9cfb28555564e8,1,1,1,1,1,1,1,0,1,0,0,1,1,1,OR,1,0,0,1,1,0,1,0,1,0,137,이준서,100,01094307345,M,노승민,01006707189,자녀,940902-1042716,xx-xxxxx-xxx,신한,서울 동작구 노량진동 52-30,36,37.511987,126.940915,UNAUTHORIZED_MEMBER,깔끔하고 위치 좋은 원룸입니다,137,137,서울,동작구,empty,장승배기로26길 9,137,137,137,137,409,410,411,/homeImage/137/01.jpg,/homeImage/137/02.jpg,/homeImage/137/03.jpg,137,/hostImage/17.jpg,1,1,1,0,1,0,0,0,1
6606822a2b9cfb28555564e9,1,1,1,1,1,1,1,1,1,0,0,1,1,1,OR,1,1,1,0,0,0,0,0,1,0,138,고재현,79,01030209197,F,최민서,01062454164,자녀,590215-1251129,xx-xxxxx-xxx,신한,서울 동작구 노량진동 225-3,46,37.508988,126.941266,UNAUTHORIZED_MEMBER,깔끔한 원룸 찾으시는분 구경하세요,138,138,서울,동작구,empty,장승배기로22길 29,138,138,138,138,412,413,414,/homeImage/138/01.jpg,/homeImage/138/02.jpg,/homeImage/138/03.jpg,138,/hostImage/18.jpg,0,0,1,0,0,1,1,0,1
6606822a2b9cfb28555564ea,1,1,1,1,1,1,1,0,1,0,1,0,1,1,OR,1,1,0,0,1,1,0,1,0,0,139,심현숙,68,01077927568,F,김명자,01026327730,자녀,950718-2040992,xx-xxxxx-xxx,우체국,서울 동작구 노량진동 219-34,25,37.508563,126.946556,USER,가격저렴하고 깨끗하며 노량진역 도보 10분거리,139,139,서울,동작구,empty,만양로 51,139,139,139,139,415,416,417,/homeImage/139/01.jpg,/homeImage/139/02.jpg,/homeImage/139/03.jpg,139,/hostImage/19.jpg,0,1,1,1,0,0,1,1,0
6606822a2b9cfb28555564eb,1,1,1,1,1,1,1,0,1,0,0,0,1,1,OR,1,1,1,0,0,0,1,1,0,0,140,강영미,96,01064803761,F,박미숙,01088404598,자녀,110107-2798911,xx-xxxxx-xxx,국민,서울 동작구 노량진동 222-46,40,37.509783,126.945991,USER,풀옵션 깨끗한 원룸 매물 나왔습니다.,140,140,서울,동작구,empty,만양로12길 6,140,140,140,140,418,419,420,/homeImage/140/01.jpg,/homeImage/140/02.jpg,/homeImage/140/03.jpg,140,/hostImage/20.jpg,0,0,1,0,1,1,1,1,0
6606822a2b9cfb28555564ec,1,1,1,1,1,1,1,0,1,0,0,1,1,1,OR,1,0,1,0,0,0,0,1,0,1,141,김영식,77,01086444525,F,박현준,01051674261,자녀,540524-1059586,xx-xxxxx-xxx,씨티,서울 동작구 노량진동 244-34,48,37.511596,126.938471,USER,위치좋은깔끔한원룸입니다,141,141,서울,동작구,empty,장승배기로27길 16,141,141,141,141,421,422,423,/homeImage/141/01.jpg,/homeImage/141/02.jpg,/homeImage/141/03.jpg,141,/hostImage/21.jpg,0,0,1,0,0,2,0,1,0
6606822a2b9cfb28555564ed,1,1,1,1,1,1,1,0,1,0,0,1,1,1,OR,1,0,1,1,0,1,0,1,0,1,142,황하윤,85,01068275722,F,박수민,01067184726,자녀,480906-2262936,xx-xxxxx-xxx,광주,서울 동작구 노량진동 267-48,29,37.51251,126.935118,USER,가성비최고 원룸,142,142,서울,동작구,empty,등용로14길 65,142,142,142,142,424,425,426,/homeImage/142/01.jpg,/homeImage/142/02.jpg,/homeImage/142/03.jpg,142,/hostImage/22.jpg,1,0,1,1,0,2,0,1,0
6606822a2b9cfb28555564ee,1,1,1,1,1,1,1,1,1,0,0,1,1,1,OR,0,1,0,0,0,0,1,1,0,0,143,곽승현,77,01039387513,M,나서연,01087957468,자녀,970709-2066213,xx-xxxxx-xxx,수협,서울 동작구 노량진동 262-4,37,37.512337,126.936131,USER,"진짜 깔끔한 꿀매물,  가격도 저렴해요",143,143,서울,동작구,empty,노량진로8가길 20,143,143,143,143,427,428,429,/homeImage/143/01.jpg,/homeImage/143/02.jpg,/homeImage/143/03.jpg,143,/hostImage/23.jpg,0,0,0,0,1,0,1,1,0
6606822a2b9cfb28555564ef,1,1,1,1,1,1,1,1,1,0,0,1,1,1,OR,0,1,1,0,0,0,0,0,1,1,144,강경자,81,01091014890,M,구정호,01088089168,자녀,230004-1554791,xx-xxxxx-xxx,하나,서울 동작구 노량진동 244-34,43,37.511596,126.938471,UNAUTHORIZED_MEMBER,위치좋은깔끔한원룸입니다,144,144,서울,동작구,empty,장승배기로27길 16,144,144,144,144,430,431,432,/homeImage/144/01.jpg,/homeImage/144/02.jpg,/homeImage/144/03.jpg,144,/hostImage/24.jpg,0,0,0,0,0,2,1,0,1
6606822a2b9cfb28555564f0,1,1,1,1,1,1,1,1,1,0,0,0,1,1,OR,0,0,1,0,0,1,1,0,0,0,145,권보람,70,01044394437,M,김미영,01022155041,자녀,180118-2455757,xx-xxxxx-xxx,우리,서울 동작구 노량진동 232-43,43,37.509735,126.941879,USER,저렴한가격에 신축느낌나는 원룸,145,145,서울,동작구,empty,장승배기로20다길 6,145,145,145,145,433,434,435,/homeImage/145/01.jpg,/homeImage/145/02.jpg,/homeImage/145/03.jpg,145,/hostImage/25.jpg,0,0,0,1,1,1,0,0,0
6606822a2b9cfb28555564f1,1,1,1,1,1,1,1,0,1,0,1,1,1,1,OR,1,1,1,1,0,1,0,1,1,0,146,장영호,93,01029316287,M,이종수,01068938445,자녀,200206-2745796,xx-xxxxx-xxx,신한,서울 동작구 노량진동 85-7,40,37.512109,126.943524,USER,저렴하고 치안좋은 노량진 원룸,146,146,서울,동작구,노량진동,empty,146,146,146,146,436,437,438,/homeImage/146/01.jpg,/homeImage/146/02.jpg,/homeImage/146/03.jpg,146,/hostImage/26.jpg,1,0,1,1,0,1,1,1,1
6606822a2b9cfb28555564f2,1,1,1,1,1,1,1,0,1,0,0,1,1,1,OR,1,1,0,1,0,1,0,1,0,0,147,김현정,85,01034695077,F,홍윤서,01043778288,자녀,690528-1892806,xx-xxxxx-xxx,신한,서울 동작구 노량진동 270,45,37.512297,126.935181,USER,깔끔하고 넓직한 원룸입니다.,147,147,서울,동작구,empty,등용로14길 66,147,147,147,147,439,440,441,/homeImage/147/01.jpg,/homeImage/147/02.jpg,/homeImage/147/03.jpg,147,/hostImage/27.jpg,1,0,1,1,0,0,1,1,0
6606822a2b9cfb28555564f3,1,1,1,1,1,1,1,1,1,0,1,0,1,1,OR,0,1,0,0,0,0,1,0,0,0,148,남경숙,100,01074907234,M,황미정,01002086922,자녀,860517-2924978,xx-xxxxx-xxx,제주,서울 동작구 노량진동 215-112,35,37.508452,126.947329,USER,저렴한 원룸입니다,148,148,서울,동작구,empty,만양로6길 9,148,148,148,148,442,443,444,/homeImage/148/01.jpg,/homeImage/148/02.jpg,/homeImage/148/03.jpg,148,/hostImage/28.jpg,0,0,0,0,1,0,1,0,0
6606822a2b9cfb28555564f4,1,1,1,1,1,1,1,0,1,0,1,0,1,1,OR,0,0,1,0,0,0,0,0,1,0,149,우영식,94,01043913004,M,김영호,01065568591,자녀,390529-1449065,xx-xxxxx-xxx,농협,서울 동작구 노량진동 215-109,42,37.508384,126.947607,UNAUTHORIZED_MEMBER,"노량진 깔끔하고 넓직한 원룸, 창고식 베란다도 있습니다",149,149,서울,동작구,empty,만양로6길 6,149,149,149,149,445,446,447,/homeImage/149/01.jpg,/homeImage/149/02.jpg,/homeImage/149/03.jpg,149,/hostImage/29.jpg,0,0,0,0,0,1,0,0,1
6606822a2b9cfb28555564f5,1,1,1,1,1,1,1,1,1,0,0,1,1,1,OR,1,0,1,0,1,0,0,1,1,1,150,권병철,96,01002737809,M,박영자,01039111454,자녀,020322-1046312,xx-xxxxx-xxx,수협,서울 동작구 노량진동 125-32,47,37.512324,126.945657,UNAUTHORIZED_MEMBER,위치굿 컨디션굿 풀옵션 크기좋은 가성비 원룸,150,150,서울,동작구,empty,만양로14나길 12,150,150,150,150,448,449,450,/homeImage/150/01.jpg,/homeImage/150/02.jpg,/homeImage/150/03.jpg,150,/hostImage/30.jpg,0,1,1,0,0,2,0,1,1
6606822a2b9cfb28555564f6,1,1,1,1,1,1,1,1,1,0,0,0,1,1,OR,1,1,0,0,0,1,1,1,1,0,151,이승현,79,01011656233,M,이선영,01005709945,자녀,840429-2235306,xx-xxxxx-xxx,카카오,서울 동작구 노량진동 222-51,37,37.509568,126.946013,USER,저렴하고 화이트톤의 깨끗한 매물,151,151,서울,동작구,empty,만양로12길 6,151,151,151,151,451,452,453,/homeImage/151/01.jpg,/homeImage/151/02.jpg,/homeImage/151/03.jpg,151,/hostImage/31.jpg,0,0,1,1,1,0,1,1,1
6606822a2b9cfb28555564f7,1,1,1,1,1,1,1,0,1,0,0,1,1,1,OR,1,1,1,0,1,0,0,1,0,1,152,박준서,88,01067493215,M,박은서,01053074085,자녀,350415-1103565,xx-xxxxx-xxx,SC제일,서울 동작구 노량진동 125-31,40,37.512271,126.945745,USER,위치좋은 노량진 원룸 입니다,152,152,서울,동작구,empty,만양로14나길 14,152,152,152,152,454,455,456,/homeImage/152/01.jpg,/homeImage/152/02.jpg,/homeImage/152/03.jpg,152,/hostImage/32.jpg,0,1,1,0,0,2,1,1,0
6606822a2b9cfb28555564f8,1,1,1,1,1,1,1,1,1,0,0,1,1,1,OR,1,0,0,1,0,1,1,1,0,0,153,이준서,73,01042825635,M,김영순,01030395154,자녀,820322-1075838,xx-xxxxx-xxx,우체국,서울 동작구 노량진동 35-1,50,37.512648,126.937245,USER,리모델링 깔끔하고 이쁜 공간 노량진역 큰대로변 초근접,153,153,서울,동작구,empty,노량진로8길 33,153,153,153,153,457,458,459,/homeImage/153/01.jpg,/homeImage/153/02.jpg,/homeImage/153/03.jpg,153,/hostImage/33.jpg,1,0,1,1,1,0,0,1,0
6606822a2b9cfb28555564f9,1,1,1,1,1,1,1,0,1,0,0,0,1,1,OR,1,1,0,0,1,1,1,1,1,0,154,이지연,88,01056416005,M,이주원,01092263012,자녀,420521-2117436,xx-xxxxx-xxx,전북,서울 동작구 노량진동 222-89,43,37.510208,126.945892,USER,정남향으로 채광이 좋습니다,154,154,서울,동작구,empty,만양로6길 60,154,154,154,154,460,461,462,/homeImage/154/01.jpg,/homeImage/154/02.jpg,/homeImage/154/03.jpg,154,/hostImage/34.jpg,0,1,1,1,1,0,1,1,1
6606822a2b9cfb28555564fa,1,1,1,1,1,1,1,0,1,0,0,0,1,1,OR,1,1,1,0,1,1,0,0,0,1,155,이서현,84,01022389105,M,김민준,01064983685,자녀,650624-2920259,xx-xxxxx-xxx,기업,서울 동작구 노량진동 215-106,30,37.508613,126.947413,USER,고시원가격의 풀옵션원룸,155,155,서울,동작구,empty,만양로6길 12,155,155,155,155,463,464,465,/homeImage/155/01.jpg,/homeImage/155/02.jpg,/homeImage/155/03.jpg,155,/hostImage/35.jpg,0,1,1,1,0,2,1,0,0
6606822a2b9cfb28555564fb,1,1,1,1,1,1,1,1,1,0,1,0,1,1,OR,1,0,1,0,0,0,0,0,1,1,156,송경수,85,01022251768,F,김옥순,01001584148,자녀,790202-2422297,xx-xxxxx-xxx,수협,서울 동작구 노량진동 215-102,37,37.508769,126.947283,USER,신축으로 방이크고 방음이 좋은 풀옵션원룸,156,156,서울,동작구,empty,만양로6길 16,156,156,156,156,466,467,468,/homeImage/156/01.jpg,/homeImage/156/02.jpg,/homeImage/156/03.jpg,156,/hostImage/36.jpg,0,0,1,0,0,2,0,0,1
6606822a2b9cfb28555564fc,1,1,1,1,1,1,1,1,1,0,1,0,1,1,OR,1,0,1,1,0,1,0,1,1,0,157,김건우,81,01098194773,M,한은영,01029314706,자녀,960409-1240545,xx-xxxxx-xxx,농협,서울 동작구 노량진동 215-116,37,37.508775,126.94706,USER,2016년신축한 방음이뛰어난풀옵션원룸,157,157,서울,동작구,empty,만양로6길 19,157,157,157,157,469,470,471,/homeImage/157/01.jpg,/homeImage/157/02.jpg,/homeImage/157/03.jpg,157,/hostImage/37.jpg,1,0,1,1,0,1,0,1,1
6606822a2b9cfb28555564fd,1,1,1,1,1,1,1,1,1,0,1,1,1,1,VL,0,0,1,0,0,0,1,1,0,1,158,임영철,65,01080057433,F,주영식,01045913039,자녀,640508-2952481,xx-xxxxx-xxx,경남,서울 동작구 본동 49-32,45,37.511696,126.955595,USER,귀한원룸  풀옵션원룸으로  입주협의,158,158,서울,동작구,empty,노량진로28길 30,158,158,158,158,472,473,474,/homeImage/158/01.jpg,/homeImage/158/02.jpg,/homeImage/158/03.jpg,158,/hostImage/38.jpg,0,0,0,0,1,2,0,1,0
6606822a2b9cfb28555564fe,1,1,1,1,1,1,1,1,1,0,0,1,1,1,OR,1,1,1,1,1,0,0,0,0,0,159,이정숙,74,01008335770,F,김성훈,01013908873,자녀,170612-2956284,xx-xxxxx-xxx,기업,서울 동작구 대방동 391-315,33,37.501504,126.924261,USER,더블역세권 대방동 원룸,159,159,서울,동작구,empty,대방동27길 81,159,159,159,159,475,476,477,/homeImage/159/01.jpg,/homeImage/159/02.jpg,/homeImage/159/03.jpg,159,/hostImage/39.jpg,1,1,1,0,0,1,1,0,0
6606822a2b9cfb28555564ff,1,1,1,1,1,1,1,0,1,0,0,0,1,1,OR,1,0,1,1,1,0,1,0,1,1,160,이승민,85,01073106451,M,박영일,01008808264,자녀,610607-2333580,xx-xxxxx-xxx,광주,서울 동작구 대방동 20-48,60,37.509296,126.931714,USER,"방이 아주 크고,  깨끗하며 조용한 원룸",160,160,서울,동작구,empty,여의대방로36길 101,160,160,160,160,478,479,480,/homeImage/160/01.jpg,/homeImage/160/02.jpg,/homeImage/160/03.jpg,160,/hostImage/40.jpg,1,1,1,0,1,2,0,0,1
6606822a2b9cfb2855556500,1,1,1,1,1,1,1,0,1,0,0,1,1,1,OR,0,1,0,1,0,1,1,1,1,0,161,이영호,67,01025351139,M,황민서,01047436243,자녀,740900-2571091,xx-xxxxx-xxx,수협,서울 동작구 대방동 391-200,40,37.500476,126.926728,UNAUTHORIZED_MEMBER,실제사진 O｜즉시입주 O｜학교 인근의 조용하고 깨끗한 분리형 원룸,161,161,서울,동작구,empty,대방동1길 8,161,161,161,161,481,482,483,/homeImage/161/01.jpg,/homeImage/161/02.jpg,/homeImage/161/03.jpg,161,/hostImage/41.jpg,1,0,0,1,1,0,1,1,1
6606822a2b9cfb2855556501,1,1,1,1,1,1,1,1,1,0,0,0,1,1,OR,0,1,0,1,0,1,1,0,0,0,162,배성민,76,01021876171,M,박정훈,01015047846,자녀,430520-2026511,xx-xxxxx-xxx,기업,서울 동작구 노량진동 222-46,38,37.509783,126.945991,USER,풀옵션 원룸,162,162,서울,동작구,empty,만양로12길 6,162,162,162,162,484,485,486,/homeImage/162/01.jpg,/homeImage/162/02.jpg,/homeImage/162/03.jpg,162,/hostImage/42.jpg,1,0,0,1,1,0,1,0,0
6606822a2b9cfb2855556502,1,1,1,1,1,1,1,0,1,0,0,1,1,1,OR,0,1,1,1,0,0,1,1,1,1,163,강진우,99,01055796774,F,김현우,01011471685,자녀,240114-2266993,xx-xxxxx-xxx,기업,서울 동작구 상도1동 366-1,52,37.501142,126.950621,USER,"중앙대,숭실대 풀옵션 원룸",163,163,서울,동작구,empty,상도로43길 14,163,163,163,163,487,488,489,/homeImage/163/01.jpg,/homeImage/163/02.jpg,/homeImage/163/03.jpg,163,/hostImage/43.jpg,1,0,0,0,1,2,1,1,1
6606822a2b9cfb2855556503,1,1,1,1,1,1,1,0,1,0,0,0,1,1,OR,0,1,0,0,1,1,1,0,1,1,164,최지우,96,01042512009,M,진은정,01046894480,자녀,770516-1722372,xx-xxxxx-xxx,하나,서울 동작구 상도동 242-75,30,37.501315,126.934875,USER,장승배기역 도보7분 원룸치고 큰방큰방 보증금조절가능 빨리보세요,164,164,서울,동작구,empty,성대로1길 18,164,164,164,164,490,491,492,/homeImage/164/01.jpg,/homeImage/164/02.jpg,/homeImage/164/03.jpg,164,/hostImage/44.jpg,0,1,0,1,1,1,1,0,1
6606822a2b9cfb2855556504,1,1,1,1,1,1,1,0,1,0,0,0,1,1,OR,1,1,0,1,1,1,0,1,0,0,165,윤은영,81,01002884103,M,이순자,01048539396,자녀,570416-1102222,xx-xxxxx-xxx,우체국,서울 동작구 노량진동 123-43,40,37.510443,126.945963,USER,학원가인접한 대로변 치안걱정없는집,165,165,서울,동작구,empty,만양로8길 64,165,165,165,165,493,494,495,/homeImage/165/01.jpg,/homeImage/165/02.jpg,/homeImage/165/03.jpg,165,/hostImage/45.jpg,1,1,1,1,0,0,1,1,0
6606822a2b9cfb2855556505,1,1,1,1,1,1,1,1,1,0,1,1,1,1,DDDGG,1,0,1,1,1,0,1,1,0,1,166,심병철,85,01017300555,F,김상철,01047832772,자녀,170312-1633056,xx-xxxxx-xxx,카카오,서울 동작구 본동 50-40,50,37.510767,126.954717,USER,노들역5분 방2 내부좋습니다,166,166,서울,동작구,empty,노량진로26길 32,166,166,166,166,496,497,498,/homeImage/166/01.jpg,/homeImage/166/02.jpg,/homeImage/166/03.jpg,166,/hostImage/46.jpg,1,1,1,0,1,2,0,1,0
6606822a2b9cfb2855556506,1,1,1,1,1,1,1,1,1,0,0,1,1,1,OR,1,0,1,1,0,0,0,0,1,0,167,이재현,91,01003536693,F,김주원,01088788219,자녀,690716-1156462,xx-xxxxx-xxx,SC제일,서울 동작구 대방동 391-315,33,37.501504,126.924261,UNAUTHORIZED_MEMBER,위치 컨디션 퀄리티 가격 하나도 빼놓을게 없어요,167,167,서울,동작구,empty,대방동27길 81,167,167,167,167,499,500,501,/homeImage/167/01.jpg,/homeImage/167/02.jpg,/homeImage/167/03.jpg,167,/hostImage/47.jpg,1,0,1,0,0,1,0,0,1
6606822a2b9cfb2855556507,1,1,1,1,1,1,1,1,1,0,0,1,1,1,OR,0,0,0,1,0,1,1,0,1,0,168,류지후,70,01012992226,M,이미숙,01009530437,자녀,360728-1794831,xx-xxxxx-xxx,광주,서울 동작구 상도1동 696,35,37.504099,126.948156,USER,O 상도역 역세권 깔끔한 풀옵션 원룸,168,168,서울,동작구,empty,상도로 265,168,168,168,168,502,503,504,/homeImage/168/01.jpg,/homeImage/168/02.jpg,/homeImage/168/03.jpg,168,/hostImage/48.jpg,1,0,0,1,1,0,0,0,1
6606822a2b9cfb2855556508,1,1,1,1,1,1,1,1,1,0,1,1,1,1,VL,0,0,0,1,1,0,1,0,1,1,169,이예지,83,01025086657,M,최서준,01050541649,자녀,540404-1221635,xx-xxxxx-xxx,토스,서울 동작구 본동 49-32,50,37.511696,126.955595,UNAUTHORIZED_MEMBER,2014년식 풀옵션 원룸 내부좋습니다,169,169,서울,동작구,empty,노량진로28길 30,169,169,169,169,505,506,507,/homeImage/169/01.jpg,/homeImage/169/02.jpg,/homeImage/169/03.jpg,169,/hostImage/49.jpg,1,1,0,0,1,1,0,0,1
6606822a2b9cfb2855556509,1,1,1,1,1,1,1,1,1,0,1,1,1,1,OR,1,0,1,1,1,0,1,0,0,0,170,이민수,86,01009720219,F,배정호,01026811913,자녀,400708-2238168,xx-xxxxx-xxx,경남,서울 동작구 본동 49-32,50,37.511696,126.955595,USER,풀옵션으로 2013년식 내부좋습니다 빠른입주가능,170,170,서울,동작구,empty,노량진로28길 30,170,170,170,170,508,509,510,/homeImage/170/01.jpg,/homeImage/170/02.jpg,/homeImage/170/03.jpg,170,/hostImage/50.jpg,1,1,1,0,1,1,0,0,0
6606822a2b9cfb285555650a,1,1,1,1,1,1,1,0,1,0,1,1,1,1,OR,0,1,1,0,1,1,0,0,0,0,171,김아름,98,01059264474,M,이승현,01022793700,자녀,070908-2016408,xx-xxxxx-xxx,우리,서울 동작구 본동 49-38,35,37.511765,126.955285,UNAUTHORIZED_MEMBER,노들역3분 방1 옵션완벽 저렴한시세,171,171,서울,동작구,empty,노량진로28길 16,171,171,171,171,511,512,513,/homeImage/171/01.jpg,/homeImage/171/02.jpg,/homeImage/171/03.jpg,171,/hostImage/51.jpg,0,1,0,1,0,1,1,0,0
6606822a2b9cfb285555650b,1,1,1,1,1,1,1,0,1,0,0,0,1,1,OR,0,1,1,0,0,0,0,1,1,0,172,박수빈,78,01007927023,M,고광수,01098923019,자녀,290507-1662408,xx-xxxxx-xxx,경남,서울 동작구 노량진동 220-11,42,37.508982,126.945225,USER,개방감있는 양창원룸 노량진역세권,172,172,서울,동작구,empty,만양로13길 37,172,172,172,172,514,515,516,/homeImage/172/01.jpg,/homeImage/172/02.jpg,/homeImage/172/03.jpg,172,/hostImage/52.jpg,0,0,0,0,0,1,1,1,1
6606822a2b9cfb285555650c,1,1,1,1,1,1,1,0,1,0,0,0,1,1,OR,1,0,1,1,1,1,0,0,1,0,173,홍지은,100,01073666262,F,오지후,01072681991,자녀,850204-1746888,xx-xxxxx-xxx,SC제일,서울 동작구 노량진동 123-43,48,37.510443,126.945963,USER,노량진.지상층저렴한방.위치좋아안전.편의점인근,173,173,서울,동작구,empty,만양로8길 64,173,173,173,173,517,518,519,/homeImage/173/01.jpg,/homeImage/173/02.jpg,/homeImage/173/03.jpg,173,/hostImage/53.jpg,1,1,1,1,0,1,0,0,1
6606822a2b9cfb285555650d,1,1,1,1,1,1,1,1,1,0,0,1,1,1,OR,0,1,0,0,0,1,1,1,1,1,174,이성훈,82,01096633488,M,서상호,01029077036,자녀,410409-2742269,xx-xxxxx-xxx,기업,서울 동작구 대방동 391-559,50,37.50054,126.924358,USER,실제사진O｜즉시 입주O｜현관보안O｜7호선 이용이 편리한 원룸,174,174,서울,동작구,empty,대방동1길 30,174,174,174,174,520,521,522,/homeImage/174/01.jpg,/homeImage/174/02.jpg,/homeImage/174/03.jpg,174,/hostImage/54.jpg,0,0,0,1,1,1,1,1,1
6606822a2b9cfb285555650e,1,1,1,1,1,1,1,0,1,0,1,1,1,1,DDDGG,1,1,1,1,1,0,1,0,1,1,175,김상현,99,01064102621,M,지미영,01016423822,자녀,150516-2317747,xx-xxxxx-xxx,전북,서울 동작구 본동 50-19,45,37.511402,126.954329,UNAUTHORIZED_MEMBER,방1크고  내부상태 깔끔 도배장판 새로함,175,175,서울,동작구,empty,노량진로26길 16,175,175,175,175,523,524,525,/homeImage/175/01.jpg,/homeImage/175/02.jpg,/homeImage/175/03.jpg,175,/hostImage/55.jpg,1,1,1,0,1,2,1,0,1
6606822a2b9cfb285555650f,1,1,1,1,1,1,1,1,1,0,0,1,1,1,OR,1,0,1,0,0,0,1,0,0,1,176,서성호,93,01095823015,M,김숙자,01026755407,자녀,150606-1766385,xx-xxxxx-xxx,케이,서울 동작구 노량진동 52-35,48,37.512087,126.940868,UNAUTHORIZED_MEMBER,노량진역 도보 2분거리 위치굿 채광 통풍좋고 깨끗한원룸,176,176,서울,동작구,empty,장승배기로28길 16,176,176,176,176,526,527,528,/homeImage/176/01.jpg,/homeImage/176/02.jpg,/homeImage/176/03.jpg,176,/hostImage/56.jpg,0,0,1,0,1,2,0,0,0
6606822a2b9cfb2855556510,1,1,1,1,1,1,1,1,1,0,0,1,1,1,OR,1,1,0,1,0,1,0,1,0,1,177,김병철,95,01016355858,M,이상훈,01018725646,자녀,490322-2303170,xx-xxxxx-xxx,경남,서울 동작구 상도1동 366-1,37,37.501142,126.950621,UNAUTHORIZED_MEMBER,상도역5분 중앙대 숭실대 치안굿 채광굿,177,177,서울,동작구,empty,상도로43길 14,177,177,177,177,529,530,531,/homeImage/177/01.jpg,/homeImage/177/02.jpg,/homeImage/177/03.jpg,177,/hostImage/57.jpg,1,0,1,1,0,1,1,1,0
6606822a2b9cfb2855556511,1,1,1,1,1,1,1,0,1,0,0,0,1,1,OR,0,0,1,1,0,1,1,0,1,1,178,이성현,82,01041963189,M,김정호,01020156521,자녀,350311-2379783,xx-xxxxx-xxx,토스,서울 동작구 노량진동 222-48,38,37.509749,126.945797,USER,2개의 큰창으로 햇빛잘들고 통풍좋으며 조용하고 깨끗한 원룸,178,178,서울,동작구,empty,만양로12길 6,178,178,178,178,532,533,534,/homeImage/178/01.jpg,/homeImage/178/02.jpg,/homeImage/178/03.jpg,178,/hostImage/58.jpg,1,0,0,1,1,2,0,0,1
6606822a2b9cfb2855556512,1,1,1,1,1,1,1,1,1,0,1,1,1,1,DDDGG,0,1,1,1,1,0,1,0,0,1,179,장수빈,81,01004246485,M,박지우,01091203738,자녀,150118-2351109,xx-xxxxx-xxx,농협,서울 동작구 본동 51,40,37.51077,126.955298,USER,풀옵션으로 방 넓고 좋습니다 빠른입주,179,179,서울,동작구,empty,노량진로26길 39,179,179,179,179,535,536,537,/homeImage/179/01.jpg,/homeImage/179/02.jpg,/homeImage/179/03.jpg,179,/hostImage/59.jpg,1,1,0,0,1,2,1,0,0
6606822a2b9cfb2855556513,1,1,1,1,1,1,1,1,1,0,1,0,1,1,OR,0,1,1,0,1,1,0,0,1,0,180,이지혜,73,01031656416,F,김광수,01039211339,자녀,500224-2432735,xx-xxxxx-xxx,경남,서울 동작구 흑석동 207-45,55,37.505682,126.956051,USER,중문 3분 풀옵션 원룸 평지 지상층,180,180,서울,동작구,empty,흑석로6길 34,180,180,180,180,538,539,540,/homeImage/180/01.jpg,/homeImage/180/02.jpg,/homeImage/180/03.jpg,180,/hostImage/60.jpg,0,1,0,1,0,1,1,0,1
6606822a2b9cfb2855556514,1,1,1,1,1,1,1,1,1,0,0,0,1,1,OR,1,1,0,1,0,0,0,0,1,1,181,박경수,82,01071151183,F,권우진,01022159588,자녀,910723-2647457,xx-xxxxx-xxx,경남,서울 동작구 노량진동 218-58,38,37.508545,126.94638,USER,실2층. 리모델링원룸. 깨끗하게 관리잘되는집.,181,181,서울,동작구,empty,만양로11길 3,181,181,181,181,541,542,543,/homeImage/181/01.jpg,/homeImage/181/02.jpg,/homeImage/181/03.jpg,181,/hostImage/61.jpg,1,0,1,0,0,1,1,0,1
6606822a2b9cfb2855556515,1,1,1,1,1,1,1,0,1,0,0,1,1,1,OR,0,0,1,0,1,1,1,1,0,0,182,김지원,95,01065068040,F,김준호,01047673657,자녀,780807-1536960,xx-xxxxx-xxx,국민,서울 동작구 노량진동 262-4,45,37.512337,126.936131,UNAUTHORIZED_MEMBER,"진짜 깔끔한 꿀매물,  가격도 저렴해요",182,182,서울,동작구,empty,노량진로8가길 20,182,182,182,182,544,545,546,/homeImage/182/01.jpg,/homeImage/182/02.jpg,/homeImage/182/03.jpg,182,/hostImage/62.jpg,0,1,0,1,1,1,0,1,0
6606822a2b9cfb2855556516,1,1,1,1,1,1,1,1,1,0,0,1,1,1,OR,1,0,0,1,1,1,1,0,1,1,183,김정훈,72,01097004916,M,김명자,01051007378,자녀,190821-2403469,xx-xxxxx-xxx,신한,서울 동작구 대방동 391-315,40,37.501504,126.924261,UNAUTHORIZED_MEMBER,대로변 평지 정남향 채광까지 좋은 원룸,183,183,서울,동작구,empty,대방동27길 81,183,183,183,183,547,548,549,/homeImage/183/01.jpg,/homeImage/183/02.jpg,/homeImage/183/03.jpg,183,/hostImage/63.jpg,1,1,1,1,1,1,0,0,1
6606822a2b9cfb2855556517,1,1,1,1,1,1,1,0,1,0,0,1,1,1,DDDGG,0,1,1,0,1,1,1,1,1,1,184,김성훈,66,01081624973,F,한현지,01017381063,자녀,010311-1671237,xx-xxxxx-xxx,국민,서울 동작구 대방동 344-26,40,37.511294,126.926343,USER,"1호선 대방역 초초역세권, 샛강역 도보 15분, 풀옵션, 직장인 추천",184,184,서울,동작구,empty,여의대방로46길 34,184,184,184,184,550,551,552,/homeImage/184/01.jpg,/homeImage/184/02.jpg,/homeImage/184/03.jpg,184,/hostImage/64.jpg,0,1,0,1,1,2,1,1,1
6606822a2b9cfb2855556518,1,1,1,1,1,1,1,1,1,0,0,0,1,1,OR,1,1,1,0,1,1,1,1,1,0,185,이시우,94,01010186834,F,이아름,01084894780,자녀,850816-2753777,xx-xxxxx-xxx,케이,서울 동작구 상도동 464-5,60,37.500217,126.952386,UNAUTHORIZED_MEMBER,융자없는집. 엘베있는집. 리모델링완료. 화이트톤넓은집,185,185,서울,동작구,empty,상도로47나길 4,185,185,185,185,553,554,555,/homeImage/185/01.jpg,/homeImage/185/02.jpg,/homeImage/185/03.jpg,185,/hostImage/65.jpg,0,1,1,1,1,1,1,1,1
6606822a2b9cfb2855556519,1,1,1,1,1,1,1,1,1,0,0,1,1,1,OR,0,1,0,0,1,1,1,1,0,0,186,최건우,69,01081767244,M,이준호,01035852697,자녀,040205-1674416,xx-xxxxx-xxx,광주,서울 동작구 상도동 361-101,40,37.503849,126.934701,USER,7호선 장승배기역 도보5분 원룸,186,186,서울,동작구,empty,상도로15아길 11,186,186,186,186,556,557,558,/homeImage/186/01.jpg,/homeImage/186/02.jpg,/homeImage/186/03.jpg,186,/hostImage/66.jpg,0,1,0,1,1,0,1,1,0
6606822a2b9cfb285555651a,1,1,1,1,1,1,1,0,1,0,0,1,1,1,DDDGG,0,0,1,1,1,0,1,0,1,0,187,이서현,67,01059108767,F,김예준,01029948446,자녀,190919-2306609,xx-xxxxx-xxx,SC제일,서울 동작구 대방동 344-26,40,37.511294,126.926343,UNAUTHORIZED_MEMBER,"1호선 대방역 초초역세권, 샛강역 도보 15분, 풀옵션, 직장인 추천",187,187,서울,동작구,empty,여의대방로46길 34,187,187,187,187,559,560,561,/homeImage/187/01.jpg,/homeImage/187/02.jpg,/homeImage/187/03.jpg,187,/hostImage/67.jpg,1,1,0,0,1,1,0,0,1
6606822a2b9cfb285555651b,1,1,1,1,1,1,1,1,1,0,0,0,1,1,OR,1,0,0,0,1,0,0,1,1,0,188,박수민,85,01043856234,F,이민수,01066210986,자녀,330021-1335682,xx-xxxxx-xxx,기업,서울 동작구 흑석동 201-27,60,37.508188,126.95698,USER,신축원룸 중앙대3분거리 중대병원5분거리 흑석역8분거리 저렴한원룸,188,188,서울,동작구,empty,흑석로5길 36,188,188,188,188,562,563,564,/homeImage/188/01.jpg,/homeImage/188/02.jpg,/homeImage/188/03.jpg,188,/hostImage/68.jpg,0,1,1,0,0,0,0,1,1
6606822a2b9cfb285555651c,1,1,1,1,1,1,1,1,1,0,0,1,1,1,OR,0,1,0,0,1,1,0,1,1,0,189,차정식,72,01020830428,F,김예준,01020988650,자녀,260413-1294923,xx-xxxxx-xxx,부산,서울 동작구 상도동 17-51,49,37.506221,126.948326,USER,신축5년된 풀옵션원룸으로 조용하고 깨끗하며 전세가능,189,189,서울,동작구,empty,만양로 20,189,189,189,189,565,566,567,/homeImage/189/01.jpg,/homeImage/189/02.jpg,/homeImage/189/03.jpg,189,/hostImage/69.jpg,0,1,0,1,0,0,1,1,1
6606822a2b9cfb285555651d,1,1,1,1,1,1,1,0,1,0,0,0,1,1,OR,0,1,1,1,0,1,1,1,0,0,190,강영진,81,01042041516,F,윤명숙,01035678170,자녀,130211-2717953,xx-xxxxx-xxx,씨티,서울 동작구 노량진동 218-60,40,37.50842,126.946562,UNAUTHORIZED_MEMBER,남동향 남서향 2개의 큰창으로 햇빛 잘들고 가격이 정말 저렴한 원룸,190,190,서울,동작구,empty,만양로 51,190,190,190,190,568,569,570,/homeImage/190/01.jpg,/homeImage/190/02.jpg,/homeImage/190/03.jpg,190,/hostImage/70.jpg,1,0,0,1,1,1,1,1,0
6606822a2b9cfb285555651e,1,1,1,1,1,1,1,1,1,0,0,0,1,1,OR,0,0,1,1,0,0,0,0,1,1,191,고승현,76,01010942976,M,이영자,01059857465,자녀,580611-2418600,xx-xxxxx-xxx,산업,서울 동작구 노량진동 222-46,40,37.509783,126.945991,UNAUTHORIZED_MEMBER,학원가 관리잘된 원룸,191,191,서울,동작구,empty,만양로12길 6,191,191,191,191,571,572,573,/homeImage/191/01.jpg,/homeImage/191/02.jpg,/homeImage/191/03.jpg,191,/hostImage/71.jpg,1,0,0,0,0,2,0,0,1
6606822a2b9cfb285555651f,1,1,1,1,1,1,1,1,1,0,1,0,1,1,OR,1,0,1,1,0,0,1,0,0,0,192,허진호,89,01094658474,M,김영희,01070091452,자녀,030229-2145776,xx-xxxxx-xxx,제주,서울 동작구 노량진동 215-107,35,37.508535,126.947478,UNAUTHORIZED_MEMBER,깨끗한준신축. 보안좋고 관리잘되는집. 안심대로변,192,192,서울,동작구,empty,만양로6길 10,192,192,192,192,574,575,576,/homeImage/192/01.jpg,/homeImage/192/02.jpg,/homeImage/192/03.jpg,192,/hostImage/72.jpg,1,0,1,0,1,1,0,0,0
6606822a2b9cfb2855556520,1,1,1,1,1,1,1,1,1,0,0,1,1,1,OR,0,0,1,0,0,0,1,0,1,0,193,김재호,72,01066598307,M,김시우,01002298186,자녀,040125-1904478,xx-xxxxx-xxx,우리,서울 동작구 노량진동 256-60,40,37.512146,126.937809,USER,안심추천.깔끔.풀옵션.가성비굿.,193,193,서울,동작구,empty,노량진로10길 27,193,193,193,193,577,578,579,/homeImage/193/01.jpg,/homeImage/193/02.jpg,/homeImage/193/03.jpg,193,/hostImage/73.jpg,0,0,0,0,1,1,0,0,1
6606822a2b9cfb2855556521,1,1,1,1,1,1,1,0,1,0,0,1,1,1,OR,0,1,0,1,0,1,1,0,1,0,194,이경자,75,01032943097,M,김상호,01056333054,자녀,230206-1089933,xx-xxxxx-xxx,농협,서울 동작구 노량진동 119-176,48,37.511609,126.944829,UNAUTHORIZED_MEMBER,신축4년차 보안 잘 되어 있는 원룸 월세,194,194,서울,동작구,empty,만양로16길 6,194,194,194,194,580,581,582,/homeImage/194/01.jpg,/homeImage/194/02.jpg,/homeImage/194/03.jpg,194,/hostImage/74.jpg,1,0,0,1,1,0,1,0,1
6606822a2b9cfb2855556522,1,1,1,1,1,1,1,1,1,0,0,1,1,1,OR,1,0,1,0,0,1,0,0,0,0,195,박경자,71,01021990999,M,류정식,01014163433,자녀,310009-2897182,xx-xxxxx-xxx,우체국,서울 동작구 상도1동 366-1,52,37.501142,126.950621,UNAUTHORIZED_MEMBER,융자없는집. 상도역4분. 중앙대숭실대. 편의시설밀집. 안전한위치,195,195,서울,동작구,empty,상도로43길 14,195,195,195,195,583,584,585,/homeImage/195/01.jpg,/homeImage/195/02.jpg,/homeImage/195/03.jpg,195,/hostImage/75.jpg,0,0,1,1,0,1,0,0,0
6606822a2b9cfb2855556523,1,1,1,0,0,1,0,1,0,0,0,1,1,0,OR,0,1,0,1,0,1,1,1,1,0,196,박상철,84,01099716337,M,손은지,01054169239,자녀,180912-2780881,xx-xxxxx-xxx,경남,서울 동작구 상도동 247-6,50,37.500102,126.933507,UNAUTHORIZED_MEMBER,empty,196,196,서울,동작구,empty,성대로3길 8,196,196,196,196,586,587,588,/homeImage/196/01.jpg,/homeImage/196/02.jpg,/homeImage/196/03.jpg,196,/hostImage/76.jpg,1,0,0,1,1,0,1,1,1
6606822a2b9cfb2855556524,1,1,1,1,1,1,1,0,1,0,0,1,1,1,DDDGG,0,1,0,1,0,0,1,1,0,1,197,박지훈,92,01062516539,F,이현준,01076466344,자녀,060525-1857775,xx-xxxxx-xxx,제주,서울 동작구 대방동 344-26,30,37.511294,126.926343,UNAUTHORIZED_MEMBER,"1호선 대방역 초초역세권, 샛강역 도보 15분, 풀옵션, 직장인 추천",197,197,서울,동작구,empty,여의대방로46길 34,197,197,197,197,589,590,591,/homeImage/197/01.jpg,/homeImage/197/02.jpg,/homeImage/197/03.jpg,197,/hostImage/77.jpg,1,0,0,0,1,1,1,1,0
6606822a2b9cfb2855556525,1,1,1,1,1,1,1,1,1,0,0,1,1,1,OR,0,1,1,1,0,1,0,1,0,1,198,김정희,95,01047150464,F,이정자,01090005801,자녀,740328-1374457,xx-xxxxx-xxx,우체국,서울 동작구 노량진동 87-14,42,37.512428,126.94346,USER,노량진역 도보 3분거리 신축4년차 원룸,198,198,서울,동작구,empty,노량진로14나길 5,198,198,198,198,592,593,594,/homeImage/198/01.jpg,/homeImage/198/02.jpg,/homeImage/198/03.jpg,198,/hostImage/78.jpg,1,0,0,1,0,2,1,1,0
6606822a2b9cfb2855556526,1,1,1,1,1,1,1,1,1,0,0,1,1,1,DDDGG,0,1,0,0,1,0,1,0,1,0,199,최민서,77,01071998025,F,엄도윤,01078747848,자녀,270117-1637009,xx-xxxxx-xxx,산업,서울 동작구 대방동 344-26,30,37.511294,126.926343,USER,"1호선 대방역 초초역세권, 샛강역 도보 15분, 풀옵션, 직장인 추천",199,199,서울,동작구,empty,여의대방로46길 34,199,199,199,199,595,596,597,/homeImage/199/01.jpg,/homeImage/199/02.jpg,/homeImage/199/03.jpg,199,/hostImage/79.jpg,0,1,0,0,1,0,1,0,1
6606822a2b9cfb2855556527,1,1,1,1,1,1,1,0,1,0,1,0,1,1,OR,1,1,0,0,1,0,1,0,0,0,200,최미경,83,01069354456,F,문병철,01024169827,자녀,990107-1056410,xx-xxxxx-xxx,수협,서울 동작구 상도동 464-5,60,37.500217,126.952386,UNAUTHORIZED_MEMBER,중대숭실대 오픈형 엘베유 주택가메인도로 위치,200,200,서울,동작구,empty,상도로47나길 4,200,200,200,200,598,599,600,/homeImage/200/01.jpg,/homeImage/200/02.jpg,/homeImage/200/03.jpg,200,/hostImage/80.jpg,0,1,1,0,1,0,1,0,0
6606822a2b9cfb2855556528,1,1,1,1,1,1,1,0,1,0,0,1,1,1,DDDGG,1,0,1,1,1,0,1,0,0,0,201,장영일,65,01097475892,F,최재현,01001500019,자녀,250723-2872563,xx-xxxxx-xxx,카카오,서울 동작구 대방동 344-26,40,37.511294,126.926343,UNAUTHORIZED_MEMBER,"1호선 대방역 초초역세권, 샛강역 도보 15분, 풀옵션, 직장인 추천",201,201,서울,동작구,empty,여의대방로46길 34,201,201,201,201,601,602,603,/homeImage/201/01.jpg,/homeImage/201/02.jpg,/homeImage/201/03.jpg,201,/hostImage/81.jpg,1,1,1,0,1,1,0,0,0
6606822a2b9cfb2855556529,1,1,1,1,1,1,1,0,1,0,0,1,1,1,DDDGG,1,1,0,0,0,1,1,1,0,0,202,홍영환,86,01041131025,F,김숙자,01014901681,자녀,210116-2672037,xx-xxxxx-xxx,기업,서울 동작구 대방동 344-26,40,37.511294,126.926343,USER,"1호선 대방역 초초역세권, 샛강역 도보 15분, 풀옵션, 직장인 추천",202,202,서울,동작구,empty,여의대방로46길 34,202,202,202,202,604,605,606,/homeImage/202/01.jpg,/homeImage/202/02.jpg,/homeImage/202/03.jpg,202,/hostImage/82.jpg,0,0,1,1,1,0,1,1,0
6606822a2b9cfb285555652a,1,1,1,1,1,1,1,1,1,0,0,1,1,1,DDDGG,1,1,1,1,0,0,1,0,1,1,203,남성진,87,01095156532,M,김영길,01011432941,자녀,950128-2567964,xx-xxxxx-xxx,신한,서울 동작구 노량진동 246-34,60,37.511026,126.938933,UNAUTHORIZED_MEMBER,노량진역 초역세권 도보 3분,203,203,서울,동작구,empty,장승배기로27길 30,203,203,203,203,607,608,609,/homeImage/203/01.jpg,/homeImage/203/02.jpg,/homeImage/203/03.jpg,203,/hostImage/83.jpg,1,0,1,0,1,2,1,0,1
6606822a2b9cfb285555652b,1,1,1,1,1,1,1,0,1,0,1,0,1,1,OR,1,1,1,0,0,1,0,0,0,1,204,류정웅,99,01049291977,F,김상철,01041571709,자녀,630918-2092365,xx-xxxxx-xxx,기업,서울 동작구 노량진동 215-115,27,37.508692,126.947129,UNAUTHORIZED_MEMBER,깨끗하고 조용한데 가격이 고시텔보다 저렴한 원룸,204,204,서울,동작구,empty,만양로6길 15,204,204,204,204,610,611,612,/homeImage/204/01.jpg,/homeImage/204/02.jpg,/homeImage/204/03.jpg,204,/hostImage/84.jpg,0,0,1,1,0,2,1,0,0
6606822a2b9cfb285555652c,1,1,1,1,1,1,1,1,1,0,1,0,1,1,OR,0,1,0,0,0,0,1,0,0,0,205,김준서,80,01031852504,M,최은정,01029097216,자녀,430721-1116711,xx-xxxxx-xxx,국민,서울 동작구 흑석동 213-1,60,37.50547,126.955937,USER,"중앙대 중문 30초거리 깔끔한 원룸, 젠틀 임대인 원하는거 다 들어줌",205,205,서울,동작구,empty,흑석로6길 31,205,205,205,205,613,614,615,/homeImage/205/01.jpg,/homeImage/205/02.jpg,/homeImage/205/03.jpg,205,/hostImage/85.jpg,0,0,0,0,1,0,1,0,0
6606822a2b9cfb285555652d,1,1,1,1,1,1,1,1,1,0,0,1,1,1,OR,0,1,1,0,0,1,0,0,1,0,206,이영환,71,01004660993,M,이미정,01073733779,자녀,050215-1793645,xx-xxxxx-xxx,카카오,서울 동작구 노량진동 119-149,33,37.511573,126.945076,UNAUTHORIZED_MEMBER,풀옵션입니다 단기가능합니다,206,206,서울,동작구,empty,만양로14길 13,206,206,206,206,616,617,618,/homeImage/206/01.jpg,/homeImage/206/02.jpg,/homeImage/206/03.jpg,206,/hostImage/86.jpg,0,0,0,1,0,1,1,0,1
6606822a2b9cfb285555652e,1,1,1,1,1,1,1,0,1,0,1,1,1,1,OR,0,1,0,1,1,0,1,1,1,1,207,김진우,91,01003857536,F,김건우,01031334128,자녀,650621-2646988,xx-xxxxx-xxx,경남,서울 동작구 상도동 358-7,50,37.503765,126.935998,USER,7호선 역세권 풀옵션 원룸 무료주차 선착순,207,207,서울,동작구,empty,상도로19길 39,207,207,207,207,619,620,621,/homeImage/207/01.jpg,/homeImage/207/02.jpg,/homeImage/207/03.jpg,207,/hostImage/87.jpg,1,1,0,0,1,1,1,1,1
6606822a2b9cfb285555652f,1,1,1,1,1,1,1,0,1,0,0,1,1,1,OR,0,1,0,1,1,1,0,1,0,1,208,이영숙,90,01004383642,M,김정남,01051182123,자녀,250120-1160499,xx-xxxxx-xxx,국민,서울 동작구 노량진동 127-11,35,37.512498,126.946252,USER,가성비굿 위치좋고 컨디션 좋은 리모델링 귀한 매물,208,208,서울,동작구,empty,만양로14길 39,208,208,208,208,622,623,624,/homeImage/208/01.jpg,/homeImage/208/02.jpg,/homeImage/208/03.jpg,208,/hostImage/88.jpg,1,1,0,1,0,1,1,1,0
6606822a2b9cfb2855556530,1,1,1,1,1,1,1,0,1,0,0,1,1,1,OR,1,0,0,1,0,0,0,1,0,1,209,안경자,78,01097732710,M,류미영,01054749566,자녀,530018-1237188,xx-xxxxx-xxx,국민,서울 동작구 상도1동 428-13,45,37.501948,126.950379,USER,2016년 사용승인 잘 관리된 넓고 깔끔한 풀옵션 대로변 편의시설 인접,209,209,서울,동작구,empty,상도로41길 22,209,209,209,209,625,626,627,/homeImage/209/01.jpg,/homeImage/209/02.jpg,/homeImage/209/03.jpg,209,/hostImage/89.jpg,1,0,1,0,0,1,0,1,0
6606822a2b9cfb2855556531,1,1,1,1,1,1,1,0,1,0,0,0,1,1,OR,0,0,1,0,1,1,1,0,1,0,210,신현주,82,01066804370,F,오순자,01087845405,자녀,920916-1193450,xx-xxxxx-xxx,농협,서울 동작구 노량진동 220-29,34,37.509222,126.945285,USER,융자없는집. 학원가3분. 가성비좋은방,210,210,서울,동작구,empty,만양로 67,210,210,210,210,628,629,630,/homeImage/210/01.jpg,/homeImage/210/02.jpg,/homeImage/210/03.jpg,210,/hostImage/90.jpg,0,1,0,1,1,1,0,0,1
6606822a2b9cfb2855556532,1,1,1,1,1,1,1,0,1,0,0,1,1,1,OR,1,1,1,1,1,0,0,1,1,1,211,황지우,90,01005819963,M,양우진,01009303646,자녀,890722-2570134,xx-xxxxx-xxx,우리,서울 동작구 상도동 361-141,40,37.504976,126.935138,USER,장승배기역 역세권 엘베있는 초저렴 원룸,211,211,서울,동작구,empty,상도로15바길 26,211,211,211,211,631,632,633,/homeImage/211/01.jpg,/homeImage/211/02.jpg,/homeImage/211/03.jpg,211,/hostImage/91.jpg,1,1,1,0,0,2,1,1,1
6606822a2b9cfb2855556533,1,1,1,1,1,1,1,0,1,0,0,1,1,1,OR,1,1,1,1,0,0,1,1,0,0,212,류정순,71,01053820239,F,서상훈,01036001491,자녀,220017-1996485,xx-xxxxx-xxx,씨티,서울 동작구 상도동 361-101,40,37.503849,126.934701,UNAUTHORIZED_MEMBER,장승배기역 도보 5분거리 이용 가능 언제 든지 입주협의 가능 밝고환해요,212,212,서울,동작구,empty,상도로15아길 11,212,212,212,212,634,635,636,/homeImage/212/01.jpg,/homeImage/212/02.jpg,/homeImage/212/03.jpg,212,/hostImage/92.jpg,1,0,1,0,1,1,1,1,0
6606822a2b9cfb2855556534,1,1,1,1,1,1,1,0,1,0,1,0,1,1,OR,1,1,0,1,1,0,1,0,0,1,213,장광수,96,01006784414,M,박예은,01055821866,자녀,120526-1096415,xx-xxxxx-xxx,수협,서울 동작구 상도동 243-19,45,37.500712,126.934578,USER,"L신대방삼거리역, 장승배기역 도보권 극강 원룸",213,213,서울,동작구,empty,성대로29길 122,213,213,213,213,637,638,639,/homeImage/213/01.jpg,/homeImage/213/02.jpg,/homeImage/213/03.jpg,213,/hostImage/93.jpg,1,1,1,0,1,1,1,0,0
6606822a2b9cfb2855556535,1,1,1,1,1,1,1,0,1,0,0,1,1,1,OR,0,1,1,1,0,0,1,0,1,0,214,오지연,91,01030501987,F,강민서,01007003569,자녀,470909-2013031,xx-xxxxx-xxx,대구,서울 동작구 노량진동 119-146,48,37.511739,126.945052,USER,노량진 학원가 큰 원룸 실6P 내부시설 좋음 빠른입주 가능,214,214,서울,동작구,empty,만양로16길 31,214,214,214,214,640,641,642,/homeImage/214/01.jpg,/homeImage/214/02.jpg,/homeImage/214/03.jpg,214,/hostImage/94.jpg,1,0,0,0,1,1,1,0,1
6606822a2b9cfb2855556536,1,1,1,1,1,1,1,1,1,0,0,0,1,1,OR,1,1,0,1,1,1,1,0,0,0,215,김종수,69,01039157444,M,김준서,01056528738,자녀,850104-1911378,xx-xxxxx-xxx,농협,서울 동작구 상도1동 483-1,60,37.503738,126.951926,USER,중앙대5분 남학생전용 신축급컨디션 풀옵션 원룸입니다.,215,215,서울,동작구,empty,상도로47길 102,215,215,215,215,643,644,645,/homeImage/215/01.jpg,/homeImage/215/02.jpg,/homeImage/215/03.jpg,215,/hostImage/95.jpg,1,1,1,1,1,0,1,0,0
6606822a2b9cfb2855556537,1,1,1,1,1,1,1,0,1,0,0,0,1,1,OR,1,1,1,1,0,0,0,1,0,0,216,김미영,83,01039170572,M,손지영,01003827519,자녀,110618-1321555,xx-xxxxx-xxx,제주,서울 동작구 대방동 20-48,43,37.509296,126.931714,UNAUTHORIZED_MEMBER,대방역도보10분 리모델링완료 옵션최고 넓은원룸 가성비최고,216,216,서울,동작구,empty,여의대방로36길 101,216,216,216,216,646,647,648,/homeImage/216/01.jpg,/homeImage/216/02.jpg,/homeImage/216/03.jpg,216,/hostImage/96.jpg,1,0,1,0,0,1,1,1,0
6606822a2b9cfb2855556538,1,1,1,1,1,1,1,0,1,0,0,1,1,1,OR,0,0,0,0,0,0,1,1,1,1,217,박정호,85,01083203862,F,류영식,01019624651,자녀,020822-2192598,xx-xxxxx-xxx,신한,서울 동작구 상도1동 428-13,45,37.501948,126.950379,USER,상도역 큰대로변 깔끔한 신축급 원룸,217,217,서울,동작구,empty,상도로41길 22,217,217,217,217,649,650,651,/homeImage/217/01.jpg,/homeImage/217/02.jpg,/homeImage/217/03.jpg,217,/hostImage/97.jpg,0,0,0,0,1,1,0,1,1
6606822a2b9cfb2855556539,1,1,1,1,1,1,1,0,1,0,0,0,1,1,OR,0,0,0,1,1,0,1,1,0,0,218,박지원,69,01025532705,M,김준서,01032587621,자녀,460319-1817034,xx-xxxxx-xxx,국민,서울 동작구 노량진동 215-108,43,37.508459,126.947545,UNAUTHORIZED_MEMBER,깔끔한 풀옵션 원룸,218,218,서울,동작구,empty,만양로6길 8,218,218,218,218,652,653,654,/homeImage/218/01.jpg,/homeImage/218/02.jpg,/homeImage/218/03.jpg,218,/hostImage/98.jpg,1,1,0,0,1,0,0,1,0
6606822a2b9cfb285555653a,1,1,1,1,1,1,1,1,1,0,0,0,1,1,OR,1,0,1,1,1,0,0,1,0,1,219,박주원,84,01004186444,F,김동현,01087699526,자녀,510521-2768844,xx-xxxxx-xxx,부산,서울 동작구 상도동 464-5,60,37.500217,126.952386,UNAUTHORIZED_MEMBER,융자없고 깔끔수리된 엘베있는 풀옵션 원룸입니다.,219,219,서울,동작구,empty,상도로47나길 4,219,219,219,219,655,656,657,/homeImage/219/01.jpg,/homeImage/219/02.jpg,/homeImage/219/03.jpg,219,/hostImage/99.jpg,1,1,1,0,0,2,0,1,0
6606822a2b9cfb285555653b,1,1,1,1,1,1,1,0,1,0,0,0,1,1,OR,0,0,1,0,0,1,0,1,0,0,220,황동현,100,01022575964,M,김지현,01080060884,자녀,560208-1881201,xx-xxxxx-xxx,씨티,서울 동작구 대방동 20-48,38,37.509296,126.931714,USER,대방역도보10분 리모델링완료 옵션최고 넓은원룸 가성비최고,220,220,서울,동작구,empty,여의대방로36길 101,220,220,220,220,658,659,660,/homeImage/220/01.jpg,/homeImage/220/02.jpg,/homeImage/220/03.jpg,220,/hostImage/100.jpg,0,0,0,1,0,1,0,1,0
6606822a2b9cfb285555653c,1,1,1,1,1,1,1,1,1,0,0,1,1,1,OR,1,1,1,1,0,1,1,1,1,0,221,박준서,78,01091810524,M,김정웅,01008887283,자녀,360312-1357718,xx-xxxxx-xxx,우체국,서울 동작구 노량진동 119-241,33,37.511688,126.943687,UNAUTHORIZED_MEMBER,"공실, 학원가 인근,신축급 깨끗한 풀옵션 원룸",221,221,서울,동작구,empty,노량진로14나길 19,221,221,221,221,661,662,663,/homeImage/221/01.jpg,/homeImage/221/02.jpg,/homeImage/221/03.jpg,221,/hostImage/101.jpg,1,0,1,1,1,1,1,1,1
6606822a2b9cfb285555653d,1,1,1,1,1,1,1,0,1,0,0,0,1,1,OR,1,0,1,0,1,1,1,0,0,1,222,박우진,99,01073891096,F,이영미,01047705992,자녀,790303-1134150,xx-xxxxx-xxx,국민,서울 동작구 노량진동 205-259,37,37.511523,126.947336,USER,가성비최고 크기좋고 관리잘 된 풀옵션 원룸,222,222,서울,동작구,empty,만양로14사길 20,222,222,222,222,664,665,666,/homeImage/222/01.jpg,/homeImage/222/02.jpg,/homeImage/222/03.jpg,222,/hostImage/102.jpg,0,1,1,1,1,2,0,0,0
6606822a2b9cfb285555653e,1,1,1,1,1,1,1,0,1,0,1,1,1,1,OR,0,0,1,1,0,0,1,1,0,1,223,김예은,89,01094912379,M,심영희,01033633555,자녀,560823-1856756,xx-xxxxx-xxx,하나,서울 동작구 상도동 331-86,30,37.501755,126.932957,UNAUTHORIZED_MEMBER,"L신대방삼거리역, 장승배기역 도보권 극강 원룸",223,223,서울,동작구,empty,상도로15나길 3,223,223,223,223,667,668,669,/homeImage/223/01.jpg,/homeImage/223/02.jpg,/homeImage/223/03.jpg,223,/hostImage/103.jpg,1,0,0,0,1,2,0,1,0
6606822a2b9cfb285555653f,1,1,1,1,1,1,1,0,1,0,1,0,1,1,OR,1,1,0,0,1,0,1,1,0,1,224,박영희,77,01073673574,F,최아름,01033939102,자녀,390221-2138893,xx-xxxxx-xxx,토스,서울 동작구 노량진동 215-100,30,37.508848,126.947218,USER,실1층 지상층. 금액좋은방. 학원가7분. 관리잘되는집,224,224,서울,동작구,empty,만양로6길 18,224,224,224,224,670,671,672,/homeImage/224/01.jpg,/homeImage/224/02.jpg,/homeImage/224/03.jpg,224,/hostImage/104.jpg,0,1,1,0,1,1,1,1,0
6606822a2b9cfb2855556540,1,1,1,1,1,1,1,0,1,0,1,0,1,1,OR,0,1,1,1,0,1,1,1,0,1,225,김정희,74,01003322316,F,배서현,01010484550,자녀,600501-1426824,xx-xxxxx-xxx,기업,서울 동작구 노량진동 219-34,44,37.508563,126.946556,UNAUTHORIZED_MEMBER,실제면적 훨씬 넓고 앞이 틔여있어 채광좋고 깨끗한 도시형생활주택,225,225,서울,동작구,empty,만양로 51,225,225,225,225,673,674,675,/homeImage/225/01.jpg,/homeImage/225/02.jpg,/homeImage/225/03.jpg,225,/hostImage/105.jpg,1,0,0,1,1,2,1,1,0
6606822a2b9cfb2855556541,1,1,1,1,1,1,1,1,1,0,0,0,1,1,DDDGG,0,1,1,1,0,1,0,1,0,1,226,이옥자,68,01097754778,M,최서윤,01095976982,자녀,140518-2707631,xx-xxxxx-xxx,케이,서울 동작구 대방동 20-48,38,37.509296,126.931714,USER,대방역도보10분 리모델링완료 옵션최고 넓은원룸 가성비최고,226,226,서울,동작구,empty,여의대방로36길 101,226,226,226,226,676,677,678,/homeImage/226/01.jpg,/homeImage/226/02.jpg,/homeImage/226/03.jpg,226,/hostImage/106.jpg,1,0,0,1,0,2,1,1,0
6606822a2b9cfb2855556542,1,1,1,1,1,1,1,0,1,0,1,0,1,1,OR,0,1,1,1,0,0,0,0,0,0,227,김춘자,81,01043981777,F,남민지,01014611861,자녀,300807-1143324,xx-xxxxx-xxx,우체국,서울 동작구 노량진동 215-115,45,37.508692,126.947129,UNAUTHORIZED_MEMBER,방크고  깨끗하며 채광좋고 조용한  원룸,227,227,서울,동작구,empty,만양로6길 15,227,227,227,227,679,680,681,/homeImage/227/01.jpg,/homeImage/227/02.jpg,/homeImage/227/03.jpg,227,/hostImage/107.jpg,1,0,0,0,0,1,1,0,0
6606822a2b9cfb2855556543,1,1,1,1,1,1,1,0,1,0,0,0,1,1,OR,1,1,0,1,0,0,1,1,0,0,228,김예원,99,01008739074,M,우정웅,01090284375,자녀,770218-1456962,xx-xxxxx-xxx,하나,서울 동작구 대방동 20-48,43,37.509296,126.931714,USER,돌침대옵션 리모델링 사이즈좋은 원룸 즉시입주,228,228,서울,동작구,empty,여의대방로36길 101,228,228,228,228,682,683,684,/homeImage/228/01.jpg,/homeImage/228/02.jpg,/homeImage/228/03.jpg,228,/hostImage/108.jpg,1,0,1,0,1,0,1,1,0
6606822a2b9cfb2855556544,1,1,1,1,1,1,1,0,1,0,0,1,1,1,OR,0,1,0,1,1,0,0,1,1,1,229,김영길,70,01094516770,F,이지혜,01079622898,자녀,750005-2197845,xx-xxxxx-xxx,토스,서울 동작구 상도1동 696,45,37.504099,126.948156,USER,상도역1분.관리인상주해 안전.채광좋아요.안심대로변,229,229,서울,동작구,empty,상도로 265,229,229,229,229,685,686,687,/homeImage/229/01.jpg,/homeImage/229/02.jpg,/homeImage/229/03.jpg,229,/hostImage/109.jpg,1,1,0,0,0,1,1,1,1
6606822a2b9cfb2855556545,1,1,1,1,1,1,1,0,1,0,0,0,1,1,OR,1,1,1,1,1,0,0,1,0,0,230,배경자,81,01036119509,M,김정숙,01082229503,자녀,590020-1760155,xx-xxxxx-xxx,국민,서울 동작구 대방동 20-89,43,37.509193,126.931516,UNAUTHORIZED_MEMBER,따뜻하고 조용한 방,230,230,서울,동작구,empty,여의대방로36길 101,230,230,230,230,688,689,690,/homeImage/230/01.jpg,/homeImage/230/02.jpg,/homeImage/230/03.jpg,230,/hostImage/110.jpg,1,1,1,0,0,1,1,1,0
6606822a2b9cfb2855556546,1,1,1,1,1,1,1,0,1,0,0,1,1,1,OR,1,1,0,0,0,0,0,0,0,0,231,이영호,65,01001700948,M,홍지민,01071492260,자녀,980714-1903457,xx-xxxxx-xxx,국민,서울 동작구 상도1동 428-13,45,37.501948,126.950379,USER,단기가능.상도역신축원룸. 안전한 대로변. 중대.숭대 통학가능.,231,231,서울,동작구,empty,상도로41길 22,231,231,231,231,691,692,693,/homeImage/231/01.jpg,/homeImage/231/02.jpg,/homeImage/231/03.jpg,231,/hostImage/111.jpg,0,0,1,0,0,0,1,0,0
6606822a2b9cfb2855556547,1,1,1,1,1,1,1,0,1,0,0,0,1,1,OR,0,0,0,1,0,1,0,1,0,1,232,이영수,67,01000228337,F,안경자,01008615927,자녀,200104-2533692,xx-xxxxx-xxx,기업,서울 동작구 노량진동 220-11,45,37.508982,126.945225,UNAUTHORIZED_MEMBER,실2층 베란다있는방. 신축급컨디션. 관리잘되는집. 채광좋은집,232,232,서울,동작구,empty,만양로13길 37,232,232,232,232,694,695,696,/homeImage/232/01.jpg,/homeImage/232/02.jpg,/homeImage/232/03.jpg,232,/hostImage/112.jpg,1,0,0,1,0,1,0,1,0
6606822a2b9cfb2855556548,1,1,1,1,1,1,1,0,1,0,0,0,1,1,OR,1,0,0,1,0,0,0,0,1,0,233,김현준,87,01081919298,F,김은영,01084326776,자녀,210509-1800820,xx-xxxxx-xxx,수협,서울 동작구 노량진동 123-43,38,37.510443,126.945963,USER,종일 햇살이 들어오는 노량진에서 보기 드문  가성비 좋은 정남향 원룸,233,233,서울,동작구,empty,만양로8길 64,233,233,233,233,697,698,699,/homeImage/233/01.jpg,/homeImage/233/02.jpg,/homeImage/233/03.jpg,233,/hostImage/113.jpg,1,0,1,0,0,0,0,0,1
6606822a2b9cfb2855556549,1,1,1,1,1,1,1,1,1,0,0,1,1,1,OR,1,1,0,0,0,1,0,0,1,1,234,이민재,67,01013265805,F,박광수,01041829675,자녀,850702-1616741,xx-xxxxx-xxx,농협,서울 동작구 대방동 391-23,40,37.501686,126.927859,USER,대출가능 가성비끝판왕 초저렴신축원룸,234,234,서울,동작구,empty,대방동길 21,234,234,234,234,700,701,702,/homeImage/234/01.jpg,/homeImage/234/02.jpg,/homeImage/234/03.jpg,234,/hostImage/114.jpg,0,0,1,1,0,1,1,0,1
6606822a2b9cfb285555654a,1,1,1,1,1,1,1,1,1,0,0,1,1,1,OR,0,1,0,0,0,0,1,1,0,0,235,심은정,90,01033237171,F,윤영일,01049857392,자녀,740502-1922291,xx-xxxxx-xxx,우리,서울 동작구 상도1동 732,40,37.50259,126.947235,USER,상도역초역세권 보면 바로 계약가능 저렴한 신축분리형,235,235,서울,동작구,empty,상도로38나길 14,235,235,235,235,703,704,705,/homeImage/235/01.jpg,/homeImage/235/02.jpg,/homeImage/235/03.jpg,235,/hostImage/115.jpg,0,0,0,0,1,0,1,1,0
6606822a2b9cfb285555654b,1,1,1,1,1,1,1,1,1,0,0,0,1,1,OR,1,1,1,1,0,1,1,0,0,1,236,김서현,69,01029771454,M,김예지,01092677861,자녀,980313-2377506,xx-xxxxx-xxx,하나,서울 동작구 상도1동 312-2,35,37.500551,126.952351,UNAUTHORIZED_MEMBER,안심대로변 상도역가까운 가성비원룸,236,236,서울,동작구,empty,상도로47길 32,236,236,236,236,706,707,708,/homeImage/236/01.jpg,/homeImage/236/02.jpg,/homeImage/236/03.jpg,236,/hostImage/116.jpg,1,0,1,1,1,2,1,0,0
6606822a2b9cfb285555654c,1,1,1,1,1,1,1,0,1,0,0,1,1,1,OR,1,0,0,1,1,0,1,0,1,0,237,윤영숙,98,01019526964,M,박순자,01013713791,자녀,240901-2866376,xx-xxxxx-xxx,SC제일,서울 동작구 상도1동 732,50,37.50259,126.947235,UNAUTHORIZED_MEMBER,상도역1분.신축넓은분리형.위치좋아안전.집주인거주,237,237,서울,동작구,empty,상도로38나길 14,237,237,237,237,709,710,711,/homeImage/237/01.jpg,/homeImage/237/02.jpg,/homeImage/237/03.jpg,237,/hostImage/117.jpg,1,1,1,0,1,0,0,0,1
6606822a2b9cfb285555654d,1,1,1,1,1,1,1,1,1,0,1,1,1,1,OR,0,1,0,0,1,0,1,1,1,0,238,황영호,76,01025359459,M,한준서,01094504399,자녀,790725-1041069,xx-xxxxx-xxx,우리,서울 동작구 상도1동 426-1,45,37.501511,126.950602,USER,"중앙대,숭실대 깔끔한 반지층 풀옵션 원룸",238,238,서울,동작구,empty,상도로47가길 38,238,238,238,238,712,713,714,/homeImage/238/01.jpg,/homeImage/238/02.jpg,/homeImage/238/03.jpg,238,/hostImage/118.jpg,0,1,0,0,1,0,1,1,1
6606822a2b9cfb285555654e,1,1,1,1,1,1,1,1,1,0,1,1,1,1,OR,0,0,0,0,1,1,1,0,0,1,239,차병철,79,01014585632,M,이민서,01057704251,자녀,930611-2136037,xx-xxxxx-xxx,기업,서울 동작구 상도동 22-52,45,37.506346,126.946436,USER,풀옵션원룸 빠른입주가능,239,239,서울,동작구,empty,만양로1길 15,239,239,239,239,715,716,717,/homeImage/239/01.jpg,/homeImage/239/02.jpg,/homeImage/239/03.jpg,239,/hostImage/119.jpg,0,1,0,1,1,1,0,0,0
6606822a2b9cfb285555654f,1,1,1,1,1,1,1,0,1,0,1,1,1,1,OR,0,1,1,1,0,0,0,0,0,0,240,박수민,67,01087530233,F,오명숙,01076080078,자녀,360104-1679688,xx-xxxxx-xxx,국민,서울 동작구 상도동 356-140,45,37.502288,126.933696,USER,채광좋은 깔끔한 원룸 전세가능 주차가능,240,240,서울,동작구,empty,상도로15길 33,240,240,240,240,718,719,720,/homeImage/240/01.jpg,/homeImage/240/02.jpg,/homeImage/240/03.jpg,240,/hostImage/120.jpg,1,0,0,0,0,1,1,0,0
6606822a2b9cfb2855556550,1,1,1,1,1,1,1,0,1,0,1,0,1,1,OR,1,0,0,0,0,0,0,1,0,1,241,김시우,87,01047290810,M,지성수,01045010414,자녀,830408-2894559,xx-xxxxx-xxx,광주,서울 동작구 대방동 20-87,40,37.509329,126.931514,USER,"집앞이 마을버스 정류장, 월세가 저렴한 집,",241,241,서울,동작구,empty,여의대방로36길 101,241,241,241,241,721,722,723,/homeImage/241/01.jpg,/homeImage/241/02.jpg,/homeImage/241/03.jpg,241,/hostImage/1.jpg,0,0,1,0,0,1,0,1,0
6606822a2b9cfb2855556551,1,1,1,1,1,1,1,0,1,0,1,0,1,1,OR,1,0,0,1,1,0,1,0,1,1,242,김수빈,95,01090036757,M,이정웅,01016758332,자녀,830615-1885073,xx-xxxxx-xxx,경남,서울 동작구 대방동 20-48,38,37.509296,126.931714,USER,"넓은 원룸, 침대있음,  상태 아주깨끗하고  저렴",242,242,서울,동작구,empty,여의대방로36길 101,242,242,242,242,724,725,726,/homeImage/242/01.jpg,/homeImage/242/02.jpg,/homeImage/242/03.jpg,242,/hostImage/2.jpg,1,1,1,0,1,1,0,0,1
6606822a2b9cfb2855556552,1,1,1,1,1,1,1,0,1,0,1,0,1,1,OR,1,1,0,0,1,0,0,1,0,1,243,김진우,95,01011392456,M,이정식,01099871425,자녀,710927-1461709,xx-xxxxx-xxx,우리,서울 동작구 대방동 17-39,50,37.509138,126.93186,UNAUTHORIZED_MEMBER,역세권신축급의 채광조은 큰 방,243,243,서울,동작구,empty,등용로9길 1,243,243,243,243,727,728,729,/homeImage/243/01.jpg,/homeImage/243/02.jpg,/homeImage/243/03.jpg,243,/hostImage/3.jpg,0,1,1,0,0,1,1,1,0
6606822a2b9cfb2855556553,1,1,1,1,1,1,1,0,1,0,1,1,1,1,OR,0,1,1,0,0,1,1,1,0,0,244,김진호,80,01098276893,M,양성민,01018194530,자녀,330825-1082572,xx-xxxxx-xxx,씨티,서울 동작구 노량진동 270,40,37.512297,126.935181,UNAUTHORIZED_MEMBER,햇살맛집넉넉한평수깔끔한내실,244,244,서울,동작구,empty,등용로14길 66,244,244,244,244,730,731,732,/homeImage/244/01.jpg,/homeImage/244/02.jpg,/homeImage/244/03.jpg,244,/hostImage/4.jpg,0,0,0,1,1,1,1,1,0
6606822a2b9cfb2855556554,1,1,1,1,1,1,1,0,1,0,1,0,1,1,OR,0,0,1,1,0,1,0,0,0,1,245,김미경,89,01055024756,M,김정자,01007660162,자녀,130817-2277109,xx-xxxxx-xxx,대구,서울 동작구 대방동 20-87,40,37.509329,126.931514,UNAUTHORIZED_MEMBER,역세권 신축급의 햇살조은 깔끔한 원룸,245,245,서울,동작구,empty,여의대방로36길 101,245,245,245,245,733,734,735,/homeImage/245/01.jpg,/homeImage/245/02.jpg,/homeImage/245/03.jpg,245,/hostImage/5.jpg,1,0,0,1,0,2,0,0,0
6606822a2b9cfb2855556555,1,1,1,1,1,1,1,0,1,0,0,0,1,1,OR,0,1,1,1,1,0,0,1,0,1,246,고은서,79,01012817110,F,박영진,01064963156,자녀,210706-2548715,xx-xxxxx-xxx,전북,서울 동작구 대방동 20-48,43,37.509296,126.931714,UNAUTHORIZED_MEMBER,"넓은방 아주 깨끗함, 바로 입주, 침대도 있음",246,246,서울,동작구,empty,여의대방로36길 101,246,246,246,246,736,737,738,/homeImage/246/01.jpg,/homeImage/246/02.jpg,/homeImage/246/03.jpg,246,/hostImage/6.jpg,1,1,0,0,0,2,1,1,0
6606822a2b9cfb2855556556,1,1,1,1,1,1,1,0,1,0,1,0,1,1,OR,0,0,1,1,1,1,1,1,1,1,247,전옥순,79,01067181125,M,지시우,01021390684,자녀,230811-2522737,xx-xxxxx-xxx,토스,서울 동작구 노량진동 206-8,45,37.512176,126.946913,USER,깔끔하고 학원가에 인접한 원룸입니다,247,247,서울,동작구,empty,만양로14바길 5,247,247,247,247,739,740,741,/homeImage/247/01.jpg,/homeImage/247/02.jpg,/homeImage/247/03.jpg,247,/hostImage/7.jpg,1,1,0,1,1,2,0,1,1
6606822a2b9cfb2855556557,0,1,1,0,1,1,0,1,1,0,1,0,1,0,OR,1,0,0,0,0,1,0,0,0,0,248,이정식,75,01001770042,M,권정웅,01059107293,자녀,290201-2413334,xx-xxxxx-xxx,카카오,서울 동작구 대방동 391-80,30,37.502483,126.924278,USER,empty,248,248,서울,동작구,empty,대방동27길 61,248,248,248,248,742,743,744,/homeImage/248/01.jpg,/homeImage/248/02.jpg,/homeImage/248/03.jpg,248,/hostImage/8.jpg,0,0,1,1,0,0,0,0,0
6606822a2b9cfb2855556558,1,1,0,0,0,0,1,0,0,0,1,1,0,0,OR,0,1,0,0,1,1,0,0,1,0,249,홍서연,74,01042215244,F,김은정,01026892118,자녀,310526-2555050,xx-xxxxx-xxx,신한,서울 동작구 대방동 392-4,40,37.502583,126.927677,UNAUTHORIZED_MEMBER,empty,249,249,서울,동작구,empty,대방동2길 33,249,249,249,249,745,746,747,/homeImage/249/01.jpg,/homeImage/249/02.jpg,/homeImage/249/03.jpg,249,/hostImage/9.jpg,0,1,0,1,0,0,1,0,1
6606822a2b9cfb2855556559,1,1,0,1,1,0,1,0,1,1,1,0,1,1,OR,0,1,0,0,0,1,1,1,1,0,250,김경수,69,01012867486,M,오선영,01054746460,자녀,760808-2128499,xx-xxxxx-xxx,전북,서울 동작구 대방동 391-245,35,37.502724,126.924984,UNAUTHORIZED_MEMBER,empty,250,250,서울,동작구,empty,대방동15길 5,250,250,250,250,748,749,750,/homeImage/250/01.jpg,/homeImage/250/02.jpg,/homeImage/250/03.jpg,250,/hostImage/10.jpg,0,0,0,1,1,0,1,1,1
6606822a2b9cfb285555655a,1,0,1,0,0,0,1,1,0,1,1,1,1,0,OR,1,1,0,0,1,1,0,1,1,1,251,김정숙,94,01056939320,F,최영희,01087314838,자녀,530714-1986887,xx-xxxxx-xxx,SC제일,서울 동작구 대방동 391-540,35,37.501324,126.927407,UNAUTHORIZED_MEMBER,empty,251,251,서울,동작구,empty,대방동5길 4,251,251,251,251,751,752,753,/homeImage/251/01.jpg,/homeImage/251/02.jpg,/homeImage/251/03.jpg,251,/hostImage/11.jpg,0,1,1,1,0,1,1,1,1
6606822a2b9cfb285555655b,1,1,1,1,1,1,1,0,1,0,0,1,1,1,DDDGG,0,0,0,1,1,0,0,0,1,1,252,김승민,74,01055177407,F,박서현,01075699301,자녀,400822-1988861,xx-xxxxx-xxx,하나,서울 동작구 대방동 391-152,45,37.501173,126.925904,UNAUTHORIZED_MEMBER,초역세권 합리적인 금액에 좋은 컨디션을 보여주는 원룸 소개해드립니다,252,252,서울,동작구,empty,대방동3길 29,252,252,252,252,754,755,756,/homeImage/252/01.jpg,/homeImage/252/02.jpg,/homeImage/252/03.jpg,252,/hostImage/12.jpg,1,1,0,0,0,1,0,0,1
6606822a2b9cfb285555655c,1,1,1,1,1,1,1,1,1,0,0,1,1,1,DDDGG,0,1,1,1,0,1,1,0,1,1,253,이지은,97,01064218917,F,고우진,01073184804,자녀,910906-1723675,xx-xxxxx-xxx,제주,서울 동작구 상도동 248-24,40,37.500373,126.933337,UNAUTHORIZED_MEMBER,채광 좋은 가성비 꿀 매물,253,253,서울,동작구,empty,성대로3길 17,253,253,253,253,757,758,759,/homeImage/253/01.jpg,/homeImage/253/02.jpg,/homeImage/253/03.jpg,253,/hostImage/13.jpg,1,0,0,1,1,2,1,0,1
6606822a2b9cfb285555655d,1,1,1,1,1,1,1,0,1,0,0,1,1,1,OR,1,0,0,0,0,0,0,0,0,0,254,차영철,71,01021201370,M,최상훈,01080932029,자녀,890926-1588621,xx-xxxxx-xxx,케이,서울 동작구 상도1동 426-1,45,37.501511,126.950602,USER,상도역4분. 화장실이 넓은방. 화이트톤. 안전한집,254,254,서울,동작구,empty,상도로47가길 38,254,254,254,254,760,761,762,/homeImage/254/01.jpg,/homeImage/254/02.jpg,/homeImage/254/03.jpg,254,/hostImage/14.jpg,0,0,1,0,0,0,0,0,0
