items,sections,subways,anyItemWithoutFilter
"[{'lat': 37.55751894062437, 'lng': 127.00984714257805, 'itemId': 40161560, 'itemBmType': 'ZIGBANG'}, {'lat': 37.560215229744216, 'lng': 127.03202615726332, 'itemId': 40179869, 'itemBmType': 'ZIGBANG'}, {'lat': 37.560950358481584, 'lng': 127.00809533447719, 'itemId': 40251529, 'itemBmType': 'ZIGBANG'}, {'lat': 37.56771771259038, 'lng': 127.03501635031174, 'itemId': 40201409, 'itemBmType': 'ZIGBANG'}, {'lat': 37.57193521313276, 'lng': 127.03243155773217, 'itemId': 40177694, 'itemBmType': 'ZIGBANG'}, {'lat': 37.572909653667466, 'lng': 127.01030036139758, 'itemId': 40195401, 'itemBmType': 'ZIGBANG'}]","[{'type': 'vip', 'itemIds': []}, {'type': '안심추천', 'itemIds': [40161560, 40177694, 40195401]}, {'type': '안심일반', 'itemIds': [40179869, 40251529, 40201409]}, {'type': '추천', 'itemIds': []}, {'type': '일반', 'itemIds': []}]","[{'id': 71, 'name': '동대입구역', 'description': '3호선', 'subwayArea': '수도권', 'local1': '서울특별시', 'lat': 37.5590438842773, 'lng': 127.005035400391, 'address': '서울 중구 장충동2가 189-2'}, {'id': 73, 'name': '금호역', 'description': '3호선', 'subwayArea': '수도권', 'local1': '서울특별시', 'lat': 37.548095703125, 'lng': 127.01586151123, 'address': '서울 성동구 금호동4가 1470'}, {'id': 343, 'name': '신금호역', 'description': '5호선', 'subwayArea': '수도권', 'local1': '서울특별시', 'lat': 37.5544671, 'lng': 127.0208, 'address': '서울시 성동구 금호2가동 223-1번지'}, {'id': 74, 'name': '옥수역', 'description': '3호선,중앙선', 'subwayArea': '수도권', 'local1': '서울특별시', 'lat': 37.5402758, 'lng': 127.0182474, 'address': '서울 성동구 옥수동 367-1'}, {'id': 268, 'name': '서울숲역', 'description': '수인분당선', 'subwayArea': '수도권', 'local1': '서울특별시', 'lat': 37.5440330505371, 'lng': 127.044845581055, 'address': '서울 성동구 성수동 656-436'}, {'id': 15, 'name': '신당역', 'description': '2호선,6호선', 'subwayArea': '수도권', 'local1': '서울특별시', 'lat': 37.5657299, 'lng': 127.018449, 'address': '서울 중구 신당동 130-20'}, {'id': 72, 'name': '약수역', 'description': '3호선,6호선', 'subwayArea': '수도권', 'local1': '서울특별시', 'lat': 37.554443359375, 'lng': 127.011001586914, 'address': '서울시 중구 신당3동 369-44'}, {'id': 344, 'name': '행당역', 'description': '5호선', 'subwayArea': '수도권', 'local1': '서울특별시', 'lat': 37.5576057434082, 'lng': 127.029876708984, 'address': '서울시 성동구 행당2동 317-241'}, {'id': 342, 'name': '청구역', 'description': '5호선,6호선', 'subwayArea': '수도권', 'local1': '서울특별시', 'lat': 37.560205, 'lng': 127.013875, 'address': '서울시 중구 신당2동 294'}, {'id': 380, 'name': '버티고개역', 'description': '6호선', 'subwayArea': '수도권', 'local1': '서울특별시', 'lat': 37.547966003418, 'lng': 127.006820678711, 'address': '서울 중구 신당동 432-2743'}, {'id': 17, 'name': '왕십리역', 'description': '2호선,5호선,수인분당선,중앙선', 'subwayArea': '수도권', 'local1': '서울특별시', 'lat': 37.5611724853516, 'lng': 127.037269592285, 'address': '서울 성동구 행당동 189-14'}, {'id': 18, 'name': '한양대역', 'description': '2호선', 'subwayArea': '수도권', 'local1': '서울특별시', 'lat': 37.5556030273438, 'lng': 127.043762207031, 'address': '서울 성동구 행당동 17-10'}, {'id': 6, 'name': '동대문역', 'description': '1호선,4호선', 'subwayArea': '수도권', 'local1': '서울특별시', 'lat': 37.5712557, 'lng': 127.0090801, 'address': '서울 종로구 창신동 492-1'}, {'id': 345, 'name': '마장역', 'description': '5호선', 'subwayArea': '수도권', 'local1': '서울특별시', 'lat': 37.5662651062012, 'lng': 127.043128967285, 'address': '서울시 성동구 마장동 772'}, {'id': 119, 'name': '응봉역', 'description': '중앙선', 'subwayArea': '수도권', 'local1': '서울특별시', 'lat': 37.5504302978516, 'lng': 127.034896850586, 'address': '서울시 성동구 응봉동 246'}, {'id': 16, 'name': '상왕십리역', 'description': '2호선', 'subwayArea': '수도권', 'local1': '서울특별시', 'lat': 37.5645408630371, 'lng': 127.029541015625, 'address': '서울 성동구 홍익동 579-2'}, {'id': 14, 'name': '동대문역사문화공원역', 'description': '2호선,4호선,5호선', 'subwayArea': '수도권', 'local1': '서울특별시', 'lat': 37.5649788, 'lng': 127.007742, 'address': '서울 중구 을지로7가 7-6'}]",False
"[{'lat': 37.530539765091355, 'lng': 127.07726584982262, 'itemId': 40205781, 'itemBmType': 'ZIGBANG'}, {'lat': 37.53215979345783, 'lng': 127.08410349520209, 'itemId': 40258316, 'itemBmType': 'ZIGBANG'}, {'lat': 37.53222405109178, 'lng': 127.07348693264811, 'itemId': 39937580, 'itemBmType': 'ZIGBANG'}, {'lat': 37.533249759612325, 'lng': 127.0844104716194, 'itemId': 40150111, 'itemBmType': 'ZIGBANG'}, {'lat': 37.53373867388423, 'lng': 127.08440753884211, 'itemId': 40172556, 'itemBmType': 'ZIGBANG'}, {'lat': 37.53448182058335, 'lng': 127.08272560904312, 'itemId': 40240421, 'itemBmType': 'ZIGBANG'}, {'lat': 37.53595456291485, 'lng': 127.07573561945792, 'itemId': 40205098, 'itemBmType': 'ZIGBANG'}, {'lat': 37.5380577460419, 'lng': 127.0802848481584, 'itemId': 40261427, 'itemBmType': 'ZIGBANG'}, {'lat': 37.537871222415596, 'lng': 127.08702993913232, 'itemId': 40175831, 'itemBmType': 'ZIGBANG'}, {'lat': 37.540397812046066, 'lng': 127.08591892367895, 'itemId': 40249248, 'itemBmType': 'ZIGBANG'}, {'lat': 37.5399081312481, 'lng': 127.08525333844237, 'itemId': 40171183, 'itemBmType': 'ZIGBANG'}, {'lat': 37.540873942262984, 'lng': 127.08777889669517, 'itemId': 40253391, 'itemBmType': 'ZIGBANG'}, {'lat': 37.54197894120843, 'lng': 127.08788451705132, 'itemId': 40218414, 'itemBmType': 'ZIGBANG'}, {'lat': 37.54198741710672, 'lng': 127.0878859407427, 'itemId': 40243859, 'itemBmType': 'ZIGBANG'}, {'lat': 37.54197881925855, 'lng': 127.08790407092427, 'itemId': 40244002, 'itemBmType': 'ZIGBANG'}, {'lat': 37.54277281508806, 'lng': 127.0879989969288, 'itemId': 40153720, 'itemBmType': 'ZIGBANG'}, {'lat': 37.544994135057465, 'lng': 127.07901037381804, 'itemId': 40220867, 'itemBmType': 'ZIGBANG'}, {'lat': 37.545017124190416, 'lng': 127.0790422547928, 'itemId': 40221650, 'itemBmType': 'ZIGBANG'}, {'lat': 37.54619983373542, 'lng': 127.06945203494347, 'itemId': 40066940, 'itemBmType': 'ZIGBANG'}, {'lat': 37.552709301416826, 'lng': 127.08722057811806, 'itemId': 40198731, 'itemBmType': 'PARTNERS'}, {'lat': 37.553227973678226, 'lng': 127.0872081530044, 'itemId': 40224184, 'itemBmType': 'ZIGBANG'}, {'lat': 37.5540928199769, 'lng': 127.07054020950176, 'itemId': 40203171, 'itemBmType': 'ZIGBANG'}, {'lat': 37.55453267961868, 'lng': 127.07311784290324, 'itemId': 40135601, 'itemBmType': 'PARTNERS'}, {'lat': 37.55455887481608, 'lng': 127.07372622130082, 'itemId': 40141901, 'itemBmType': 'ZIGBANG'}, {'lat': 37.5581228000611, 'lng': 127.08705367831922, 'itemId': 40256260, 'itemBmType': 'ZIGBANG'}, {'lat': 37.558814010997246, 'lng': 127.08177236592266, 'itemId': 40208383, 'itemBmType': 'ZIGBANG'}, {'lat': 37.558826935759726, 'lng': 127.08518992824952, 'itemId': 40208369, 'itemBmType': 'ZIGBANG'}, {'lat': 37.56049626175495, 'lng': 127.04782267428999, 'itemId': 40137978, 'itemBmType': 'ZIGBANG'}, {'lat': 37.56101080665387, 'lng': 127.04784729268266, 'itemId': 40223982, 'itemBmType': 'ZIGBANG'}, {'lat': 37.56093402532684, 'lng': 127.05422732100052, 'itemId': 40177066, 'itemBmType': 'ZIGBANG'}, {'lat': 37.56147562328401, 'lng': 127.0542949482675, 'itemId': 40085660, 'itemBmType': 'ZIGBANG'}, {'lat': 37.562634704192, 'lng': 127.08609682317349, 'itemId': 40244346, 'itemBmType': 'ZIGBANG'}, {'lat': 37.5697820499969, 'lng': 127.08784409407166, 'itemId': 40230563, 'itemBmType': 'ZIGBANG'}]","[{'type': 'vip', 'itemIds': []}, {'type': '안심추천', 'itemIds': [40150111, 40205098, 40249248, 40244002, 40220867, 40198731, 40224184, 40135601, 40141901, 40223982]}, {'type': '안심일반', 'itemIds': [40205781, 40258316, 39937580, 40172556, 40240421, 40261427, 40175831, 40171183, 40253391, 40218414, 40243859, 40153720, 40221650, 40066940, 40203171, 40256260, 40208383, 40208369, 40137978, 40177066, 40085660, 40244346, 40230563]}, {'type': '추천', 'itemIds': []}, {'type': '일반', 'itemIds': []}]","[{'id': 349, 'name': '아차산역', 'description': '5호선', 'subwayArea': '수도권', 'local1': '서울특별시', 'lat': 37.552027, 'lng': 127.08963, 'address': '서울시 광진구 능동 256'}, {'id': 402, 'name': '중곡역', 'description': '7호선', 'subwayArea': '수도권', 'local1': '서울특별시', 'lat': 37.5657901, 'lng': 127.0842577, 'address': '서울시 광진구 중곡동 167'}, {'id': 404, 'name': '뚝섬유원지역', 'description': '7호선', 'subwayArea': '수도권', 'local1': '서울특별시', 'lat': 37.5316925048828, 'lng': 127.066848754883, 'address': '서울 광진구 자양동 71-2'}, {'id': 54, 'name': '신답역', 'description': '2호선', 'subwayArea': '수도권', 'local1': '서울특별시', 'lat': 37.5700591, 'lng': 127.0464306, 'address': '서울 성동구 용답동 128'}, {'id': 22, 'name': '구의역', 'description': '2호선', 'subwayArea': '수도권', 'local1': '서울특별시', 'lat': 37.537145, 'lng': 127.086135, 'address': '서울 광진구 자양동 216-16 '}, {'id': 346, 'name': '답십리역', 'description': '5호선', 'subwayArea': '수도권', 'local1': '서울특별시', 'lat': 37.5664291381836, 'lng': 127.053146362305, 'address': '서울시 성동구 용답동 99'}, {'id': 348, 'name': '군자역', 'description': '5호선,7호선', 'subwayArea': '수도권', 'local1': '서울특별시', 'lat': 37.5571632385254, 'lng': 127.079444885254, 'address': '서울시 광진구 능동 277'}, {'id': 347, 'name': '장한평역', 'description': '5호선', 'subwayArea': '수도권', 'local1': '서울특별시', 'lat': 37.5614852905273, 'lng': 127.064392089844, 'address': '서울시 동대문구 장안동 416'}, {'id': 20, 'name': '성수역', 'description': '2호선', 'subwayArea': '수도권', 'local1': '서울특별시', 'lat': 37.544569, 'lng': 127.055974, 'address': '서울 성동구 성수동2가 300-4'}, {'id': 403, 'name': '어린이대공원역', 'description': '7호선', 'subwayArea': '수도권', 'local1': '서울특별시', 'lat': 37.5480032, 'lng': 127.074607, 'address': '서울 광진구 능동 463-5'}, {'id': 19, 'name': '뚝섬역', 'description': '2호선', 'subwayArea': '수도권', 'local1': '서울특별시', 'lat': 37.5471687316894, 'lng': 127.047332763672, 'address': '서울 성동구 성수1가2동 656-745'}, {'id': 53, 'name': '용답역', 'description': '2호선', 'subwayArea': '수도권', 'local1': '서울특별시', 'lat': 37.5622711181641, 'lng': 127.051002502441, 'address': '서울 성동구 사근동 238'}, {'id': 21, 'name': '건대입구역', 'description': '2호선,7호선', 'subwayArea': '수도권', 'local1': '서울특별시', 'lat': 37.5398956, 'lng': 127.0706737, 'address': '서울 광진구 자양동 7-6'}]",False
