items,sections,subways,anyItemWithoutFilter
"[{'lat': 37.55700374662141, 'lng': 127.01045562909876, 'itemId': 40161560, 'itemBmType': 'ZIGBANG'}, {'lat': 37.557992639579304, 'lng': 127.0353541574841, 'itemId': 40141504, 'itemBmType': 'ZIGBANG'}, {'lat': 37.55970999478581, 'lng': 127.02996746455872, 'itemId': 40153469, 'itemBmType': 'ZIGBANG'}, {'lat': 37.56114346810539, 'lng': 127.02947077460402, 'itemId': 40075847, 'itemBmType': 'ZIGBANG'}, {'lat': 37.56770027808823, 'lng': 127.03436283879029, 'itemId': 39999358, 'itemBmType': 'ZIGBANG'}, {'lat': 37.57143171246371, 'lng': 127.03239927115702, 'itemId': 39998399, 'itemBmType': 'ZIGBANG'}]","[{'type': 'vip', 'itemIds': []}, {'type': '안심추천', 'itemIds': [40141504, 39999358, 39998399]}, {'type': '안심일반', 'itemIds': [40161560, 40153469, 40075847]}, {'type': '추천', 'itemIds': []}, {'type': '일반', 'itemIds': []}]","[{'id': 74, 'name': '옥수역', 'description': '3호선,중앙선', 'subwayArea': '수도권', 'local1': '서울특별시', 'lat': 37.5402758, 'lng': 127.0182474, 'address': '서울 성동구 옥수동 367-1'}, {'id': 18, 'name': '한양대역', 'description': '2호선', 'subwayArea': '수도권', 'local1': '서울특별시', 'lat': 37.5556030273438, 'lng': 127.043762207031, 'address': '서울 성동구 행당동 17-10'}, {'id': 16, 'name': '상왕십리역', 'description': '2호선', 'subwayArea': '수도권', 'local1': '서울특별시', 'lat': 37.5645408630371, 'lng': 127.029541015625, 'address': '서울 성동구 홍익동 579-2'}, {'id': 14, 'name': '동대문역사문화공원역', 'description': '2호선,4호선,5호선', 'subwayArea': '수도권', 'local1': '서울특별시', 'lat': 37.5649788, 'lng': 127.007742, 'address': '서울 중구 을지로7가 7-6'}, {'id': 71, 'name': '동대입구역', 'description': '3호선', 'subwayArea': '수도권', 'local1': '서울특별시', 'lat': 37.5590438842773, 'lng': 127.005035400391, 'address': '서울 중구 장충동2가 189-2'}, {'id': 72, 'name': '약수역', 'description': '3호선,6호선', 'subwayArea': '수도권', 'local1': '서울특별시', 'lat': 37.554443359375, 'lng': 127.011001586914, 'address': '서울시 중구 신당3동 369-44'}, {'id': 342, 'name': '청구역', 'description': '5호선,6호선', 'subwayArea': '수도권', 'local1': '서울특별시', 'lat': 37.560205, 'lng': 127.013875, 'address': '서울시 중구 신당2동 294'}, {'id': 380, 'name': '버티고개역', 'description': '6호선', 'subwayArea': '수도권', 'local1': '서울특별시', 'lat': 37.547966003418, 'lng': 127.006820678711, 'address': '서울 중구 신당동 432-2743'}, {'id': 344, 'name': '행당역', 'description': '5호선', 'subwayArea': '수도권', 'local1': '서울특별시', 'lat': 37.5576057434082, 'lng': 127.029876708984, 'address': '서울시 성동구 행당2동 317-241'}, {'id': 343, 'name': '신금호역', 'description': '5호선', 'subwayArea': '수도권', 'local1': '서울특별시', 'lat': 37.5544671, 'lng': 127.0208, 'address': '서울시 성동구 금호2가동 223-1번지'}, {'id': 345, 'name': '마장역', 'description': '5호선', 'subwayArea': '수도권', 'local1': '서울특별시', 'lat': 37.5662651062012, 'lng': 127.043128967285, 'address': '서울시 성동구 마장동 772'}, {'id': 17, 'name': '왕십리역', 'description': '2호선,5호선,수인분당선,중앙선', 'subwayArea': '수도권', 'local1': '서울특별시', 'lat': 37.5611724853516, 'lng': 127.037269592285, 'address': '서울 성동구 행당동 189-14'}, {'id': 73, 'name': '금호역', 'description': '3호선', 'subwayArea': '수도권', 'local1': '서울특별시', 'lat': 37.548095703125, 'lng': 127.01586151123, 'address': '서울 성동구 금호동4가 1470'}, {'id': 268, 'name': '서울숲역', 'description': '수인분당선', 'subwayArea': '수도권', 'local1': '서울특별시', 'lat': 37.5440330505371, 'lng': 127.044845581055, 'address': '서울 성동구 성수동 656-436'}, {'id': 15, 'name': '신당역', 'description': '2호선,6호선', 'subwayArea': '수도권', 'local1': '서울특별시', 'lat': 37.5657299, 'lng': 127.018449, 'address': '서울 중구 신당동 130-20'}, {'id': 119, 'name': '응봉역', 'description': '중앙선', 'subwayArea': '수도권', 'local1': '서울특별시', 'lat': 37.5504302978516, 'lng': 127.034896850586, 'address': '서울시 성동구 응봉동 246'}, {'id': 6, 'name': '동대문역', 'description': '1호선,4호선', 'subwayArea': '수도권', 'local1': '서울특별시', 'lat': 37.5712557, 'lng': 127.0090801, 'address': '서울 종로구 창신동 492-1'}]",False
"[{'lat': 37.53050865992158, 'lng': 127.07790901145478, 'itemId': 40109282, 'itemBmType': 'ZIGBANG'}, {'lat': 37.532217537224554, 'lng': 127.07343856325316, 'itemId': 39937580, 'itemBmType': 'ZIGBANG'}, {'lat': 37.53238761906034, 'lng': 127.07757568260978, 'itemId': 39935963, 'itemBmType': 'ZIGBANG'}, {'lat': 37.53237451282525, 'lng': 127.07757849424924, 'itemId': 40109643, 'itemBmType': 'ZIGBANG'}, {'lat': 37.53293214346996, 'lng': 127.07987797355545, 'itemId': 40066365, 'itemBmType': 'ZIGBANG'}, {'lat': 37.533770715910066, 'lng': 127.08375967559076, 'itemId': 40150111, 'itemBmType': 'ZIGBANG'}, {'lat': 37.534504134993384, 'lng': 127.082062081374, 'itemId': 40064696, 'itemBmType': 'ZIGBANG'}, {'lat': 37.53499064006134, 'lng': 127.08204441947579, 'itemId': 40125447, 'itemBmType': 'ZIGBANG'}, {'lat': 37.53646444150754, 'lng': 127.07631334290708, 'itemId': 40065426, 'itemBmType': 'ZIGBANG'}, {'lat': 37.53755118794313, 'lng': 127.05516591358479, 'itemId': 40135243, 'itemBmType': 'ZIGBANG'}, {'lat': 37.537898345377684, 'lng': 127.08760935305422, 'itemId': 40092016, 'itemBmType': 'ZIGBANG'}, {'lat': 37.54039759366125, 'lng': 127.08590113278787, 'itemId': 39877279, 'itemBmType': 'ZIGBANG'}, {'lat': 37.54039997814445, 'lng': 127.08591391197908, 'itemId': 39897678, 'itemBmType': 'ZIGBANG'}, {'lat': 37.540470689708286, 'lng': 127.08429621444748, 'itemId': 40138584, 'itemBmType': 'ZIGBANG'}, {'lat': 37.54277502482178, 'lng': 127.0873476683582, 'itemId': 40153720, 'itemBmType': 'ZIGBANG'}, {'lat': 37.54516424187928, 'lng': 127.07802267172846, 'itemId': 39922578, 'itemBmType': 'ZIGBANG'}, {'lat': 37.54571523199846, 'lng': 127.06877869982425, 'itemId': 40066940, 'itemBmType': 'ZIGBANG'}, {'lat': 37.54631179698636, 'lng': 127.07160160441616, 'itemId': 40135836, 'itemBmType': 'ZIGBANG'}, {'lat': 37.54701806991119, 'lng': 127.06862280345216, 'itemId': 40151116, 'itemBmType': 'ZIGBANG'}, {'lat': 37.55020168015959, 'lng': 127.07013916377709, 'itemId': 40160454, 'itemBmType': 'ZIGBANG'}, {'lat': 37.555044350492, 'lng': 127.07310115184936, 'itemId': 40135601, 'itemBmType': 'PARTNERS'}, {'lat': 37.55455717167407, 'lng': 127.07308371326519, 'itemId': 40141901, 'itemBmType': 'ZIGBANG'}, {'lat': 37.556870396185374, 'lng': 127.08383926675896, 'itemId': 39991278, 'itemBmType': 'ZIGBANG'}, {'lat': 37.55734849006399, 'lng': 127.08383427362901, 'itemId': 40159050, 'itemBmType': 'ZIGBANG'}, {'lat': 37.5605230746784, 'lng': 127.04844166210694, 'itemId': 40137978, 'itemBmType': 'ZIGBANG'}, {'lat': 37.56174336729043, 'lng': 127.0857260848665, 'itemId': 40109969, 'itemBmType': 'ZIGBANG'}, {'lat': 37.561480450278395, 'lng': 127.05426408308291, 'itemId': 40085660, 'itemBmType': 'ZIGBANG'}, {'lat': 37.562158658798026, 'lng': 127.0848048456113, 'itemId': 39950507, 'itemBmType': 'ZIGBANG'}, {'lat': 37.56233972548582, 'lng': 127.04726126795657, 'itemId': 40102311, 'itemBmType': 'ZIGBANG'}, {'lat': 37.56231500282966, 'lng': 127.08505172764055, 'itemId': 40143515, 'itemBmType': 'ZIGBANG'}, {'lat': 37.56355100578737, 'lng': 127.05505775752013, 'itemId': 40163667, 'itemBmType': 'ZIGBANG'}]","[{'type': 'vip', 'itemIds': []}, {'type': '안심추천', 'itemIds': [40150111, 40065426, 40160454, 40135601, 40141901]}, {'type': '안심일반', 'itemIds': [40109282, 39937580, 39935963, 40109643, 40066365, 40064696, 40125447, 40135243, 40092016, 39877279, 39897678, 40138584, 40153720, 39922578, 40066940, 40135836, 40151116, 39991278, 40159050, 40137978, 40109969, 40085660, 39950507, 40102311, 40143515, 40163667]}, {'type': '추천', 'itemIds': []}, {'type': '일반', 'itemIds': []}]","[{'id': 54, 'name': '신답역', 'description': '2호선', 'subwayArea': '수도권', 'local1': '서울특별시', 'lat': 37.5700591, 'lng': 127.0464306, 'address': '서울 성동구 용답동 128'}, {'id': 21, 'name': '건대입구역', 'description': '2호선,7호선', 'subwayArea': '수도권', 'local1': '서울특별시', 'lat': 37.5398956, 'lng': 127.0706737, 'address': '서울 광진구 자양동 7-6'}, {'id': 348, 'name': '군자역', 'description': '5호선,7호선', 'subwayArea': '수도권', 'local1': '서울특별시', 'lat': 37.5571632385254, 'lng': 127.079444885254, 'address': '서울시 광진구 능동 277'}, {'id': 20, 'name': '성수역', 'description': '2호선', 'subwayArea': '수도권', 'local1': '서울특별시', 'lat': 37.544569, 'lng': 127.055974, 'address': '서울 성동구 성수동2가 300-4'}, {'id': 53, 'name': '용답역', 'description': '2호선', 'subwayArea': '수도권', 'local1': '서울특별시', 'lat': 37.5622711181641, 'lng': 127.051002502441, 'address': '서울 성동구 사근동 238'}, {'id': 402, 'name': '중곡역', 'description': '7호선', 'subwayArea': '수도권', 'local1': '서울특별시', 'lat': 37.5657901, 'lng': 127.0842577, 'address': '서울시 광진구 중곡동 167'}, {'id': 347, 'name': '장한평역', 'description': '5호선', 'subwayArea': '수도권', 'local1': '서울특별시', 'lat': 37.5614852905273, 'lng': 127.064392089844, 'address': '서울시 동대문구 장안동 416'}, {'id': 346, 'name': '답십리역', 'description': '5호선', 'subwayArea': '수도권', 'local1': '서울특별시', 'lat': 37.5664291381836, 'lng': 127.053146362305, 'address': '서울시 성동구 용답동 99'}, {'id': 404, 'name': '뚝섬유원지역', 'description': '7호선', 'subwayArea': '수도권', 'local1': '서울특별시', 'lat': 37.5316925048828, 'lng': 127.066848754883, 'address': '서울 광진구 자양동 71-2'}, {'id': 19, 'name': '뚝섬역', 'description': '2호선', 'subwayArea': '수도권', 'local1': '서울특별시', 'lat': 37.5471687316894, 'lng': 127.047332763672, 'address': '서울 성동구 성수1가2동 656-745'}, {'id': 349, 'name': '아차산역', 'description': '5호선', 'subwayArea': '수도권', 'local1': '서울특별시', 'lat': 37.552027, 'lng': 127.08963, 'address': '서울시 광진구 능동 256'}, {'id': 403, 'name': '어린이대공원역', 'description': '7호선', 'subwayArea': '수도권', 'local1': '서울특별시', 'lat': 37.5480032, 'lng': 127.074607, 'address': '서울 광진구 능동 463-5'}, {'id': 22, 'name': '구의역', 'description': '2호선', 'subwayArea': '수도권', 'local1': '서울특별시', 'lat': 37.537145, 'lng': 127.086135, 'address': '서울 광진구 자양동 216-16 '}]",False
"[{'lat': 37.55700374662141, 'lng': 127.01045562909876, 'itemId': 40161560, 'itemBmType': 'ZIGBANG'}, {'lat': 37.557992639579304, 'lng': 127.0353541574841, 'itemId': 40141504, 'itemBmType': 'ZIGBANG'}, {'lat': 37.55970999478581, 'lng': 127.02996746455872, 'itemId': 40153469, 'itemBmType': 'ZIGBANG'}, {'lat': 37.56114346810539, 'lng': 127.02947077460402, 'itemId': 40075847, 'itemBmType': 'ZIGBANG'}, {'lat': 37.56770027808823, 'lng': 127.03436283879029, 'itemId': 39999358, 'itemBmType': 'ZIGBANG'}, {'lat': 37.57143171246371, 'lng': 127.03239927115702, 'itemId': 39998399, 'itemBmType': 'ZIGBANG'}]","[{'type': 'vip', 'itemIds': []}, {'type': '안심추천', 'itemIds': [40141504, 39999358, 39998399]}, {'type': '안심일반', 'itemIds': [40161560, 40153469, 40075847]}, {'type': '추천', 'itemIds': []}, {'type': '일반', 'itemIds': []}]","[{'id': 74, 'name': '옥수역', 'description': '3호선,중앙선', 'subwayArea': '수도권', 'local1': '서울특별시', 'lat': 37.5402758, 'lng': 127.0182474, 'address': '서울 성동구 옥수동 367-1'}, {'id': 18, 'name': '한양대역', 'description': '2호선', 'subwayArea': '수도권', 'local1': '서울특별시', 'lat': 37.5556030273438, 'lng': 127.043762207031, 'address': '서울 성동구 행당동 17-10'}, {'id': 16, 'name': '상왕십리역', 'description': '2호선', 'subwayArea': '수도권', 'local1': '서울특별시', 'lat': 37.5645408630371, 'lng': 127.029541015625, 'address': '서울 성동구 홍익동 579-2'}, {'id': 14, 'name': '동대문역사문화공원역', 'description': '2호선,4호선,5호선', 'subwayArea': '수도권', 'local1': '서울특별시', 'lat': 37.5649788, 'lng': 127.007742, 'address': '서울 중구 을지로7가 7-6'}, {'id': 71, 'name': '동대입구역', 'description': '3호선', 'subwayArea': '수도권', 'local1': '서울특별시', 'lat': 37.5590438842773, 'lng': 127.005035400391, 'address': '서울 중구 장충동2가 189-2'}, {'id': 72, 'name': '약수역', 'description': '3호선,6호선', 'subwayArea': '수도권', 'local1': '서울특별시', 'lat': 37.554443359375, 'lng': 127.011001586914, 'address': '서울시 중구 신당3동 369-44'}, {'id': 342, 'name': '청구역', 'description': '5호선,6호선', 'subwayArea': '수도권', 'local1': '서울특별시', 'lat': 37.560205, 'lng': 127.013875, 'address': '서울시 중구 신당2동 294'}, {'id': 380, 'name': '버티고개역', 'description': '6호선', 'subwayArea': '수도권', 'local1': '서울특별시', 'lat': 37.547966003418, 'lng': 127.006820678711, 'address': '서울 중구 신당동 432-2743'}, {'id': 344, 'name': '행당역', 'description': '5호선', 'subwayArea': '수도권', 'local1': '서울특별시', 'lat': 37.5576057434082, 'lng': 127.029876708984, 'address': '서울시 성동구 행당2동 317-241'}, {'id': 343, 'name': '신금호역', 'description': '5호선', 'subwayArea': '수도권', 'local1': '서울특별시', 'lat': 37.5544671, 'lng': 127.0208, 'address': '서울시 성동구 금호2가동 223-1번지'}, {'id': 345, 'name': '마장역', 'description': '5호선', 'subwayArea': '수도권', 'local1': '서울특별시', 'lat': 37.5662651062012, 'lng': 127.043128967285, 'address': '서울시 성동구 마장동 772'}, {'id': 17, 'name': '왕십리역', 'description': '2호선,5호선,수인분당선,중앙선', 'subwayArea': '수도권', 'local1': '서울특별시', 'lat': 37.5611724853516, 'lng': 127.037269592285, 'address': '서울 성동구 행당동 189-14'}, {'id': 73, 'name': '금호역', 'description': '3호선', 'subwayArea': '수도권', 'local1': '서울특별시', 'lat': 37.548095703125, 'lng': 127.01586151123, 'address': '서울 성동구 금호동4가 1470'}, {'id': 268, 'name': '서울숲역', 'description': '수인분당선', 'subwayArea': '수도권', 'local1': '서울특별시', 'lat': 37.5440330505371, 'lng': 127.044845581055, 'address': '서울 성동구 성수동 656-436'}, {'id': 15, 'name': '신당역', 'description': '2호선,6호선', 'subwayArea': '수도권', 'local1': '서울특별시', 'lat': 37.5657299, 'lng': 127.018449, 'address': '서울 중구 신당동 130-20'}, {'id': 119, 'name': '응봉역', 'description': '중앙선', 'subwayArea': '수도권', 'local1': '서울특별시', 'lat': 37.5504302978516, 'lng': 127.034896850586, 'address': '서울시 성동구 응봉동 246'}, {'id': 6, 'name': '동대문역', 'description': '1호선,4호선', 'subwayArea': '수도권', 'local1': '서울특별시', 'lat': 37.5712557, 'lng': 127.0090801, 'address': '서울 종로구 창신동 492-1'}]",False
"[{'lat': 37.53050865992158, 'lng': 127.07790901145478, 'itemId': 40109282, 'itemBmType': 'ZIGBANG'}, {'lat': 37.532217537224554, 'lng': 127.07343856325316, 'itemId': 39937580, 'itemBmType': 'ZIGBANG'}, {'lat': 37.53238761906034, 'lng': 127.07757568260978, 'itemId': 39935963, 'itemBmType': 'ZIGBANG'}, {'lat': 37.53237451282525, 'lng': 127.07757849424924, 'itemId': 40109643, 'itemBmType': 'ZIGBANG'}, {'lat': 37.53293214346996, 'lng': 127.07987797355545, 'itemId': 40066365, 'itemBmType': 'ZIGBANG'}, {'lat': 37.533770715910066, 'lng': 127.08375967559076, 'itemId': 40150111, 'itemBmType': 'ZIGBANG'}, {'lat': 37.534504134993384, 'lng': 127.082062081374, 'itemId': 40064696, 'itemBmType': 'ZIGBANG'}, {'lat': 37.53499064006134, 'lng': 127.08204441947579, 'itemId': 40125447, 'itemBmType': 'ZIGBANG'}, {'lat': 37.53646444150754, 'lng': 127.07631334290708, 'itemId': 40065426, 'itemBmType': 'ZIGBANG'}, {'lat': 37.53755118794313, 'lng': 127.05516591358479, 'itemId': 40135243, 'itemBmType': 'ZIGBANG'}, {'lat': 37.537898345377684, 'lng': 127.08760935305422, 'itemId': 40092016, 'itemBmType': 'ZIGBANG'}, {'lat': 37.54039759366125, 'lng': 127.08590113278787, 'itemId': 39877279, 'itemBmType': 'ZIGBANG'}, {'lat': 37.54039997814445, 'lng': 127.08591391197908, 'itemId': 39897678, 'itemBmType': 'ZIGBANG'}, {'lat': 37.540470689708286, 'lng': 127.08429621444748, 'itemId': 40138584, 'itemBmType': 'ZIGBANG'}, {'lat': 37.54277502482178, 'lng': 127.0873476683582, 'itemId': 40153720, 'itemBmType': 'ZIGBANG'}, {'lat': 37.54516424187928, 'lng': 127.07802267172846, 'itemId': 39922578, 'itemBmType': 'ZIGBANG'}, {'lat': 37.54571523199846, 'lng': 127.06877869982425, 'itemId': 40066940, 'itemBmType': 'ZIGBANG'}, {'lat': 37.54631179698636, 'lng': 127.07160160441616, 'itemId': 40135836, 'itemBmType': 'ZIGBANG'}, {'lat': 37.54701806991119, 'lng': 127.06862280345216, 'itemId': 40151116, 'itemBmType': 'ZIGBANG'}, {'lat': 37.55020168015959, 'lng': 127.07013916377709, 'itemId': 40160454, 'itemBmType': 'ZIGBANG'}, {'lat': 37.555044350492, 'lng': 127.07310115184936, 'itemId': 40135601, 'itemBmType': 'PARTNERS'}, {'lat': 37.55455717167407, 'lng': 127.07308371326519, 'itemId': 40141901, 'itemBmType': 'ZIGBANG'}, {'lat': 37.556870396185374, 'lng': 127.08383926675896, 'itemId': 39991278, 'itemBmType': 'ZIGBANG'}, {'lat': 37.55734849006399, 'lng': 127.08383427362901, 'itemId': 40159050, 'itemBmType': 'ZIGBANG'}, {'lat': 37.5605230746784, 'lng': 127.04844166210694, 'itemId': 40137978, 'itemBmType': 'ZIGBANG'}, {'lat': 37.56174336729043, 'lng': 127.0857260848665, 'itemId': 40109969, 'itemBmType': 'ZIGBANG'}, {'lat': 37.561480450278395, 'lng': 127.05426408308291, 'itemId': 40085660, 'itemBmType': 'ZIGBANG'}, {'lat': 37.562158658798026, 'lng': 127.0848048456113, 'itemId': 39950507, 'itemBmType': 'ZIGBANG'}, {'lat': 37.56233972548582, 'lng': 127.04726126795657, 'itemId': 40102311, 'itemBmType': 'ZIGBANG'}, {'lat': 37.56231500282966, 'lng': 127.08505172764055, 'itemId': 40143515, 'itemBmType': 'ZIGBANG'}, {'lat': 37.56355100578737, 'lng': 127.05505775752013, 'itemId': 40163667, 'itemBmType': 'ZIGBANG'}]","[{'type': 'vip', 'itemIds': []}, {'type': '안심추천', 'itemIds': [40150111, 40065426, 40160454, 40135601, 40141901]}, {'type': '안심일반', 'itemIds': [40109282, 39937580, 39935963, 40109643, 40066365, 40064696, 40125447, 40135243, 40092016, 39877279, 39897678, 40138584, 40153720, 39922578, 40066940, 40135836, 40151116, 39991278, 40159050, 40137978, 40109969, 40085660, 39950507, 40102311, 40143515, 40163667]}, {'type': '추천', 'itemIds': []}, {'type': '일반', 'itemIds': []}]","[{'id': 54, 'name': '신답역', 'description': '2호선', 'subwayArea': '수도권', 'local1': '서울특별시', 'lat': 37.5700591, 'lng': 127.0464306, 'address': '서울 성동구 용답동 128'}, {'id': 21, 'name': '건대입구역', 'description': '2호선,7호선', 'subwayArea': '수도권', 'local1': '서울특별시', 'lat': 37.5398956, 'lng': 127.0706737, 'address': '서울 광진구 자양동 7-6'}, {'id': 348, 'name': '군자역', 'description': '5호선,7호선', 'subwayArea': '수도권', 'local1': '서울특별시', 'lat': 37.5571632385254, 'lng': 127.079444885254, 'address': '서울시 광진구 능동 277'}, {'id': 20, 'name': '성수역', 'description': '2호선', 'subwayArea': '수도권', 'local1': '서울특별시', 'lat': 37.544569, 'lng': 127.055974, 'address': '서울 성동구 성수동2가 300-4'}, {'id': 53, 'name': '용답역', 'description': '2호선', 'subwayArea': '수도권', 'local1': '서울특별시', 'lat': 37.5622711181641, 'lng': 127.051002502441, 'address': '서울 성동구 사근동 238'}, {'id': 402, 'name': '중곡역', 'description': '7호선', 'subwayArea': '수도권', 'local1': '서울특별시', 'lat': 37.5657901, 'lng': 127.0842577, 'address': '서울시 광진구 중곡동 167'}, {'id': 347, 'name': '장한평역', 'description': '5호선', 'subwayArea': '수도권', 'local1': '서울특별시', 'lat': 37.5614852905273, 'lng': 127.064392089844, 'address': '서울시 동대문구 장안동 416'}, {'id': 346, 'name': '답십리역', 'description': '5호선', 'subwayArea': '수도권', 'local1': '서울특별시', 'lat': 37.5664291381836, 'lng': 127.053146362305, 'address': '서울시 성동구 용답동 99'}, {'id': 404, 'name': '뚝섬유원지역', 'description': '7호선', 'subwayArea': '수도권', 'local1': '서울특별시', 'lat': 37.5316925048828, 'lng': 127.066848754883, 'address': '서울 광진구 자양동 71-2'}, {'id': 19, 'name': '뚝섬역', 'description': '2호선', 'subwayArea': '수도권', 'local1': '서울특별시', 'lat': 37.5471687316894, 'lng': 127.047332763672, 'address': '서울 성동구 성수1가2동 656-745'}, {'id': 349, 'name': '아차산역', 'description': '5호선', 'subwayArea': '수도권', 'local1': '서울특별시', 'lat': 37.552027, 'lng': 127.08963, 'address': '서울시 광진구 능동 256'}, {'id': 403, 'name': '어린이대공원역', 'description': '7호선', 'subwayArea': '수도권', 'local1': '서울특별시', 'lat': 37.5480032, 'lng': 127.074607, 'address': '서울 광진구 능동 463-5'}, {'id': 22, 'name': '구의역', 'description': '2호선', 'subwayArea': '수도권', 'local1': '서울특별시', 'lat': 37.537145, 'lng': 127.086135, 'address': '서울 광진구 자양동 216-16 '}]",False
"[{'lat': 37.55873070641453, 'lng': 126.94008397106876, 'itemId': 40144219, 'itemBmType': 'ZIGBANG'}, {'lat': 37.562913905253716, 'lng': 126.92976233299956, 'itemId': 40105324, 'itemBmType': 'ZIGBANG'}, {'lat': 37.56376153605815, 'lng': 126.91723456134444, 'itemId': 40157012, 'itemBmType': 'ZIGBANG'}, {'lat': 37.563763611613645, 'lng': 126.91660777183397, 'itemId': 40164407, 'itemBmType': 'PARTNERS'}, {'lat': 37.56731072298014, 'lng': 126.94801289818636, 'itemId': 39971857, 'itemBmType': 'ZIGBANG'}]","[{'type': 'vip', 'itemIds': []}, {'type': '안심추천', 'itemIds': [40164407]}, {'type': '안심일반', 'itemIds': [40144219, 40105324, 40157012, 39971857]}, {'type': '추천', 'itemIds': []}, {'type': '일반', 'itemIds': []}]","[{'id': 49, 'name': '신촌역', 'description': '2호선', 'subwayArea': '수도권', 'local1': '서울특별시', 'lat': 37.5551399, 'lng': 126.9369074, 'address': '서울 서대문구 창천동 18-52'}, {'id': 154, 'name': '공덕역', 'description': '5호선,6호선,경의선,공항철도', 'subwayArea': '수도권', 'local1': '서울특별시', 'lat': 37.5438253, 'lng': 126.9509914, 'address': '서울시 마포구 도화동 25-13'}, {'id': 375, 'name': '대흥역', 'description': '6호선', 'subwayArea': '수도권', 'local1': '서울특별시', 'lat': 37.5476455688477, 'lng': 126.942054748535, 'address': '서울시 마포구 대흥동 267'}, {'id': 48, 'name': '홍대입구역', 'description': '2호선,경의선,공항철도', 'subwayArea': '수도권', 'local1': '서울특별시', 'lat': 37.556838, 'lng': 126.923774, 'address': '서울 마포구 동교동 159-5'}, {'id': 51, 'name': '아현역', 'description': '2호선', 'subwayArea': '수도권', 'local1': '서울특별시', 'lat': 37.5576210021973, 'lng': 126.956199645996, 'address': '서울 서대문구 북아현동 251-70'}, {'id': 373, 'name': '상수역', 'description': '6호선', 'subwayArea': '수도권', 'local1': '서울특별시', 'lat': 37.547736, 'lng': 126.92296, 'address': '서울시 마포구 상수동 309-10'}, {'id': 153, 'name': '신촌역', 'description': '경의선', 'subwayArea': '수도권', 'local1': '서울특별시', 'lat': 37.5598030090332, 'lng': 126.941917419434, 'address': '서울 서대문구 신촌동 74-12'}, {'id': 50, 'name': '이대역', 'description': '2호선', 'subwayArea': '수도권', 'local1': '서울특별시', 'lat': 37.5568038, 'lng': 126.946309, 'address': '서울 마포구 대흥동 2'}, {'id': 156, 'name': '가좌역', 'description': '경의선', 'subwayArea': '수도권', 'local1': '서울특별시', 'lat': 37.5684661865234, 'lng': 126.916000366211, 'address': '서울 서대문구 남가좌동 292-15'}, {'id': 47, 'name': '합정역', 'description': '2호선,6호선', 'subwayArea': '수도권', 'local1': '서울특별시', 'lat': 37.5499284, 'lng': 126.914407, 'address': '서울 마포구 서교동 393'}, {'id': 339, 'name': '애오개역', 'description': '5호선', 'subwayArea': '수도권', 'local1': '서울특별시', 'lat': 37.5533447265625, 'lng': 126.956581115723, 'address': '서울시 마포구 아현동612'}, {'id': 155, 'name': '서강대역', 'description': '경의선', 'subwayArea': '수도권', 'local1': '서울특별시', 'lat': 37.5513343811035, 'lng': 126.935516357422, 'address': '서울 마포구 신수동 450'}, {'id': 338, 'name': '마포역', 'description': '5호선', 'subwayArea': '수도권', 'local1': '서울특별시', 'lat': 37.5395660400391, 'lng': 126.945892333984, 'address': '서울시 마포구 도화동 160'}, {'id': 374, 'name': '광흥창역', 'description': '6호선', 'subwayArea': '수도권', 'local1': '서울특별시', 'lat': 37.5472869873047, 'lng': 126.93172454834, 'address': '서울 마포구 창전동 239'}]",False
"[{'lat': 37.48938252370344, 'lng': 126.93595370898062, 'itemId': 39696446, 'itemBmType': 'PARTNERS'}, {'lat': 37.4897325716244, 'lng': 126.93697269968443, 'itemId': 40101167, 'itemBmType': 'PARTNERS'}, {'lat': 37.494264280463746, 'lng': 126.9546604761051, 'itemId': 40148180, 'itemBmType': 'ZIGBANG'}, {'lat': 37.4978656310796, 'lng': 126.93345003167833, 'itemId': 40153779, 'itemBmType': 'ZIGBANG'}, {'lat': 37.49831804685358, 'lng': 126.94073864580238, 'itemId': 40159885, 'itemBmType': 'PARTNERS'}, {'lat': 37.499783587346684, 'lng': 126.93675095974662, 'itemId': 40132097, 'itemBmType': 'ZIGBANG'}, {'lat': 37.50035798695048, 'lng': 126.9405897461428, 'itemId': 40000131, 'itemBmType': 'PARTNERS'}]","[{'type': 'vip', 'itemIds': []}, {'type': '안심추천', 'itemIds': [39696446, 40101167, 40148180, 40159885, 40000131]}, {'type': '안심일반', 'itemIds': [40153779, 40132097]}, {'type': '추천', 'itemIds': []}, {'type': '일반', 'itemIds': []}]","[{'id': 1249, 'name': '당곡역', 'description': '신림선경전철', 'subwayArea': '', 'local1': '서울특별시', 'lat': 37.48989, 'lng': 126.927718, 'address': '서울시\xa0관악구\xa0봉천동 985'}, {'id': 414, 'name': '신대방삼거리역', 'description': '7호선', 'subwayArea': '수도권', 'local1': '서울특별시', 'lat': 37.499717, 'lng': 126.928189, 'address': '서울시 동작구 대방동 393'}, {'id': 1246, 'name': '서울지방병무청역', 'description': '신림선경전철', 'subwayArea': '', 'local1': '서울특별시', 'lat': 37.505766, 'lng': 126.922726, 'address': '서울시\xa0동작구\xa0대방동\xa0466-41'}, {'id': 336, 'name': '여의도역', 'description': '5호선,9호선', 'subwayArea': '수도권', 'local1': '서울특별시', 'lat': 37.5216257, 'lng': 126.924219, 'address': '서울 영등포구 여의도동 35-5'}, {'id': 412, 'name': '상도역', 'description': '7호선', 'subwayArea': '수도권', 'local1': '서울특별시', 'lat': 37.5028976, 'lng': 126.947971, 'address': '서울시 동작구 상도1동 752-2'}, {'id': 1248, 'name': '보라매병원역', 'description': '신림선경전철', 'subwayArea': '', 'local1': '서울특별시', 'lat': 37.492946, 'lng': 126.923671, 'address': '서울시 동작구 신대방동 395-61'}, {'id': 415, 'name': '보라매역', 'description': '7호선,신림선경전철', 'subwayArea': '수도권', 'local1': '서울특별시', 'lat': 37.4998779, 'lng': 126.9202444, 'address': '서울시 영등포구 신길동 508'}, {'id': 478, 'name': '국회의사당역', 'description': '9호선', 'subwayArea': '수도권', 'local1': '서울특별시', 'lat': 37.528128, 'lng': 126.917853, 'address': '서울 영등포구 여의도동 17-1'}, {'id': 115, 'name': '대방역', 'description': '1호선,신림선경전철', 'subwayArea': '수도권', 'local1': '서울특별시', 'lat': 37.513392, 'lng': 126.926407, 'address': '서울 영등포구 신길동 1368-3'}, {'id': 480, 'name': '노들역', 'description': '9호선', 'subwayArea': '수도권', 'local1': '서울특별시', 'lat': 37.5126442, 'lng': 126.953246, 'address': '서울 동작구 본동 148'}, {'id': 479, 'name': '샛강역', 'description': '9호선,신림선경전철', 'subwayArea': '수도권', 'local1': '서울특별시', 'lat': 37.5174926, 'lng': 126.928233, 'address': '서울 영등포구 여의도동 56'}, {'id': 411, 'name': '숭실대입구역', 'description': '7호선', 'subwayArea': '수도권', 'local1': '서울특별시', 'lat': 37.4963452, 'lng': 126.953663, 'address': '서울 동작구 상도동 515'}, {'id': 132, 'name': '신길역', 'description': '1호선,5호선', 'subwayArea': '수도권', 'local1': '서울특별시', 'lat': 37.5171432495117, 'lng': 126.91641998291, 'address': '서울시 영등포구 신길동 42-2'}, {'id': 114, 'name': '노량진역', 'description': '1호선,9호선', 'subwayArea': '수도권', 'local1': '서울특별시', 'lat': 37.5136439, 'lng': 126.94211, 'address': '서울시 동작구 노량진1동 112'}, {'id': 337, 'name': '여의나루역', 'description': '5호선', 'subwayArea': '수도권', 'local1': '서울특별시', 'lat': 37.5271293, 'lng': 126.932961, 'address': '서울 영등포구 여의도동 30'}, {'id': 1247, 'name': '보라매공원역', 'description': '신림선경전철', 'subwayArea': '', 'local1': '서울특별시', 'lat': 37.49533, 'lng': 126.918122, 'address': '서울시\xa0동작구\xa0신대방동 722'}, {'id': 413, 'name': '장승배기역', 'description': '7호선', 'subwayArea': '수도권', 'local1': '서울특별시', 'lat': 37.504905, 'lng': 126.939191, 'address': '서울시 동작구 상도2동 366'}]",False
[],"[{'type': 'vip', 'itemIds': []}, {'type': '안심추천', 'itemIds': []}, {'type': '안심일반', 'itemIds': []}, {'type': '추천', 'itemIds': []}, {'type': '일반', 'itemIds': []}]","[{'id': 409, 'name': '내방역', 'description': '7호선', 'subwayArea': '수도권', 'local1': '서울특별시', 'lat': 37.487707, 'lng': 126.993598, 'address': '서울시 서초구 방배동 874'}, {'id': 482, 'name': '구반포역', 'description': '9호선', 'subwayArea': '수도권', 'local1': '서울특별시', 'lat': 37.5013767, 'lng': 126.987181, 'address': '서울 서초구 반포본동 1053'}, {'id': 483, 'name': '신반포역', 'description': '9호선', 'subwayArea': '수도권', 'local1': '서울특별시', 'lat': 37.503487, 'lng': 126.996017, 'address': '서울 서초구 반포동 10'}, {'id': 110, 'name': '총신대입구(이수)역', 'description': '4호선,7호선', 'subwayArea': '수도권', 'local1': '서울특별시', 'lat': 37.4869419, 'lng': 126.982168, 'address': '서울 동작구 사당동 135-2'}, {'id': 108, 'name': '이촌역', 'description': '4호선,중앙선', 'subwayArea': '수도권', 'local1': '서울특별시', 'lat': 37.5225931, 'lng': 126.973721, 'address': '서울 용산구 용산동5가 17'}, {'id': 107, 'name': '신용산역', 'description': '4호선', 'subwayArea': '수도권', 'local1': '서울특별시', 'lat': 37.529187, 'lng': 126.967886, 'address': '서울 용산구 한강로2가 181'}, {'id': 109, 'name': '동작역', 'description': '4호선,9호선', 'subwayArea': '수도권', 'local1': '서울특별시', 'lat': 37.5025561, 'lng': 126.980423, 'address': '서울 동작구 동작동 121-5'}, {'id': 481, 'name': '흑석역', 'description': '9호선', 'subwayArea': '수도권', 'local1': '서울특별시', 'lat': 37.5089312, 'lng': 126.963643, 'address': '서울 동작구 흑석동 115-1'}, {'id': 117, 'name': '서빙고역', 'description': '중앙선', 'subwayArea': '수도권', 'local1': '서울특별시', 'lat': 37.5192909240723, 'lng': 126.98796081543, 'address': '서울 용산구 서빙고동 241-6'}]",True
[],"[{'type': 'vip', 'itemIds': []}, {'type': '안심추천', 'itemIds': []}, {'type': '안심일반', 'itemIds': []}, {'type': '추천', 'itemIds': []}, {'type': '일반', 'itemIds': []}]","[{'id': 68, 'name': '경복궁역', 'description': '3호선', 'subwayArea': '수도권', 'local1': '서울특별시', 'lat': 37.5758857727051, 'lng': 126.973236083984, 'address': '서울 종로구 적선동 8-1'}, {'id': 102, 'name': '혜화역', 'description': '4호선', 'subwayArea': '수도권', 'local1': '서울특별시', 'lat': 37.5824178, 'lng': 127.001873, 'address': '서울 종로구 명륜동 4가 1'}, {'id': 69, 'name': '안국역', 'description': '3호선', 'subwayArea': '수도권', 'local1': '서울특별시', 'lat': 37.576556, 'lng': 126.985472, 'address': '서울 종로구 안국동 148'}]",True
"[{'lat': 37.529743482801486, 'lng': 127.13495491030775, 'itemId': 40130995, 'itemBmType': 'PARTNERS'}, {'lat': 37.535083784411505, 'lng': 127.1417340513318, 'itemId': 40144731, 'itemBmType': 'PARTNERS'}, {'lat': 37.539503399235784, 'lng': 127.14021668842693, 'itemId': 40117875, 'itemBmType': 'ZIGBANG'}, {'lat': 37.54829984553925, 'lng': 127.13489123429308, 'itemId': 40036166, 'itemBmType': 'ZIGBANG'}]","[{'type': 'vip', 'itemIds': []}, {'type': '안심추천', 'itemIds': [40130995, 40144731]}, {'type': '안심일반', 'itemIds': [40117875, 40036166]}, {'type': '추천', 'itemIds': []}, {'type': '일반', 'itemIds': []}]","[{'id': 356, 'name': '고덕역', 'description': '5호선', 'subwayArea': '수도권', 'local1': '서울특별시', 'lat': 37.555051, 'lng': 127.15411, 'address': '서울시 강동구 고덕동 310'}, {'id': 353, 'name': '길동역', 'description': '5호선', 'subwayArea': '수도권', 'local1': '서울특별시', 'lat': 37.5377716, 'lng': 127.139939, 'address': '서울시 강동구 길동 378'}, {'id': 354, 'name': '굽은다리역', 'description': '5호선', 'subwayArea': '수도권', 'local1': '서울특별시', 'lat': 37.5460548400879, 'lng': 127.143180847168, 'address': '서울시 강동구 명일1동 345-12'}, {'id': 357, 'name': '상일동역', 'description': '5호선', 'subwayArea': '수도권', 'local1': '서울특별시', 'lat': 37.5567256, 'lng': 127.1663966, 'address': '서울 강동구 상일동 121-1'}, {'id': 355, 'name': '명일역', 'description': '5호선', 'subwayArea': '수도권', 'local1': '서울특별시', 'lat': 37.55131, 'lng': 127.144014, 'address': '서울 강동구 명일동 312-74'}]",False
[],"[{'type': 'vip', 'itemIds': []}, {'type': '안심추천', 'itemIds': []}, {'type': '안심일반', 'itemIds': []}, {'type': '추천', 'itemIds': []}, {'type': '일반', 'itemIds': []}]","[{'id': 370, 'name': '월드컵경기장역', 'description': '6호선', 'subwayArea': '수도권', 'local1': '서울특별시', 'lat': 37.5699234008789, 'lng': 126.899002075195, 'address': '서울시 마포구 성산2동 420'}, {'id': 477, 'name': '선유도역', 'description': '9호선', 'subwayArea': '수도권', 'local1': '서울특별시', 'lat': 37.5378339, 'lng': 126.893947, 'address': '서울 영등포구 양평동 61-2'}, {'id': 46, 'name': '당산역', 'description': '2호선,9호선', 'subwayArea': '수도권', 'local1': '서울특별시', 'lat': 37.533875, 'lng': 126.90196, 'address': '서울 영등포구 당산동6가 298'}, {'id': 476, 'name': '신목동역', 'description': '9호선', 'subwayArea': '수도권', 'local1': '서울특별시', 'lat': 37.5443333, 'lng': 126.883052, 'address': '서울 양천구 목동 136-2'}, {'id': 372, 'name': '망원역', 'description': '6호선', 'subwayArea': '수도권', 'local1': '서울특별시', 'lat': 37.556037902832, 'lng': 126.910003662109, 'address': '서울시 마포구 망원동 378'}, {'id': 475, 'name': '염창역', 'description': '9호선', 'subwayArea': '수도권', 'local1': '서울특별시', 'lat': 37.5469556, 'lng': 126.874646, 'address': '서울 강서구 염창동 282-22'}, {'id': 371, 'name': '마포구청역', 'description': '6호선', 'subwayArea': '수도권', 'local1': '서울특별시', 'lat': 37.5633888244629, 'lng': 126.903335571289, 'address': '서울시 마포구 성산2동 592'}]",True
"[{'lat': 37.50737446922201, 'lng': 126.89895617776531, 'itemId': 39921064, 'itemBmType': 'ZIGBANG'}]","[{'type': 'vip', 'itemIds': []}, {'type': '안심추천', 'itemIds': []}, {'type': '안심일반', 'itemIds': [39921064]}, {'type': '추천', 'itemIds': []}, {'type': '일반', 'itemIds': []}]","[{'id': 55, 'name': '도림천역', 'description': '2호선', 'subwayArea': '수도권', 'local1': '서울특별시', 'lat': 37.5142728, 'lng': 126.8827957, 'address': '서울 구로구 신도림동 271-97'}, {'id': 334, 'name': '양평역', 'description': '5호선', 'subwayArea': '수도권', 'local1': '서울특별시', 'lat': 37.5255913, 'lng': 126.886416, 'address': '서울시 영등포구 양평동 2가 33-79'}, {'id': 333, 'name': '오목교역', 'description': '5호선', 'subwayArea': '수도권', 'local1': '서울특별시', 'lat': 37.5245551, 'lng': 126.875212, 'address': '서울 양천구 목동 405-267'}, {'id': 44, 'name': '문래역', 'description': '2호선', 'subwayArea': '수도권', 'local1': '서울특별시', 'lat': 37.517989, 'lng': 126.894808, 'address': '서울 영등포구 문래동3가 68-1'}, {'id': 260, 'name': '구일역', 'description': '1호선', 'subwayArea': '수도권', 'local1': '서울특별시', 'lat': 37.4966646, 'lng': 126.870865, 'address': '서울 구로구 구로동 636-46'}, {'id': 41, 'name': '구로디지털단지역', 'description': '2호선', 'subwayArea': '수도권', 'local1': '서울특별시', 'lat': 37.4853553771973, 'lng': 126.901123046875, 'address': '서울 구로구 구로동 810-3'}, {'id': 116, 'name': '영등포역', 'description': '1호선', 'subwayArea': '수도권', 'local1': '서울특별시', 'lat': 37.51551, 'lng': 126.907796, 'address': '서울 영등포구 영등포1동 618'}, {'id': 45, 'name': '영등포구청역', 'description': '2호선,5호선', 'subwayArea': '수도권', 'local1': '서울특별시', 'lat': 37.524152, 'lng': 126.89628, 'address': '서울 영등포구 당산동 3가 385'}, {'id': 205, 'name': '구로역', 'description': '1호선', 'subwayArea': '수도권', 'local1': '서울특별시', 'lat': 37.5031089782715, 'lng': 126.882568359375, 'address': '서울 구로구 구로동 587-4'}, {'id': 42, 'name': '대림역', 'description': '2호선,7호선', 'subwayArea': '수도권', 'local1': '서울특별시', 'lat': 37.4919784, 'lng': 126.8954424, 'address': '서울 구로구 구로6동 125-66'}, {'id': 40, 'name': '신대방역', 'description': '2호선', 'subwayArea': '수도권', 'local1': '서울특별시', 'lat': 37.4875526428223, 'lng': 126.912956237793, 'address': '서울 동작구 신대방1동 643-1'}, {'id': 43, 'name': '신도림역', 'description': '1호선,2호선', 'subwayArea': '수도권', 'local1': '서울특별시', 'lat': 37.5087432861328, 'lng': 126.891128540039, 'address': '서울 구로구 신도림동 460-26'}, {'id': 335, 'name': '영등포시장역', 'description': '5호선', 'subwayArea': '수도권', 'local1': '서울특별시', 'lat': 37.522709, 'lng': 126.905095, 'address': '서울시 영등포구 영등포동 5가 45'}, {'id': 416, 'name': '신풍역', 'description': '7호선', 'subwayArea': '수도권', 'local1': '서울특별시', 'lat': 37.500096, 'lng': 126.9099346, 'address': '서울시 영등포구 신길동 3599'}, {'id': 417, 'name': '남구로역', 'description': '7호선', 'subwayArea': '수도권', 'local1': '서울특별시', 'lat': 37.486087, 'lng': 126.887272, 'address': '서울시 구로구 구로동 800'}]",False
"[{'lat': 37.54255353346193, 'lng': 126.99360034289062, 'itemId': 40153743, 'itemBmType': 'ZIGBANG'}]","[{'type': 'vip', 'itemIds': []}, {'type': '안심추천', 'itemIds': []}, {'type': '안심일반', 'itemIds': [40153743]}, {'type': '추천', 'itemIds': []}, {'type': '일반', 'itemIds': []}]","[{'id': 11, 'name': '을지로입구역', 'description': '2호선', 'subwayArea': '수도권', 'local1': '서울특별시', 'lat': 37.566047668457, 'lng': 126.982398986816, 'address': '서울 중구 을지로1가 89-1'}, {'id': 104, 'name': '회현역', 'description': '4호선', 'subwayArea': '수도권', 'local1': '서울특별시', 'lat': 37.558541, 'lng': 126.978203, 'address': '서울 중구 남창동 46'}, {'id': 105, 'name': '숙대입구역', 'description': '4호선', 'subwayArea': '수도권', 'local1': '서울특별시', 'lat': 37.544897, 'lng': 126.97205, 'address': '서울 용산구 갈월동 69-97'}, {'id': 5, 'name': '종로5가역', 'description': '1호선', 'subwayArea': '수도권', 'local1': '서울특별시', 'lat': 37.570988, 'lng': 127.001921, 'address': '서울 종로구 종로5가 90-1'}, {'id': 3, 'name': '종각역', 'description': '1호선', 'subwayArea': '수도권', 'local1': '서울특별시', 'lat': 37.570169, 'lng': 126.983099, 'address': '서울 종로구 종로1가 44번지'}, {'id': 52, 'name': '충정로역', 'description': '2호선,5호선', 'subwayArea': '수도권', 'local1': '서울특별시', 'lat': 37.5599053, 'lng': 126.963482, 'address': '서울 서대문구 충정로 3가 295-60'}, {'id': 103, 'name': '명동역', 'description': '4호선', 'subwayArea': '수도권', 'local1': '서울특별시', 'lat': 37.560965, 'lng': 126.986464, 'address': '서울 중구 충무로1가 64'}, {'id': 379, 'name': '한강진역', 'description': '6호선', 'subwayArea': '수도권', 'local1': '서울특별시', 'lat': 37.5402755737305, 'lng': 127.001724243164, 'address': '서울시 용산구 한남동 산10-33'}, {'id': 13, 'name': '을지로4가역', 'description': '2호선,5호선', 'subwayArea': '수도권', 'local1': '서울특별시', 'lat': 37.5666977, 'lng': 126.998123, 'address': '서울 중구 을지로4가 261-1'}, {'id': 2, 'name': '시청역', 'description': '1호선,2호선', 'subwayArea': '수도권', 'local1': '서울특별시', 'lat': 37.5656242370605, 'lng': 126.976936340332, 'address': '서울 중구 정동 5-5'}, {'id': 377, 'name': '녹사평역', 'description': '6호선', 'subwayArea': '수도권', 'local1': '서울특별시', 'lat': 37.534574, 'lng': 126.986877, 'address': '서울시 용산구 용산동 4가 4'}, {'id': 341, 'name': '광화문역', 'description': '5호선', 'subwayArea': '수도권', 'local1': '서울특별시', 'lat': 37.5716621, 'lng': 126.97642, 'address': '서울시 종로구 도렴동 83'}, {'id': 12, 'name': '을지로3가역', 'description': '2호선,3호선', 'subwayArea': '수도권', 'local1': '서울특별시', 'lat': 37.5661010742188, 'lng': 126.991058349609, 'address': '서울 중구 을지로3가 334-3'}, {'id': 376, 'name': '효창공원앞역', 'description': '6호선,경의선', 'subwayArea': '수도권', 'local1': '서울특별시', 'lat': 37.539289, 'lng': 126.961339, 'address': '서울시 용산구 효창동 70'}, {'id': 340, 'name': '서대문역', 'description': '5호선', 'subwayArea': '수도권', 'local1': '서울특별시', 'lat': 37.5657582, 'lng': 126.966631, 'address': '서울 중구 충정로1가 88-8'}, {'id': 378, 'name': '이태원역', 'description': '6호선', 'subwayArea': '수도권', 'local1': '서울특별시', 'lat': 37.5344657897949, 'lng': 126.993690490723, 'address': '서울시 용산구 이태원동 127'}, {'id': 106, 'name': '삼각지역', 'description': '4호선,6호선', 'subwayArea': '수도권', 'local1': '서울특별시', 'lat': 37.5353378, 'lng': 126.973858, 'address': '서울 용산구 한강로1가 293'}, {'id': 113, 'name': '용산역', 'description': '1호선,중앙선', 'subwayArea': '수도권', 'local1': '서울특별시', 'lat': 37.5295677185059, 'lng': 126.964164733887, 'address': '서울 용산구 한강로3가 40-999'}, {'id': 1, 'name': '서울역', 'description': '1호선,4호선,경의선,공항철도', 'subwayArea': '수도권', 'local1': '서울특별시', 'lat': 37.5557289123535, 'lng': 126.972145080566, 'address': '서울 중구 봉래동2가 122-25'}, {'id': 70, 'name': '충무로역', 'description': '3호선,4호선', 'subwayArea': '수도권', 'local1': '서울특별시', 'lat': 37.5612798, 'lng': 126.9942728, 'address': '서울 중구 충무로4가 125'}, {'id': 4, 'name': '종로3가역', 'description': '1호선,3호선,5호선', 'subwayArea': '수도권', 'local1': '서울특별시', 'lat': 37.5715695, 'lng': 126.991895, 'address': '서울 종로구 종로3가 81-1'}, {'id': 112, 'name': '남영역', 'description': '1호선', 'subwayArea': '수도권', 'local1': '서울특별시', 'lat': 37.5416412353516, 'lng': 126.971229553223, 'address': '서울시 용산구 갈월동 96-1'}]",False
[],"[{'type': 'vip', 'itemIds': []}, {'type': '안심추천', 'itemIds': []}, {'type': '안심일반', 'itemIds': []}, {'type': '추천', 'itemIds': []}, {'type': '일반', 'itemIds': []}]","[{'id': 468, 'name': '개화역', 'description': '9호선', 'subwayArea': '수도권', 'local1': '서울특별시', 'lat': 37.5785331726074, 'lng': 126.797904968262, 'address': '서울 강서구 개화동 493-3'}, {'id': 323, 'name': '방화역', 'description': '5호선', 'subwayArea': '수도권', 'local1': '서울특별시', 'lat': 37.5773839, 'lng': 126.8127402, 'address': '서울 강서구 방화동 830-6'}]",True
"[{'lat': 37.5321337544909, 'lng': 126.82644080821636, 'itemId': 39167000, 'itemBmType': 'PARTNERS'}, {'lat': 37.53344315052781, 'lng': 126.82377957837913, 'itemId': 39880988, 'itemBmType': 'PARTNERS'}, {'lat': 37.53421505457823, 'lng': 126.82432298971248, 'itemId': 40164870, 'itemBmType': 'PARTNERS'}]","[{'type': 'vip', 'itemIds': []}, {'type': '안심추천', 'itemIds': [39167000, 39880988, 40164870]}, {'type': '안심일반', 'itemIds': []}, {'type': '추천', 'itemIds': []}, {'type': '일반', 'itemIds': []}]","[{'id': 327, 'name': '마곡역', 'description': '5호선', 'subwayArea': '수도권', 'local1': '서울특별시', 'lat': 37.5601546, 'lng': 126.824643, 'address': '서울시 강서구 가양동 531'}, {'id': 469, 'name': '공항시장역', 'description': '9호선', 'subwayArea': '수도권', 'local1': '서울특별시', 'lat': 37.5637235, 'lng': 126.810685, 'address': '서울 강서구 공항동 22-50'}, {'id': 326, 'name': '송정역', 'description': '5호선', 'subwayArea': '수도권', 'local1': '서울특별시', 'lat': 37.5611405, 'lng': 126.812429, 'address': '서울시 강서구 공항동 27-1'}, {'id': 325, 'name': '김포공항역', 'description': '5호선,9호선,공항철도,김포골드라인,서해선', 'subwayArea': '수도권', 'local1': '서울특별시', 'lat': 37.5619647, 'lng': 126.801323, 'address': '서울 강서구 과해동 676-2'}, {'id': 324, 'name': '개화산역', 'description': '5호선', 'subwayArea': '수도권', 'local1': '서울특별시', 'lat': 37.57237, 'lng': 126.8061738, 'address': '서울시 강서구 방화3동 531-16'}, {'id': 470, 'name': '신방화역', 'description': '9호선', 'subwayArea': '수도권', 'local1': '서울특별시', 'lat': 37.5674816, 'lng': 126.816986, 'address': '서울 강서구 방화동 217-156'}]",False
"[{'lat': 37.52963051132733, 'lng': 126.8316987687157, 'itemId': 39733245, 'itemBmType': 'PARTNERS'}, {'lat': 37.53701637272183, 'lng': 126.84475797754956, 'itemId': 39907125, 'itemBmType': 'ZIGBANG'}, {'lat': 37.53651394014846, 'lng': 126.84475865050496, 'itemId': 40107281, 'itemBmType': 'ZIGBANG'}, {'lat': 37.53789509887918, 'lng': 126.83505769989812, 'itemId': 39239784, 'itemBmType': 'PARTNERS'}, {'lat': 37.538315251207486, 'lng': 126.83306335146406, 'itemId': 39164460, 'itemBmType': 'PARTNERS'}, {'lat': 37.53829884670192, 'lng': 126.83307340069284, 'itemId': 40154892, 'itemBmType': 'PARTNERS'}, {'lat': 37.547132937705605, 'lng': 126.84973256380566, 'itemId': 40091280, 'itemBmType': 'ZIGBANG'}, {'lat': 37.54818335029445, 'lng': 126.85121259025163, 'itemId': 40124813, 'itemBmType': 'ZIGBANG'}]","[{'type': 'vip', 'itemIds': []}, {'type': '안심추천', 'itemIds': [39733245, 39239784, 39164460, 40154892]}, {'type': '안심일반', 'itemIds': [39907125, 40107281, 40091280, 40124813]}, {'type': '추천', 'itemIds': []}, {'type': '일반', 'itemIds': []}]","[{'id': 474, 'name': '등촌역', 'description': '9호선', 'subwayArea': '수도권', 'local1': '서울특별시', 'lat': 37.5508062, 'lng': 126.865371, 'address': '서울 강서구 등촌동 648-9'}, {'id': 328, 'name': '발산역', 'description': '5호선', 'subwayArea': '수도권', 'local1': '서울특별시', 'lat': 37.5588125, 'lng': 126.837455, 'address': '서울시 강서구 가양동 968'}, {'id': 472, 'name': '가양역', 'description': '9호선', 'subwayArea': '수도권', 'local1': '서울특별시', 'lat': 37.5613396, 'lng': 126.854577, 'address': '서울 강서구 가양동 14-84'}, {'id': 471, 'name': '양천향교역', 'description': '9호선', 'subwayArea': '수도권', 'local1': '서울특별시', 'lat': 37.568193, 'lng': 126.841671, 'address': '서울 강서구 가양동 150-34'}, {'id': 330, 'name': '화곡역', 'description': '5호선', 'subwayArea': '수도권', 'local1': '서울특별시', 'lat': 37.5416683, 'lng': 126.840443, 'address': '서울시 강서구 화곡7동 1075'}, {'id': 59, 'name': '까치산역', 'description': '2호선,5호선', 'subwayArea': '수도권', 'local1': '서울특별시', 'lat': 37.5317498, 'lng': 126.846715, 'address': '서울 강서구 화곡1동 343'}, {'id': 1033, 'name': '마곡나루역', 'description': '9호선,공항철도', 'subwayArea': '수도권', 'local1': '서울특별시', 'lat': 37.5667269, 'lng': 126.827401, 'address': '서울특별시 강서구 마곡중앙5로 2'}, {'id': 329, 'name': '우장산역', 'description': '5호선', 'subwayArea': '수도권', 'local1': '서울특별시', 'lat': 37.5488053, 'lng': 126.83632, 'address': '서울시 강서구 내발산동 723'}, {'id': 473, 'name': '증미역', 'description': '9호선', 'subwayArea': '수도권', 'local1': '서울특별시', 'lat': 37.5582067, 'lng': 126.860446, 'address': '서울 강서구 등촌동 630-2'}]",False
"[{'lat': 37.581634132051605, 'lng': 126.91749744539177, 'itemId': 40136783, 'itemBmType': 'ZIGBANG'}, {'lat': 37.591726244303345, 'lng': 126.91549841966041, 'itemId': 39920847, 'itemBmType': 'ZIGBANG'}, {'lat': 37.593294263909385, 'lng': 126.91758438780386, 'itemId': 40153403, 'itemBmType': 'ZIGBANG'}]","[{'type': 'vip', 'itemIds': []}, {'type': '안심추천', 'itemIds': [40136783]}, {'type': '안심일반', 'itemIds': [39920847, 40153403]}, {'type': '추천', 'itemIds': []}, {'type': '일반', 'itemIds': []}]","[{'id': 63, 'name': '불광역', 'description': '3호선,6호선', 'subwayArea': '수도권', 'local1': '서울특별시', 'lat': 37.6109123229981, 'lng': 126.929733276367, 'address': '서울 은평구 불광동 281-229'}, {'id': 66, 'name': '무악재역', 'description': '3호선', 'subwayArea': '수도권', 'local1': '서울특별시', 'lat': 37.5822759, 'lng': 126.9503465, 'address': '서울 서대문구 홍제2동 26-1'}, {'id': 65, 'name': '홍제역', 'description': '3호선', 'subwayArea': '수도권', 'local1': '서울특별시', 'lat': 37.588792, 'lng': 126.944094, 'address': '서울 서대문구 홍제동 330-66'}, {'id': 64, 'name': '녹번역', 'description': '3호선', 'subwayArea': '수도권', 'local1': '서울특별시', 'lat': 37.600869, 'lng': 126.935761, 'address': '서울 은평구 녹번동 48'}, {'id': 364, 'name': '응암역', 'description': '6호선', 'subwayArea': '수도권', 'local1': '서울특별시', 'lat': 37.598676, 'lng': 126.9155705, 'address': '서울 은평구 신사동 23-6'}, {'id': 67, 'name': '독립문역', 'description': '3호선', 'subwayArea': '수도권', 'local1': '서울특별시', 'lat': 37.574453, 'lng': 126.957918, 'address': '서울 서대문구 현저동 101'}, {'id': 365, 'name': '역촌역', 'description': '6호선', 'subwayArea': '수도권', 'local1': '서울특별시', 'lat': 37.606076, 'lng': 126.9227308, 'address': '서울시 은평구 녹번동 144-69번지'}, {'id': 367, 'name': '구산역', 'description': '6호선', 'subwayArea': '수도권', 'local1': '서울특별시', 'lat': 37.6111946105957, 'lng': 126.917152404785, 'address': '서울시 은평구 구산동 1'}]",False
[],"[{'type': 'vip', 'itemIds': []}, {'type': '안심추천', 'itemIds': []}, {'type': '안심일반', 'itemIds': []}, {'type': '추천', 'itemIds': []}, {'type': '일반', 'itemIds': []}]","[{'id': 1029, 'name': '원흥역', 'description': '3호선', 'subwayArea': '수도권', 'local1': '경기도', 'lat': 37.6506849, 'lng': 126.872993, 'address': '경기도 고양시 덕양구 원흥동 569-15'}, {'id': 315, 'name': '삼송역', 'description': '3호선', 'subwayArea': '수도권', 'local1': '경기도', 'lat': 37.6531600952148, 'lng': 126.895568847656, 'address': '경기도 고양시 덕양구 삼송동 20-14'}]",True
"[{'lat': 37.57389550038332, 'lng': 127.08301536831782, 'itemId': 40141980, 'itemBmType': 'ZIGBANG'}, {'lat': 37.58627798481263, 'lng': 127.0849560145153, 'itemId': 40148351, 'itemBmType': 'ZIGBANG'}, {'lat': 37.5897510631248, 'lng': 127.08340827576892, 'itemId': 40124143, 'itemBmType': 'ZIGBANG'}, {'lat': 37.59120690172, 'lng': 127.07644930638472, 'itemId': 40067485, 'itemBmType': 'ZIGBANG'}, {'lat': 37.593701289494724, 'lng': 127.08410366982928, 'itemId': 40134118, 'itemBmType': 'ZIGBANG'}, {'lat': 37.59540067746984, 'lng': 127.06163080277803, 'itemId': 40003478, 'itemBmType': 'ZIGBANG'}, {'lat': 37.59570118967682, 'lng': 127.07365639495002, 'itemId': 40123484, 'itemBmType': 'ZIGBANG'}, {'lat': 37.59615102069948, 'lng': 127.0774670100742, 'itemId': 40129316, 'itemBmType': 'ZIGBANG'}, {'lat': 37.59936165697771, 'lng': 127.08463862474812, 'itemId': 39982582, 'itemBmType': 'ZIGBANG'}, {'lat': 37.60255469715856, 'lng': 127.0785249091145, 'itemId': 40072877, 'itemBmType': 'ZIGBANG'}, {'lat': 37.60583394239755, 'lng': 127.07823233375238, 'itemId': 40047504, 'itemBmType': 'ZIGBANG'}, {'lat': 37.60640866656809, 'lng': 127.06099340233494, 'itemId': 40065351, 'itemBmType': 'ZIGBANG'}, {'lat': 37.60661022984233, 'lng': 127.07414730364192, 'itemId': 40116259, 'itemBmType': 'ZIGBANG'}, {'lat': 37.607513894920814, 'lng': 127.06181568751128, 'itemId': 40156774, 'itemBmType': 'ZIGBANG'}, {'lat': 37.60977736571637, 'lng': 127.06551264091159, 'itemId': 40139329, 'itemBmType': 'ZIGBANG'}, {'lat': 37.615983949864265, 'lng': 127.05257876619262, 'itemId': 40132475, 'itemBmType': 'ZIGBANG'}]","[{'type': 'vip', 'itemIds': []}, {'type': '안심추천', 'itemIds': [40148351, 40065351, 40139329]}, {'type': '안심일반', 'itemIds': [40141980, 40124143, 40067485, 40134118, 40003478, 40123484, 40129316, 39982582, 40072877, 40047504, 40116259, 40156774, 40132475]}, {'type': '추천', 'itemIds': []}, {'type': '일반', 'itemIds': []}]","[{'id': 134, 'name': '상봉역', 'description': '7호선,경춘선,중앙선', 'subwayArea': '수도권', 'local1': '서울특별시', 'lat': 37.5965995788574, 'lng': 127.084716796875, 'address': '서울 중랑구 상봉동 100-51'}, {'id': 397, 'name': '먹골역', 'description': '7호선', 'subwayArea': '수도권', 'local1': '서울특별시', 'lat': 37.61078, 'lng': 127.077707, 'address': '서울시 중랑구 묵동 175-4'}, {'id': 120, 'name': '회기역', 'description': '1호선,중앙선,경춘선', 'subwayArea': '수도권', 'local1': '서울특별시', 'lat': 37.5897601, 'lng': 127.058146, 'address': '서울시 동대문구 휘경동 317-101'}, {'id': 387, 'name': '돌곶이역', 'description': '6호선', 'subwayArea': '수도권', 'local1': '서울특별시', 'lat': 37.6106109619141, 'lng': 127.057159423828, 'address': '서울시 성북구 석관동 349-8'}, {'id': 122, 'name': '신이문역', 'description': '1호선', 'subwayArea': '수도권', 'local1': '서울특별시', 'lat': 37.6020088195801, 'lng': 127.067245483398, 'address': '서울 동대문구 이문동 220-30'}, {'id': 133, 'name': '중랑역', 'description': '중앙선,경춘선', 'subwayArea': '수도권', 'local1': '서울특별시', 'lat': 37.594948, 'lng': 127.076152, 'address': '서울 중랑구 중화동 321-37'}, {'id': 386, 'name': '상월곡역', 'description': '6호선', 'subwayArea': '수도권', 'local1': '서울특별시', 'lat': 37.606396, 'lng': 127.0484758, 'address': '서울시 성북구 상월곡동 26-1'}, {'id': 400, 'name': '사가정역', 'description': '7호선', 'subwayArea': '수도권', 'local1': '서울특별시', 'lat': 37.5816116333008, 'lng': 127.088447570801, 'address': '서울시 중랑구 면목3동 496'}, {'id': 121, 'name': '외대앞역', 'description': '1호선', 'subwayArea': '수도권', 'local1': '서울특별시', 'lat': 37.5961813, 'lng': 127.063632, 'address': '서울 동대문구 이문동 302-35'}, {'id': 401, 'name': '용마산역', 'description': '7호선', 'subwayArea': '수도권', 'local1': '서울특별시', 'lat': 37.5735855102539, 'lng': 127.086463928223, 'address': '서울 중랑구 면목동 1316-4'}, {'id': 123, 'name': '석계역', 'description': '1호선,6호선', 'subwayArea': '수도권', 'local1': '서울특별시', 'lat': 37.6149978637695, 'lng': 127.065925598145, 'address': '서울 노원구 월계동 41-2'}, {'id': 399, 'name': '면목역', 'description': '7호선', 'subwayArea': '수도권', 'local1': '서울특별시', 'lat': 37.5885238647461, 'lng': 127.087333679199, 'address': '서울시 중랑구 면목동 120'}, {'id': 398, 'name': '중화역', 'description': '7호선', 'subwayArea': '수도권', 'local1': '서울특별시', 'lat': 37.602572, 'lng': 127.079285, 'address': '서울시 중랑구 중화동 285'}]",False
"[{'lat': 37.620321578443416, 'lng': 126.92678737601378, 'itemId': 39991306, 'itemBmType': 'ZIGBANG'}, {'lat': 37.623756796297286, 'lng': 126.92151266334443, 'itemId': 40029305, 'itemBmType': 'ZIGBANG'}]","[{'type': 'vip', 'itemIds': []}, {'type': '안심추천', 'itemIds': [40029305]}, {'type': '안심일반', 'itemIds': [39991306]}, {'type': '추천', 'itemIds': []}, {'type': '일반', 'itemIds': []}]","[{'id': 62, 'name': '연신내역', 'description': '3호선,6호선', 'subwayArea': '수도권', 'local1': '서울특별시', 'lat': 37.6188378, 'lng': 126.9213288, 'address': '서울 은평구 불광동 310-14'}, {'id': 60, 'name': '지축역', 'description': '3호선', 'subwayArea': '수도권', 'local1': '경기도', 'lat': 37.6479034423828, 'lng': 126.91480255127, 'address': '경기 고양시 덕양구 지축동 695-28'}, {'id': 61, 'name': '구파발역', 'description': '3호선', 'subwayArea': '수도권', 'local1': '서울특별시', 'lat': 37.6365051269531, 'lng': 126.918830871582, 'address': '서울 은평구 진관동 67-14'}, {'id': 366, 'name': '독바위역', 'description': '6호선', 'subwayArea': '수도권', 'local1': '서울특별시', 'lat': 37.6183853149414, 'lng': 126.932861328125, 'address': '서울시 은평구 불광1동 13-33'}]",False
[],"[{'type': 'vip', 'itemIds': []}, {'type': '안심추천', 'itemIds': []}, {'type': '안심일반', 'itemIds': []}, {'type': '추천', 'itemIds': []}, {'type': '일반', 'itemIds': []}]","[{'id': 158, 'name': '수색역', 'description': '경의선', 'subwayArea': '수도권', 'local1': '서울특별시', 'lat': 37.5805587768555, 'lng': 126.89582824707, 'address': '서울 은평구 수색동 81'}, {'id': 369, 'name': '증산역', 'description': '6호선', 'subwayArea': '수도권', 'local1': '서울특별시', 'lat': 37.5836601257324, 'lng': 126.909385681152, 'address': '서울시 은평구 증산동 199-8'}, {'id': 157, 'name': '디지털미디어시티역', 'description': '6호선,경의선,공항철도', 'subwayArea': '수도권', 'local1': '서울특별시', 'lat': 37.577953338623, 'lng': 126.900230407715, 'address': '서울 은평구 수색동 37-7'}, {'id': 368, 'name': '새절역', 'description': '6호선', 'subwayArea': '수도권', 'local1': '서울특별시', 'lat': 37.591014, 'lng': 126.913582, 'address': '서울시 은평구 신사2동 337-5'}]",True
[],"[{'type': 'vip', 'itemIds': []}, {'type': '안심추천', 'itemIds': []}, {'type': '안심일반', 'itemIds': []}, {'type': '추천', 'itemIds': []}, {'type': '일반', 'itemIds': []}]",[],True
"[{'lat': 37.582289379644315, 'lng': 127.03265779134829, 'itemId': 40154832, 'itemBmType': 'ZIGBANG'}, {'lat': 37.616876476046784, 'lng': 127.02506864863766, 'itemId': 40111396, 'itemBmType': 'ZIGBANG'}]","[{'type': 'vip', 'itemIds': []}, {'type': '안심추천', 'itemIds': [40111396]}, {'type': '안심일반', 'itemIds': [40154832]}, {'type': '추천', 'itemIds': []}, {'type': '일반', 'itemIds': []}]","[{'id': 381, 'name': '창신역', 'description': '6호선', 'subwayArea': '수도권', 'local1': '서울특별시', 'lat': 37.5800018310547, 'lng': 127.015182495117, 'address': '서울시 종로구 창신동 20'}, {'id': 385, 'name': '월곡역', 'description': '6호선', 'subwayArea': '수도권', 'local1': '서울특별시', 'lat': 37.601749420166, 'lng': 127.041427612305, 'address': '서울시 성북구 하월곡동 35-1'}, {'id': 384, 'name': '고려대역', 'description': '6호선', 'subwayArea': '수도권', 'local1': '서울특별시', 'lat': 37.5903415, 'lng': 127.0362774, 'address': '서울 성북구 종암동 29-47'}, {'id': 58, 'name': '용두역', 'description': '2호선', 'subwayArea': '수도권', 'local1': '서울특별시', 'lat': 37.573844909668, 'lng': 127.037742614746, 'address': '서울 동대문구 용두동 36-14'}, {'id': 7, 'name': '신설동역', 'description': '1호선,2호선,우이신설경전철', 'subwayArea': '수도권', 'local1': '서울특별시', 'lat': 37.5761070251465, 'lng': 127.024536132812, 'address': '서울 동대문구 신설동 97-75'}, {'id': 99, 'name': '길음역', 'description': '4호선', 'subwayArea': '수도권', 'local1': '서울특별시', 'lat': 37.6041515, 'lng': 127.025429, 'address': '서울 성북구 길음1동 877-66'}, {'id': 9, 'name': '청량리역', 'description': '1호선,중앙선,경춘선,수인분당선', 'subwayArea': '수도권', 'local1': '서울특별시', 'lat': 37.5801658630371, 'lng': 127.044326782227, 'address': '서울 동대문구 청량리동 756'}, {'id': 1128, 'name': '정릉역', 'description': '우이신설경전철', 'subwayArea': '수도권', 'local1': '', 'lat': 37.602689391901, 'lng': 127.01351294606137, 'address': '서울특별시 성북구 정릉동 139-80'}, {'id': 8, 'name': '제기동역', 'description': '1호선', 'subwayArea': '수도권', 'local1': '서울특별시', 'lat': 37.578196, 'lng': 127.034867, 'address': '서울 동대문구 제기동 51'}, {'id': 383, 'name': '안암역', 'description': '6호선', 'subwayArea': '수도권', 'local1': '서울특별시', 'lat': 37.586296, 'lng': 127.029137, 'address': '서울시 성북구 안암동 5가 146'}, {'id': 382, 'name': '보문역', 'description': '6호선,우이신설경전철', 'subwayArea': '수도권', 'local1': '서울특별시', 'lat': 37.585331, 'lng': 127.019391, 'address': '서울시 성북구 보문동 1가 127-1'}, {'id': 1127, 'name': '북한산보국문역', 'description': '우이신설경전철', 'subwayArea': '수도권', 'local1': '', 'lat': 37.61216378385052, 'lng': 127.00824810499488, 'address': '서울특별시 성북구 정릉동 286-19'}, {'id': 101, 'name': '한성대입구역', 'description': '4호선', 'subwayArea': '수도권', 'local1': '서울특별시', 'lat': 37.588442, 'lng': 127.0061645, 'address': '서울 성북구 삼선동 1가 14'}, {'id': 98, 'name': '미아사거리역', 'description': '4호선', 'subwayArea': '수도권', 'local1': '서울특별시', 'lat': 37.613251, 'lng': 127.030084, 'address': '서울 강북구 미아4동 71-5'}, {'id': 10, 'name': '동묘앞역', 'description': '1호선,6호선', 'subwayArea': '수도권', 'local1': '서울특별시', 'lat': 37.5732460021973, 'lng': 127.01636505127, 'address': '서울 종로구 숭인동 81-39'}, {'id': 100, 'name': '성신여대입구역', 'description': '4호선,우이신설경전철', 'subwayArea': '수도권', 'local1': '서울특별시', 'lat': 37.5926925, 'lng': 127.016469, 'address': '서울 성북구 동선동 4가 1'}]",False
"[{'lat': 37.66180555083111, 'lng': 127.06744493400016, 'itemId': 39786398, 'itemBmType': 'ZIGBANG'}, {'lat': 37.66473839516856, 'lng': 127.0714469681496, 'itemId': 40158433, 'itemBmType': 'ZIGBANG'}, {'lat': 37.67332842715253, 'lng': 127.05761014062931, 'itemId': 40115915, 'itemBmType': 'ZIGBANG'}]","[{'type': 'vip', 'itemIds': []}, {'type': '안심추천', 'itemIds': []}, {'type': '안심일반', 'itemIds': [39786398, 40158433, 40115915]}, {'type': '추천', 'itemIds': []}, {'type': '일반', 'itemIds': []}]","[{'id': 301, 'name': '도봉산역', 'description': '1호선,7호선', 'subwayArea': '수도권', 'local1': '서울특별시', 'lat': 37.6898460388184, 'lng': 127.045989990234, 'address': '서울 도봉구 도봉동 305-3'}, {'id': 391, 'name': '장암역', 'description': '7호선', 'subwayArea': '수도권', 'local1': '경기도', 'lat': 37.7003898620605, 'lng': 127.05387878418, 'address': '경기도 의정부시 장암동 164-9'}, {'id': 392, 'name': '수락산역', 'description': '7호선', 'subwayArea': '수도권', 'local1': '서울특별시', 'lat': 37.6774444580078, 'lng': 127.055335998535, 'address': '서울시 노원구 상계1동 1132-9'}, {'id': 393, 'name': '마들역', 'description': '7호선', 'subwayArea': '수도권', 'local1': '서울특별시', 'lat': 37.6648145, 'lng': 127.0576998, 'address': '서울시 노원구 상계동 647번지'}, {'id': 91, 'name': '당고개역', 'description': '4호선', 'subwayArea': '수도권', 'local1': '서울특별시', 'lat': 37.6703905, 'lng': 127.079252, 'address': '서울 노원구 상계4동 111'}]",False
"[{'lat': 37.626223403390206, 'lng': 127.07048660879015, 'itemId': 39957116, 'itemBmType': 'ZIGBANG'}, {'lat': 37.65670430587467, 'lng': 127.06991503199522, 'itemId': 40115793, 'itemBmType': 'ZIGBANG'}, {'lat': 37.65902854486505, 'lng': 127.06711627942504, 'itemId': 40155516, 'itemBmType': 'ZIGBANG'}, {'lat': 37.66108726490312, 'lng': 127.07011035673689, 'itemId': 40129267, 'itemBmType': 'ZIGBANG'}, {'lat': 37.66070765118964, 'lng': 127.0700855913707, 'itemId': 40005156, 'itemBmType': 'ZIGBANG'}]","[{'type': 'vip', 'itemIds': []}, {'type': '안심추천', 'itemIds': []}, {'type': '안심일반', 'itemIds': [39957116, 40115793, 40155516, 40129267, 40005156]}, {'type': '추천', 'itemIds': []}, {'type': '일반', 'itemIds': []}]","[{'id': 124, 'name': '광운대역', 'description': '1호선,경춘선', 'subwayArea': '수도권', 'local1': '서울특별시', 'lat': 37.6234130859375, 'lng': 127.062271118164, 'address': '서울 노원구 월계동 85'}, {'id': 125, 'name': '월계역', 'description': '1호선', 'subwayArea': '수도권', 'local1': '서울특별시', 'lat': 37.633114, 'lng': 127.058835, 'address': '서울 노원구 월계동 320-6'}, {'id': 394, 'name': '중계역', 'description': '7호선', 'subwayArea': '수도권', 'local1': '서울특별시', 'lat': 37.6446275, 'lng': 127.0642932, 'address': '서울 노원구 중계동 502-1'}, {'id': 389, 'name': '화랑대역', 'description': '6호선', 'subwayArea': '수도권', 'local1': '서울특별시', 'lat': 37.6203155517578, 'lng': 127.084419250488, 'address': '서울시 노원구 공릉2동 284-5'}, {'id': 92, 'name': '상계역', 'description': '4호선', 'subwayArea': '수도권', 'local1': '서울특별시', 'lat': 37.6608208, 'lng': 127.0735668, 'address': '서울 노원구 상계5동 173'}, {'id': 93, 'name': '노원역', 'description': '4호선,7호선', 'subwayArea': '수도권', 'local1': '서울특별시', 'lat': 37.6563987, 'lng': 127.063831, 'address': '서울 노원구 상계2동 335'}, {'id': 396, 'name': '공릉역', 'description': '7호선', 'subwayArea': '수도권', 'local1': '서울특별시', 'lat': 37.625787, 'lng': 127.072894, 'address': '서울시 노원구 공릉1동 395'}, {'id': 126, 'name': '녹천역', 'description': '1호선', 'subwayArea': '수도권', 'local1': '서울특별시', 'lat': 37.6447982788086, 'lng': 127.051498413086, 'address': '서울 도봉구 창동 756-203'}, {'id': 395, 'name': '하계역', 'description': '7호선', 'subwayArea': '수도권', 'local1': '서울특별시', 'lat': 37.6363408, 'lng': 127.067977, 'address': '서울 노원구 하계동 273-5'}, {'id': 388, 'name': '태릉입구역', 'description': '6호선,7호선', 'subwayArea': '수도권', 'local1': '서울특별시', 'lat': 37.6176632, 'lng': 127.0756089, 'address': '서울시 노원구 공릉동 680'}, {'id': 94, 'name': '창동역', 'description': '1호선,4호선', 'subwayArea': '수도권', 'local1': '서울특별시', 'lat': 37.6529874, 'lng': 127.046852, 'address': '서울 도봉구 창동 135-1'}]",False
[],"[{'type': 'vip', 'itemIds': []}, {'type': '안심추천', 'itemIds': []}, {'type': '안심일반', 'itemIds': []}, {'type': '추천', 'itemIds': []}, {'type': '일반', 'itemIds': []}]","[{'id': 390, 'name': '봉화산역', 'description': '6호선', 'subwayArea': '수도권', 'local1': '서울특별시', 'lat': 37.6173667907715, 'lng': 127.091461181641, 'address': '서울시 중랑구 신내동 643-3'}, {'id': 173, 'name': '갈매역', 'description': '경춘선', 'subwayArea': '수도권', 'local1': '경기도', 'lat': 37.6350135803223, 'lng': 127.116226196289, 'address': '경기도 구리시 갈매동 경춘북로 229(갈매동 502-18) 갈매역사'}, {'id': 174, 'name': '별내역', 'description': '경춘선', 'subwayArea': '수도권', 'local1': '경기도', 'lat': 37.6421813964844, 'lng': 127.127250671387, 'address': '경기도 남양주시 별내동 182-5'}]",True
"[{'lat': 37.46566946245734, 'lng': 126.91800879893958, 'itemId': 40131053, 'itemBmType': 'PARTNERS'}, {'lat': 37.466287816657676, 'lng': 126.93702933229272, 'itemId': 40164604, 'itemBmType': 'ZIGBANG'}, {'lat': 37.46581257537167, 'lng': 126.93602668070075, 'itemId': 39543382, 'itemBmType': 'PARTNERS'}, {'lat': 37.46845144552385, 'lng': 126.92220422355277, 'itemId': 39371078, 'itemBmType': 'PARTNERS'}, {'lat': 37.46936231066614, 'lng': 126.92516479814027, 'itemId': 39401478, 'itemBmType': 'PARTNERS'}, {'lat': 37.46947924324632, 'lng': 126.91756295905381, 'itemId': 39606451, 'itemBmType': 'PARTNERS'}, {'lat': 37.47014722161746, 'lng': 126.92102977522896, 'itemId': 40111337, 'itemBmType': 'PARTNERS'}, {'lat': 37.47472260110229, 'lng': 126.9403849882636, 'itemId': 39334699, 'itemBmType': 'PARTNERS'}, {'lat': 37.47644253571239, 'lng': 126.92839185611756, 'itemId': 40128675, 'itemBmType': 'ZIGBANG'}, {'lat': 37.47908325298319, 'lng': 126.93432717389689, 'itemId': 40142860, 'itemBmType': 'ZIGBANG'}, {'lat': 37.48094299165049, 'lng': 126.92687107356784, 'itemId': 40142791, 'itemBmType': 'ZIGBANG'}, {'lat': 37.48354627770696, 'lng': 126.94471328193214, 'itemId': 39690511, 'itemBmType': 'PARTNERS'}, {'lat': 37.48402461666026, 'lng': 126.94410959655106, 'itemId': 39696571, 'itemBmType': 'PARTNERS'}, {'lat': 37.484132912733884, 'lng': 126.92345162450773, 'itemId': 40107317, 'itemBmType': 'ZIGBANG'}, {'lat': 37.48364906236446, 'lng': 126.92347158542506, 'itemId': 40119363, 'itemBmType': 'ZIGBANG'}, {'lat': 37.484140795984885, 'lng': 126.92346060858839, 'itemId': 40120099, 'itemBmType': 'ZIGBANG'}]","[{'type': 'vip', 'itemIds': []}, {'type': '안심추천', 'itemIds': [40131053, 39543382, 39371078, 39401478, 39606451, 40111337, 39334699, 40128675, 40142860, 40142791, 39690511, 39696571, 40107317, 40119363, 40120099]}, {'type': '안심일반', 'itemIds': [40164604]}, {'type': '추천', 'itemIds': []}, {'type': '일반', 'itemIds': []}]","[{'id': 1252, 'name': '관악산(서울대)역', 'description': '신림선경전철', 'subwayArea': '', 'local1': '서울특별시', 'lat': 37.468779, 'lng': 126.94531, 'address': '서울시\xa0관악구\xa0신림동\xa0211'}, {'id': 1251, 'name': '서울대벤처타운역', 'description': '신림선경전철', 'subwayArea': '', 'local1': '서울특별시', 'lat': 37.472227, 'lng': 126.934157, 'address': '서울시\xa0관악구\xa0신림동 110-10'}, {'id': 38, 'name': '봉천역', 'description': '2호선', 'subwayArea': '수도권', 'local1': '서울특별시', 'lat': 37.482476, 'lng': 126.941574, 'address': '서울 관악구 봉천8동 930-45'}, {'id': 39, 'name': '신림역', 'description': '2호선,신림선경전철', 'subwayArea': '수도권', 'local1': '서울특별시', 'lat': 37.4844551086426, 'lng': 126.929397583008, 'address': '서울 관악구 신림동 1433-42'}, {'id': 1250, 'name': '서원역', 'description': '신림선경전철', 'subwayArea': '', 'local1': '서울특별시', 'lat': 37.478307, 'lng': 126.933036, 'address': '서울시\xa0관악구\xa0신림동 808-407'}, {'id': 37, 'name': '서울대입구역', 'description': '2호선', 'subwayArea': '수도권', 'local1': '서울특별시', 'lat': 37.4810562133789, 'lng': 126.952354431152, 'address': '서울 관악구 봉천동 862-19'}]",False
[],"[{'type': 'vip', 'itemIds': []}, {'type': '안심추천', 'itemIds': []}, {'type': '안심일반', 'itemIds': []}, {'type': '추천', 'itemIds': []}, {'type': '일반', 'itemIds': []}]","[{'id': 111, 'name': '남태령역', 'description': '4호선', 'subwayArea': '수도권', 'local1': '서울특별시', 'lat': 37.4638623, 'lng': 126.9891185, 'address': '서울 서초구 방배2동 2909'}, {'id': 35, 'name': '사당역', 'description': '2호선,4호선', 'subwayArea': '수도권', 'local1': '서울특별시', 'lat': 37.4766120910644, 'lng': 126.981628417969, 'address': '서울 동작구 사당동 588-45'}, {'id': 36, 'name': '낙성대역', 'description': '2호선', 'subwayArea': '수도권', 'local1': '서울특별시', 'lat': 37.477117, 'lng': 126.963418, 'address': '서울 관악구 봉천동 1687-5'}, {'id': 34, 'name': '방배역', 'description': '2호선', 'subwayArea': '수도권', 'local1': '서울특별시', 'lat': 37.4816246032715, 'lng': 126.997291564941, 'address': '서울 서초구 방배동 225 '}, {'id': 410, 'name': '남성역', 'description': '7호선', 'subwayArea': '수도권', 'local1': '서울특별시', 'lat': 37.4846516, 'lng': 126.9712573, 'address': '서울시 동작구 사당동 250'}]",True
"[{'lat': 37.529215869654585, 'lng': 126.80949451261098, 'itemId': 39829675, 'itemBmType': 'ZIGBANG'}]","[{'type': 'vip', 'itemIds': []}, {'type': '안심추천', 'itemIds': []}, {'type': '안심일반', 'itemIds': [39829675]}, {'type': '추천', 'itemIds': []}, {'type': '일반', 'itemIds': []}]","[{'id': 423, 'name': '춘의역', 'description': '7호선', 'subwayArea': '수도권', 'local1': '경기도', 'lat': 37.503849029541, 'lng': 126.787788391113, 'address': '경기도 부천시 춘의동 145'}, {'id': 421, 'name': '까치울역', 'description': '7호선', 'subwayArea': '수도권', 'local1': '경기도', 'lat': 37.5064392089844, 'lng': 126.811782836914, 'address': '경기도 부천시 작동 276-2'}, {'id': 250, 'name': '역곡역', 'description': '1호선', 'subwayArea': '수도권', 'local1': '경기도', 'lat': 37.4855117797852, 'lng': 126.812088012695, 'address': '경기도 부천시 역곡동 230'}, {'id': 265, 'name': '온수역', 'description': '1호선,7호선', 'subwayArea': '수도권', 'local1': '서울특별시', 'lat': 37.4922790527344, 'lng': 126.823989868164, 'address': '서울시 구로구 온수동 51-7'}, {'id': 1253, 'name': '원종역', 'description': '서해선', 'subwayArea': '수도권', 'local1': '경기도', 'lat': 37.5240807637, 'lng': 126.8048489994, 'address': '경기도 부천시 소사로 원종동 404'}, {'id': 422, 'name': '부천종합운동장역', 'description': '7호선,서해선', 'subwayArea': '수도권', 'local1': '경기도', 'lat': 37.5051345825195, 'lng': 126.797065734863, 'address': '경기도 부천시 춘의동 15-1'}]",False
"[{'lat': 37.49841208564963, 'lng': 126.8368210917541, 'itemId': 40131910, 'itemBmType': 'ZIGBANG'}, {'lat': 37.499456568621504, 'lng': 126.84252621856966, 'itemId': 40103434, 'itemBmType': 'ZIGBANG'}, {'lat': 37.50369544239917, 'lng': 126.8650498131055, 'itemId': 39901438, 'itemBmType': 'ZIGBANG'}]","[{'type': 'vip', 'itemIds': []}, {'type': '안심추천', 'itemIds': [40131910]}, {'type': '안심일반', 'itemIds': [40103434, 39901438]}, {'type': '추천', 'itemIds': []}, {'type': '일반', 'itemIds': []}]","[{'id': 248, 'name': '개봉역', 'description': '1호선', 'subwayArea': '수도권', 'local1': '서울특별시', 'lat': 37.4944305419922, 'lng': 126.858306884766, 'address': '서울 구로구 개봉동 203-39'}, {'id': 332, 'name': '목동역', 'description': '5호선', 'subwayArea': '수도권', 'local1': '서울특별시', 'lat': 37.5261427, 'lng': 126.864573, 'address': '서울 양천구 신정동 900-24'}, {'id': 249, 'name': '오류동역', 'description': '1호선', 'subwayArea': '수도권', 'local1': '서울특별시', 'lat': 37.4944006, 'lng': 126.8447, 'address': '서울시 구로구 오류1동 66번지'}, {'id': 420, 'name': '천왕역', 'description': '7호선', 'subwayArea': '수도권', 'local1': '서울특별시', 'lat': 37.486686, 'lng': 126.838681, 'address': '서울시 구로구 오류동 174'}, {'id': 331, 'name': '신정역', 'description': '5호선', 'subwayArea': '수도권', 'local1': '서울특별시', 'lat': 37.5250199, 'lng': 126.856076, 'address': '서울시 양천구 신정동 949'}, {'id': 56, 'name': '양천구청역', 'description': '2호선', 'subwayArea': '수도권', 'local1': '서울특별시', 'lat': 37.5125503540039, 'lng': 126.865745544434, 'address': '서울 양천구 신정동 276-7'}, {'id': 57, 'name': '신정네거리역', 'description': '2호선', 'subwayArea': '수도권', 'local1': '서울특별시', 'lat': 37.5198516845703, 'lng': 126.853057861328, 'address': '서울 양천구 신정동 1092'}]",False
"[{'lat': 37.585824743430145, 'lng': 127.09248360949879, 'itemId': 40052135, 'itemBmType': 'ZIGBANG'}]","[{'type': 'vip', 'itemIds': []}, {'type': '안심추천', 'itemIds': []}, {'type': '안심일반', 'itemIds': [40052135]}, {'type': '추천', 'itemIds': []}, {'type': '일반', 'itemIds': []}]","[{'id': 136, 'name': '양원역', 'description': '중앙선', 'subwayArea': '수도권', 'local1': '서울특별시', 'lat': 37.6065063476562, 'lng': 127.108100891113, 'address': '서울 중랑구 망우동 254-2'}, {'id': 1024, 'name': '신내역', 'description': '경춘선,6호선', 'subwayArea': '수도권', 'local1': '서울특별시', 'lat': 37.6129388, 'lng': 127.103208, 'address': '서울특별시 중랑구 망우동 320-2'}, {'id': 135, 'name': '망우역', 'description': '경춘선,중앙선', 'subwayArea': '수도권', 'local1': '서울특별시', 'lat': 37.599708, 'lng': 127.092081, 'address': '서울 중랑구 상봉동 172'}]",False
[],"[{'type': 'vip', 'itemIds': []}, {'type': '안심추천', 'itemIds': []}, {'type': '안심일반', 'itemIds': []}, {'type': '추천', 'itemIds': []}, {'type': '일반', 'itemIds': []}]","[{'id': 207, 'name': '금천구청역', 'description': '1호선', 'subwayArea': '수도권', 'local1': '서울특별시', 'lat': 37.4555587768555, 'lng': 126.894081115723, 'address': '서울시 금천구 시흥1동 113-77'}, {'id': 206, 'name': '가산디지털단지역', 'description': '1호선,7호선', 'subwayArea': '수도권', 'local1': '서울특별시', 'lat': 37.480898, 'lng': 126.882885, 'address': '서울시 금천구 가산동 468-4'}, {'id': 217, 'name': '독산역', 'description': '1호선', 'subwayArea': '수도권', 'local1': '서울특별시', 'lat': 37.4665260314941, 'lng': 126.889266967773, 'address': '서울시 금천구 가산동 717'}]",True
"[{'lat': 37.61968817097601, 'lng': 127.03090864747288, 'itemId': 39974663, 'itemBmType': 'ZIGBANG'}, {'lat': 37.62388179056459, 'lng': 127.02085343216659, 'itemId': 40148544, 'itemBmType': 'ZIGBANG'}, {'lat': 37.62777366574974, 'lng': 127.03462435544759, 'itemId': 39978398, 'itemBmType': 'ZIGBANG'}, {'lat': 37.636643655805685, 'lng': 127.03068513158495, 'itemId': 39952112, 'itemBmType': 'ZIGBANG'}, {'lat': 37.63783032665145, 'lng': 127.03146258798927, 'itemId': 40152589, 'itemBmType': 'ZIGBANG'}, {'lat': 37.638550593995596, 'lng': 127.0421774113431, 'itemId': 40133188, 'itemBmType': 'ZIGBANG'}, {'lat': 37.64025704782304, 'lng': 127.01879982894397, 'itemId': 39889695, 'itemBmType': 'ZIGBANG'}, {'lat': 37.649459647479986, 'lng': 127.01838457194134, 'itemId': 40010799, 'itemBmType': 'ZIGBANG'}, {'lat': 37.65245535281199, 'lng': 127.0358810022046, 'itemId': 40160928, 'itemBmType': 'ZIGBANG'}]","[{'type': 'vip', 'itemIds': []}, {'type': '안심추천', 'itemIds': [40148544]}, {'type': '안심일반', 'itemIds': [39974663, 39978398, 39952112, 40152589, 40133188, 39889695, 40010799, 40160928]}, {'type': '추천', 'itemIds': []}, {'type': '일반', 'itemIds': []}]","[{'id': 97, 'name': '미아역', 'description': '4호선', 'subwayArea': '수도권', 'local1': '서울특별시', 'lat': 37.626394, 'lng': 127.026132, 'address': '서울 강북구 미아동 197-9'}, {'id': 1122, 'name': '가오리역', 'description': '우이신설경전철', 'subwayArea': '수도권', 'local1': '', 'lat': 37.64153730064515, 'lng': 127.01676330168804, 'address': '서울특별시 강북구 수유동 338-46'}, {'id': 1125, 'name': '삼양사거리역', 'description': '우이신설경전철', 'subwayArea': '수도권', 'local1': '', 'lat': 37.62123975174457, 'lng': 127.02047976171637, 'address': '서울특별시 강북구 미아동 745-142'}, {'id': 95, 'name': '쌍문역', 'description': '4호선', 'subwayArea': '수도권', 'local1': '서울특별시', 'lat': 37.6486534, 'lng': 127.03473, 'address': '서울 도봉구 창1동 659-12'}, {'id': 1124, 'name': '삼양역', 'description': '우이신설경전철', 'subwayArea': '수도권', 'local1': '', 'lat': 37.62689157435791, 'lng': 127.01815337557271, 'address': '서울특별시 강북구 미아동 791-4703'}, {'id': 96, 'name': '수유역', 'description': '4호선', 'subwayArea': '수도권', 'local1': '서울특별시', 'lat': 37.637979, 'lng': 127.02562, 'address': '서울 강북구 번동 418-22'}, {'id': 1126, 'name': '솔샘역', 'description': '우이신설경전철', 'subwayArea': '수도권', 'local1': '', 'lat': 37.62026318487059, 'lng': 127.01350196721583, 'address': '서울특별시 강북구 미아동 1353-20'}, {'id': 1120, 'name': '솔밭공원역', 'description': '우이신설경전철', 'subwayArea': '수도권', 'local1': '', 'lat': 37.65596248944192, 'lng': 127.01326477865761, 'address': '서울특별시 강북구 우이동 57-28'}, {'id': 1123, 'name': '화계역', 'description': '우이신설경전철', 'subwayArea': '수도권', 'local1': '', 'lat': 37.63403649188438, 'lng': 127.01750934665958, 'address': '서울특별시 강북구 수유동 472-677'}, {'id': 1121, 'name': '4.19민주묘지역', 'description': '우이신설경전철', 'subwayArea': '수도권', 'local1': '', 'lat': 37.649540686833696, 'lng': 127.01368573846187, 'address': '서울특별시 강북구 우이동 72-186'}]",False
[],"[{'type': 'vip', 'itemIds': []}, {'type': '안심추천', 'itemIds': []}, {'type': '안심일반', 'itemIds': []}, {'type': '추천', 'itemIds': []}, {'type': '일반', 'itemIds': []}]","[{'id': 1119, 'name': '북한산우이역', 'description': '우이신설경전철', 'subwayArea': '수도권', 'local1': '', 'lat': 37.6628888, 'lng': 127.01275, 'address': '서울특별시 강북구 우이동 16-20'}, {'id': 299, 'name': '방학역', 'description': '1호선', 'subwayArea': '수도권', 'local1': '서울특별시', 'lat': 37.667404, 'lng': 127.044402, 'address': '서울 도봉구 방학동 717-18'}, {'id': 300, 'name': '도봉역', 'description': '1호선', 'subwayArea': '수도권', 'local1': '서울특별시', 'lat': 37.679441, 'lng': 127.045521, 'address': '서울시 도봉구 도봉2동 89-159'}]",True
"[{'lat': 37.551402790580504, 'lng': 127.018763892247, 'itemId': 40168031, 'itemBmType': 'ZIGBANG'}, {'lat': 37.556997318101395, 'lng': 127.00983386612675, 'itemId': 40161560, 'itemBmType': 'ZIGBANG'}, {'lat': 37.55795582771472, 'lng': 127.03533799544083, 'itemId': 40141504, 'itemBmType': 'ZIGBANG'}, {'lat': 37.55902677942649, 'lng': 127.03093674399136, 'itemId': 40167655, 'itemBmType': 'ZIGBANG'}, {'lat': 37.56020376740701, 'lng': 127.02998679709573, 'itemId': 40153469, 'itemBmType': 'ZIGBANG'}, {'lat': 37.567233872553004, 'lng': 127.03500572898488, 'itemId': 39999358, 'itemBmType': 'ZIGBANG'}, {'lat': 37.571451684079065, 'lng': 127.03238036586048, 'itemId': 39998399, 'itemBmType': 'ZIGBANG'}]","[{'type': 'vip', 'itemIds': []}, {'type': '안심추천', 'itemIds': [40141504, 39999358, 39998399]}, {'type': '안심일반', 'itemIds': [40168031, 40161560, 40167655, 40153469]}, {'type': '추천', 'itemIds': []}, {'type': '일반', 'itemIds': []}]","[{'id': 71, 'name': '동대입구역', 'description': '3호선', 'subwayArea': '수도권', 'local1': '서울특별시', 'lat': 37.5590438842773, 'lng': 127.005035400391, 'address': '서울 중구 장충동2가 189-2'}, {'id': 73, 'name': '금호역', 'description': '3호선', 'subwayArea': '수도권', 'local1': '서울특별시', 'lat': 37.548095703125, 'lng': 127.01586151123, 'address': '서울 성동구 금호동4가 1470'}, {'id': 343, 'name': '신금호역', 'description': '5호선', 'subwayArea': '수도권', 'local1': '서울특별시', 'lat': 37.5544671, 'lng': 127.0208, 'address': '서울시 성동구 금호2가동 223-1번지'}, {'id': 74, 'name': '옥수역', 'description': '3호선,중앙선', 'subwayArea': '수도권', 'local1': '서울특별시', 'lat': 37.5402758, 'lng': 127.0182474, 'address': '서울 성동구 옥수동 367-1'}, {'id': 268, 'name': '서울숲역', 'description': '수인분당선', 'subwayArea': '수도권', 'local1': '서울특별시', 'lat': 37.5440330505371, 'lng': 127.044845581055, 'address': '서울 성동구 성수동 656-436'}, {'id': 15, 'name': '신당역', 'description': '2호선,6호선', 'subwayArea': '수도권', 'local1': '서울특별시', 'lat': 37.5657299, 'lng': 127.018449, 'address': '서울 중구 신당동 130-20'}, {'id': 72, 'name': '약수역', 'description': '3호선,6호선', 'subwayArea': '수도권', 'local1': '서울특별시', 'lat': 37.554443359375, 'lng': 127.011001586914, 'address': '서울시 중구 신당3동 369-44'}, {'id': 344, 'name': '행당역', 'description': '5호선', 'subwayArea': '수도권', 'local1': '서울특별시', 'lat': 37.5576057434082, 'lng': 127.029876708984, 'address': '서울시 성동구 행당2동 317-241'}, {'id': 342, 'name': '청구역', 'description': '5호선,6호선', 'subwayArea': '수도권', 'local1': '서울특별시', 'lat': 37.560205, 'lng': 127.013875, 'address': '서울시 중구 신당2동 294'}, {'id': 380, 'name': '버티고개역', 'description': '6호선', 'subwayArea': '수도권', 'local1': '서울특별시', 'lat': 37.547966003418, 'lng': 127.006820678711, 'address': '서울 중구 신당동 432-2743'}, {'id': 17, 'name': '왕십리역', 'description': '2호선,5호선,수인분당선,중앙선', 'subwayArea': '수도권', 'local1': '서울특별시', 'lat': 37.5611724853516, 'lng': 127.037269592285, 'address': '서울 성동구 행당동 189-14'}, {'id': 18, 'name': '한양대역', 'description': '2호선', 'subwayArea': '수도권', 'local1': '서울특별시', 'lat': 37.5556030273438, 'lng': 127.043762207031, 'address': '서울 성동구 행당동 17-10'}, {'id': 6, 'name': '동대문역', 'description': '1호선,4호선', 'subwayArea': '수도권', 'local1': '서울특별시', 'lat': 37.5712557, 'lng': 127.0090801, 'address': '서울 종로구 창신동 492-1'}, {'id': 345, 'name': '마장역', 'description': '5호선', 'subwayArea': '수도권', 'local1': '서울특별시', 'lat': 37.5662651062012, 'lng': 127.043128967285, 'address': '서울시 성동구 마장동 772'}, {'id': 119, 'name': '응봉역', 'description': '중앙선', 'subwayArea': '수도권', 'local1': '서울특별시', 'lat': 37.5504302978516, 'lng': 127.034896850586, 'address': '서울시 성동구 응봉동 246'}, {'id': 16, 'name': '상왕십리역', 'description': '2호선', 'subwayArea': '수도권', 'local1': '서울특별시', 'lat': 37.5645408630371, 'lng': 127.029541015625, 'address': '서울 성동구 홍익동 579-2'}, {'id': 14, 'name': '동대문역사문화공원역', 'description': '2호선,4호선,5호선', 'subwayArea': '수도권', 'local1': '서울특별시', 'lat': 37.5649788, 'lng': 127.007742, 'address': '서울 중구 을지로7가 7-6'}]",False
"[{'lat': 37.53053215888848, 'lng': 127.07725756654992, 'itemId': 40109282, 'itemBmType': 'ZIGBANG'}, {'lat': 37.531732928759425, 'lng': 127.0728531837472, 'itemId': 39937580, 'itemBmType': 'ZIGBANG'}, {'lat': 37.531889684260406, 'lng': 127.07824095706403, 'itemId': 39935963, 'itemBmType': 'ZIGBANG'}, {'lat': 37.5323721336447, 'lng': 127.07761844336999, 'itemId': 40109643, 'itemBmType': 'ZIGBANG'}, {'lat': 37.533432285745086, 'lng': 127.08050649484711, 'itemId': 40066365, 'itemBmType': 'ZIGBANG'}, {'lat': 37.53374592843604, 'lng': 127.07865448767167, 'itemId': 40168353, 'itemBmType': 'ZIGBANG'}, {'lat': 37.53375976545678, 'lng': 127.0843819276273, 'itemId': 40150111, 'itemBmType': 'ZIGBANG'}, {'lat': 37.53498833764925, 'lng': 127.08204669881843, 'itemId': 40064696, 'itemBmType': 'ZIGBANG'}, {'lat': 37.53500417079683, 'lng': 127.0814109314373, 'itemId': 40125447, 'itemBmType': 'ZIGBANG'}, {'lat': 37.536454081299496, 'lng': 127.07573466428578, 'itemId': 40065426, 'itemBmType': 'ZIGBANG'}, {'lat': 37.53753865929155, 'lng': 127.05580406707041, 'itemId': 40135243, 'itemBmType': 'ZIGBANG'}, {'lat': 37.53787102021332, 'lng': 127.08764596977437, 'itemId': 40092016, 'itemBmType': 'ZIGBANG'}, {'lat': 37.54042125099888, 'lng': 127.08530145236978, 'itemId': 39877279, 'itemBmType': 'ZIGBANG'}, {'lat': 37.540397601352375, 'lng': 127.08528125383206, 'itemId': 39897678, 'itemBmType': 'ZIGBANG'}, {'lat': 37.54095034458943, 'lng': 127.08430975310449, 'itemId': 40167156, 'itemBmType': 'ZIGBANG'}, {'lat': 37.5427877257432, 'lng': 127.08734063106127, 'itemId': 40153720, 'itemBmType': 'ZIGBANG'}, {'lat': 37.54467186717938, 'lng': 127.07804289923875, 'itemId': 39922578, 'itemBmType': 'ZIGBANG'}, {'lat': 37.545737109166375, 'lng': 127.06943079645154, 'itemId': 40066940, 'itemBmType': 'ZIGBANG'}, {'lat': 37.545818896978666, 'lng': 127.07162091958273, 'itemId': 40135836, 'itemBmType': 'ZIGBANG'}, {'lat': 37.547053064472614, 'lng': 127.0686131538964, 'itemId': 40151116, 'itemBmType': 'ZIGBANG'}, {'lat': 37.55501934199143, 'lng': 127.07370419091322, 'itemId': 40135601, 'itemBmType': 'PARTNERS'}, {'lat': 37.5550168913904, 'lng': 127.07311993366437, 'itemId': 40141901, 'itemBmType': 'ZIGBANG'}, {'lat': 37.55736176522815, 'lng': 127.08386918657453, 'itemId': 39991278, 'itemBmType': 'ZIGBANG'}, {'lat': 37.55737956928403, 'lng': 127.08320031784366, 'itemId': 40159050, 'itemBmType': 'ZIGBANG'}, {'lat': 37.56101746562489, 'lng': 127.0478136823029, 'itemId': 40137978, 'itemBmType': 'ZIGBANG'}, {'lat': 37.56123320227347, 'lng': 127.08574408045176, 'itemId': 40109969, 'itemBmType': 'ZIGBANG'}, {'lat': 37.56196113874731, 'lng': 127.0543086070393, 'itemId': 40085660, 'itemBmType': 'ZIGBANG'}, {'lat': 37.56236476318549, 'lng': 127.04661970224377, 'itemId': 40102311, 'itemBmType': 'ZIGBANG'}, {'lat': 37.56278249002148, 'lng': 127.08437653844531, 'itemId': 40143515, 'itemBmType': 'ZIGBANG'}, {'lat': 37.56403632194428, 'lng': 127.05566611648302, 'itemId': 40163667, 'itemBmType': 'ZIGBANG'}]","[{'type': 'vip', 'itemIds': []}, {'type': '안심추천', 'itemIds': [40150111, 40065426, 40135601, 40141901]}, {'type': '안심일반', 'itemIds': [40109282, 39937580, 39935963, 40109643, 40066365, 40168353, 40064696, 40125447, 40135243, 40092016, 39877279, 39897678, 40167156, 40153720, 39922578, 40066940, 40135836, 40151116, 39991278, 40159050, 40137978, 40109969, 40085660, 40102311, 40143515, 40163667]}, {'type': '추천', 'itemIds': []}, {'type': '일반', 'itemIds': []}]","[{'id': 54, 'name': '신답역', 'description': '2호선', 'subwayArea': '수도권', 'local1': '서울특별시', 'lat': 37.5700591, 'lng': 127.0464306, 'address': '서울 성동구 용답동 128'}, {'id': 21, 'name': '건대입구역', 'description': '2호선,7호선', 'subwayArea': '수도권', 'local1': '서울특별시', 'lat': 37.5398956, 'lng': 127.0706737, 'address': '서울 광진구 자양동 7-6'}, {'id': 348, 'name': '군자역', 'description': '5호선,7호선', 'subwayArea': '수도권', 'local1': '서울특별시', 'lat': 37.5571632385254, 'lng': 127.079444885254, 'address': '서울시 광진구 능동 277'}, {'id': 20, 'name': '성수역', 'description': '2호선', 'subwayArea': '수도권', 'local1': '서울특별시', 'lat': 37.544569, 'lng': 127.055974, 'address': '서울 성동구 성수동2가 300-4'}, {'id': 53, 'name': '용답역', 'description': '2호선', 'subwayArea': '수도권', 'local1': '서울특별시', 'lat': 37.5622711181641, 'lng': 127.051002502441, 'address': '서울 성동구 사근동 238'}, {'id': 402, 'name': '중곡역', 'description': '7호선', 'subwayArea': '수도권', 'local1': '서울특별시', 'lat': 37.5657901, 'lng': 127.0842577, 'address': '서울시 광진구 중곡동 167'}, {'id': 347, 'name': '장한평역', 'description': '5호선', 'subwayArea': '수도권', 'local1': '서울특별시', 'lat': 37.5614852905273, 'lng': 127.064392089844, 'address': '서울시 동대문구 장안동 416'}, {'id': 346, 'name': '답십리역', 'description': '5호선', 'subwayArea': '수도권', 'local1': '서울특별시', 'lat': 37.5664291381836, 'lng': 127.053146362305, 'address': '서울시 성동구 용답동 99'}, {'id': 404, 'name': '뚝섬유원지역', 'description': '7호선', 'subwayArea': '수도권', 'local1': '서울특별시', 'lat': 37.5316925048828, 'lng': 127.066848754883, 'address': '서울 광진구 자양동 71-2'}, {'id': 19, 'name': '뚝섬역', 'description': '2호선', 'subwayArea': '수도권', 'local1': '서울특별시', 'lat': 37.5471687316894, 'lng': 127.047332763672, 'address': '서울 성동구 성수1가2동 656-745'}, {'id': 349, 'name': '아차산역', 'description': '5호선', 'subwayArea': '수도권', 'local1': '서울특별시', 'lat': 37.552027, 'lng': 127.08963, 'address': '서울시 광진구 능동 256'}, {'id': 403, 'name': '어린이대공원역', 'description': '7호선', 'subwayArea': '수도권', 'local1': '서울특별시', 'lat': 37.5480032, 'lng': 127.074607, 'address': '서울 광진구 능동 463-5'}, {'id': 22, 'name': '구의역', 'description': '2호선', 'subwayArea': '수도권', 'local1': '서울특별시', 'lat': 37.537145, 'lng': 127.086135, 'address': '서울 광진구 자양동 216-16 '}]",False
"[{'lat': 37.55821200071186, 'lng': 126.94006855543465, 'itemId': 40144219, 'itemBmType': 'ZIGBANG'}, {'lat': 37.56341986929755, 'lng': 126.93035588728645, 'itemId': 40105324, 'itemBmType': 'ZIGBANG'}, {'lat': 37.563720261586255, 'lng': 126.91662506005177, 'itemId': 40157012, 'itemBmType': 'ZIGBANG'}, {'lat': 37.56421603858729, 'lng': 126.91665999061811, 'itemId': 40164407, 'itemBmType': 'PARTNERS'}, {'lat': 37.56732294737875, 'lng': 126.9486245635643, 'itemId': 39971857, 'itemBmType': 'ZIGBANG'}]","[{'type': 'vip', 'itemIds': []}, {'type': '안심추천', 'itemIds': [40164407]}, {'type': '안심일반', 'itemIds': [40144219, 40105324, 40157012, 39971857]}, {'type': '추천', 'itemIds': []}, {'type': '일반', 'itemIds': []}]","[{'id': 49, 'name': '신촌역', 'description': '2호선', 'subwayArea': '수도권', 'local1': '서울특별시', 'lat': 37.5551399, 'lng': 126.9369074, 'address': '서울 서대문구 창천동 18-52'}, {'id': 154, 'name': '공덕역', 'description': '5호선,6호선,경의선,공항철도', 'subwayArea': '수도권', 'local1': '서울특별시', 'lat': 37.5438253, 'lng': 126.9509914, 'address': '서울시 마포구 도화동 25-13'}, {'id': 375, 'name': '대흥역', 'description': '6호선', 'subwayArea': '수도권', 'local1': '서울특별시', 'lat': 37.5476455688477, 'lng': 126.942054748535, 'address': '서울시 마포구 대흥동 267'}, {'id': 48, 'name': '홍대입구역', 'description': '2호선,경의선,공항철도', 'subwayArea': '수도권', 'local1': '서울특별시', 'lat': 37.556838, 'lng': 126.923774, 'address': '서울 마포구 동교동 159-5'}, {'id': 51, 'name': '아현역', 'description': '2호선', 'subwayArea': '수도권', 'local1': '서울특별시', 'lat': 37.5576210021973, 'lng': 126.956199645996, 'address': '서울 서대문구 북아현동 251-70'}, {'id': 373, 'name': '상수역', 'description': '6호선', 'subwayArea': '수도권', 'local1': '서울특별시', 'lat': 37.547736, 'lng': 126.92296, 'address': '서울시 마포구 상수동 309-10'}, {'id': 153, 'name': '신촌역', 'description': '경의선', 'subwayArea': '수도권', 'local1': '서울특별시', 'lat': 37.5598030090332, 'lng': 126.941917419434, 'address': '서울 서대문구 신촌동 74-12'}, {'id': 50, 'name': '이대역', 'description': '2호선', 'subwayArea': '수도권', 'local1': '서울특별시', 'lat': 37.5568038, 'lng': 126.946309, 'address': '서울 마포구 대흥동 2'}, {'id': 156, 'name': '가좌역', 'description': '경의선', 'subwayArea': '수도권', 'local1': '서울특별시', 'lat': 37.5684661865234, 'lng': 126.916000366211, 'address': '서울 서대문구 남가좌동 292-15'}, {'id': 47, 'name': '합정역', 'description': '2호선,6호선', 'subwayArea': '수도권', 'local1': '서울특별시', 'lat': 37.5499284, 'lng': 126.914407, 'address': '서울 마포구 서교동 393'}, {'id': 339, 'name': '애오개역', 'description': '5호선', 'subwayArea': '수도권', 'local1': '서울특별시', 'lat': 37.5533447265625, 'lng': 126.956581115723, 'address': '서울시 마포구 아현동612'}, {'id': 155, 'name': '서강대역', 'description': '경의선', 'subwayArea': '수도권', 'local1': '서울특별시', 'lat': 37.5513343811035, 'lng': 126.935516357422, 'address': '서울 마포구 신수동 450'}, {'id': 338, 'name': '마포역', 'description': '5호선', 'subwayArea': '수도권', 'local1': '서울특별시', 'lat': 37.5395660400391, 'lng': 126.945892333984, 'address': '서울시 마포구 도화동 160'}, {'id': 374, 'name': '광흥창역', 'description': '6호선', 'subwayArea': '수도권', 'local1': '서울특별시', 'lat': 37.5472869873047, 'lng': 126.93172454834, 'address': '서울 마포구 창전동 239'}]",False
"[{'lat': 37.4863532527421, 'lng': 126.92457506376019, 'itemId': 40166858, 'itemBmType': 'ZIGBANG'}, {'lat': 37.48942105009926, 'lng': 126.93592415433774, 'itemId': 39696446, 'itemBmType': 'PARTNERS'}, {'lat': 37.489268118431504, 'lng': 126.93760960232845, 'itemId': 40101167, 'itemBmType': 'PARTNERS'}, {'lat': 37.49378352351627, 'lng': 126.954635413071, 'itemId': 40148180, 'itemBmType': 'ZIGBANG'}, {'lat': 37.49787638842291, 'lng': 126.93349590942006, 'itemId': 40153779, 'itemBmType': 'ZIGBANG'}, {'lat': 37.49834145770045, 'lng': 126.94139827131775, 'itemId': 40159885, 'itemBmType': 'PARTNERS'}, {'lat': 37.49977285002862, 'lng': 126.93673181547346, 'itemId': 40132097, 'itemBmType': 'ZIGBANG'}, {'lat': 37.49985211971667, 'lng': 126.94000425197206, 'itemId': 40000131, 'itemBmType': 'PARTNERS'}]","[{'type': 'vip', 'itemIds': []}, {'type': '안심추천', 'itemIds': [40166858, 39696446, 40101167, 40148180, 40159885, 40000131]}, {'type': '안심일반', 'itemIds': [40153779, 40132097]}, {'type': '추천', 'itemIds': []}, {'type': '일반', 'itemIds': []}]","[{'id': 132, 'name': '신길역', 'description': '1호선,5호선', 'subwayArea': '수도권', 'local1': '서울특별시', 'lat': 37.5171432495117, 'lng': 126.91641998291, 'address': '서울시 영등포구 신길동 42-2'}, {'id': 337, 'name': '여의나루역', 'description': '5호선', 'subwayArea': '수도권', 'local1': '서울특별시', 'lat': 37.5271293, 'lng': 126.932961, 'address': '서울 영등포구 여의도동 30'}, {'id': 114, 'name': '노량진역', 'description': '1호선,9호선', 'subwayArea': '수도권', 'local1': '서울특별시', 'lat': 37.5136439, 'lng': 126.94211, 'address': '서울시 동작구 노량진1동 112'}, {'id': 1246, 'name': '서울지방병무청역', 'description': '신림선경전철', 'subwayArea': '', 'local1': '서울특별시', 'lat': 37.505766, 'lng': 126.922726, 'address': '서울시\xa0동작구\xa0대방동\xa0466-41'}, {'id': 480, 'name': '노들역', 'description': '9호선', 'subwayArea': '수도권', 'local1': '서울특별시', 'lat': 37.5126442, 'lng': 126.953246, 'address': '서울 동작구 본동 148'}, {'id': 1248, 'name': '보라매병원역', 'description': '신림선경전철', 'subwayArea': '', 'local1': '서울특별시', 'lat': 37.492946, 'lng': 126.923671, 'address': '서울시 동작구 신대방동 395-61'}, {'id': 1247, 'name': '보라매공원역', 'description': '신림선경전철', 'subwayArea': '', 'local1': '서울특별시', 'lat': 37.49533, 'lng': 126.918122, 'address': '서울시\xa0동작구\xa0신대방동 722'}, {'id': 478, 'name': '국회의사당역', 'description': '9호선', 'subwayArea': '수도권', 'local1': '서울특별시', 'lat': 37.528128, 'lng': 126.917853, 'address': '서울 영등포구 여의도동 17-1'}, {'id': 411, 'name': '숭실대입구역', 'description': '7호선', 'subwayArea': '수도권', 'local1': '서울특별시', 'lat': 37.4963452, 'lng': 126.953663, 'address': '서울 동작구 상도동 515'}, {'id': 412, 'name': '상도역', 'description': '7호선', 'subwayArea': '수도권', 'local1': '서울특별시', 'lat': 37.5028976, 'lng': 126.947971, 'address': '서울시 동작구 상도1동 752-2'}, {'id': 479, 'name': '샛강역', 'description': '9호선,신림선경전철', 'subwayArea': '수도권', 'local1': '서울특별시', 'lat': 37.5174926, 'lng': 126.928233, 'address': '서울 영등포구 여의도동 56'}, {'id': 413, 'name': '장승배기역', 'description': '7호선', 'subwayArea': '수도권', 'local1': '서울특별시', 'lat': 37.504905, 'lng': 126.939191, 'address': '서울시 동작구 상도2동 366'}, {'id': 336, 'name': '여의도역', 'description': '5호선,9호선', 'subwayArea': '수도권', 'local1': '서울특별시', 'lat': 37.5216257, 'lng': 126.924219, 'address': '서울 영등포구 여의도동 35-5'}, {'id': 415, 'name': '보라매역', 'description': '7호선,신림선경전철', 'subwayArea': '수도권', 'local1': '서울특별시', 'lat': 37.4998779, 'lng': 126.9202444, 'address': '서울시 영등포구 신길동 508'}, {'id': 115, 'name': '대방역', 'description': '1호선,신림선경전철', 'subwayArea': '수도권', 'local1': '서울특별시', 'lat': 37.513392, 'lng': 126.926407, 'address': '서울 영등포구 신길동 1368-3'}, {'id': 1249, 'name': '당곡역', 'description': '신림선경전철', 'subwayArea': '', 'local1': '서울특별시', 'lat': 37.48989, 'lng': 126.927718, 'address': '서울시\xa0관악구\xa0봉천동 985'}, {'id': 414, 'name': '신대방삼거리역', 'description': '7호선', 'subwayArea': '수도권', 'local1': '서울특별시', 'lat': 37.499717, 'lng': 126.928189, 'address': '서울시 동작구 대방동 393'}]",False
[],"[{'type': 'vip', 'itemIds': []}, {'type': '안심추천', 'itemIds': []}, {'type': '안심일반', 'itemIds': []}, {'type': '추천', 'itemIds': []}, {'type': '일반', 'itemIds': []}]","[{'id': 409, 'name': '내방역', 'description': '7호선', 'subwayArea': '수도권', 'local1': '서울특별시', 'lat': 37.487707, 'lng': 126.993598, 'address': '서울시 서초구 방배동 874'}, {'id': 482, 'name': '구반포역', 'description': '9호선', 'subwayArea': '수도권', 'local1': '서울특별시', 'lat': 37.5013767, 'lng': 126.987181, 'address': '서울 서초구 반포본동 1053'}, {'id': 483, 'name': '신반포역', 'description': '9호선', 'subwayArea': '수도권', 'local1': '서울특별시', 'lat': 37.503487, 'lng': 126.996017, 'address': '서울 서초구 반포동 10'}, {'id': 110, 'name': '총신대입구(이수)역', 'description': '4호선,7호선', 'subwayArea': '수도권', 'local1': '서울특별시', 'lat': 37.4869419, 'lng': 126.982168, 'address': '서울 동작구 사당동 135-2'}, {'id': 108, 'name': '이촌역', 'description': '4호선,중앙선', 'subwayArea': '수도권', 'local1': '서울특별시', 'lat': 37.5225931, 'lng': 126.973721, 'address': '서울 용산구 용산동5가 17'}, {'id': 107, 'name': '신용산역', 'description': '4호선', 'subwayArea': '수도권', 'local1': '서울특별시', 'lat': 37.529187, 'lng': 126.967886, 'address': '서울 용산구 한강로2가 181'}, {'id': 109, 'name': '동작역', 'description': '4호선,9호선', 'subwayArea': '수도권', 'local1': '서울특별시', 'lat': 37.5025561, 'lng': 126.980423, 'address': '서울 동작구 동작동 121-5'}, {'id': 481, 'name': '흑석역', 'description': '9호선', 'subwayArea': '수도권', 'local1': '서울특별시', 'lat': 37.5089312, 'lng': 126.963643, 'address': '서울 동작구 흑석동 115-1'}, {'id': 117, 'name': '서빙고역', 'description': '중앙선', 'subwayArea': '수도권', 'local1': '서울특별시', 'lat': 37.5192909240723, 'lng': 126.98796081543, 'address': '서울 용산구 서빙고동 241-6'}]",True
[],"[{'type': 'vip', 'itemIds': []}, {'type': '안심추천', 'itemIds': []}, {'type': '안심일반', 'itemIds': []}, {'type': '추천', 'itemIds': []}, {'type': '일반', 'itemIds': []}]","[{'id': 68, 'name': '경복궁역', 'description': '3호선', 'subwayArea': '수도권', 'local1': '서울특별시', 'lat': 37.5758857727051, 'lng': 126.973236083984, 'address': '서울 종로구 적선동 8-1'}, {'id': 102, 'name': '혜화역', 'description': '4호선', 'subwayArea': '수도권', 'local1': '서울특별시', 'lat': 37.5824178, 'lng': 127.001873, 'address': '서울 종로구 명륜동 4가 1'}, {'id': 69, 'name': '안국역', 'description': '3호선', 'subwayArea': '수도권', 'local1': '서울특별시', 'lat': 37.576556, 'lng': 126.985472, 'address': '서울 종로구 안국동 148'}]",True
"[{'lat': 37.52971685063597, 'lng': 127.13556044498075, 'itemId': 40130995, 'itemBmType': 'PARTNERS'}, {'lat': 37.53507371203629, 'lng': 127.14171650700665, 'itemId': 40144731, 'itemBmType': 'PARTNERS'}, {'lat': 37.539488085001565, 'lng': 127.13956180215688, 'itemId': 40117875, 'itemBmType': 'ZIGBANG'}]","[{'type': 'vip', 'itemIds': []}, {'type': '안심추천', 'itemIds': [40130995, 40144731]}, {'type': '안심일반', 'itemIds': [40117875]}, {'type': '추천', 'itemIds': []}, {'type': '일반', 'itemIds': []}]","[{'id': 354, 'name': '굽은다리역', 'description': '5호선', 'subwayArea': '수도권', 'local1': '서울특별시', 'lat': 37.5460548400879, 'lng': 127.143180847168, 'address': '서울시 강동구 명일1동 345-12'}, {'id': 357, 'name': '상일동역', 'description': '5호선', 'subwayArea': '수도권', 'local1': '서울특별시', 'lat': 37.5567256, 'lng': 127.1663966, 'address': '서울 강동구 상일동 121-1'}, {'id': 355, 'name': '명일역', 'description': '5호선', 'subwayArea': '수도권', 'local1': '서울특별시', 'lat': 37.55131, 'lng': 127.144014, 'address': '서울 강동구 명일동 312-74'}, {'id': 353, 'name': '길동역', 'description': '5호선', 'subwayArea': '수도권', 'local1': '서울특별시', 'lat': 37.5377716, 'lng': 127.139939, 'address': '서울시 강동구 길동 378'}, {'id': 356, 'name': '고덕역', 'description': '5호선', 'subwayArea': '수도권', 'local1': '서울특별시', 'lat': 37.555051, 'lng': 127.15411, 'address': '서울시 강동구 고덕동 310'}]",False
[],"[{'type': 'vip', 'itemIds': []}, {'type': '안심추천', 'itemIds': []}, {'type': '안심일반', 'itemIds': []}, {'type': '추천', 'itemIds': []}, {'type': '일반', 'itemIds': []}]","[{'id': 370, 'name': '월드컵경기장역', 'description': '6호선', 'subwayArea': '수도권', 'local1': '서울특별시', 'lat': 37.5699234008789, 'lng': 126.899002075195, 'address': '서울시 마포구 성산2동 420'}, {'id': 477, 'name': '선유도역', 'description': '9호선', 'subwayArea': '수도권', 'local1': '서울특별시', 'lat': 37.5378339, 'lng': 126.893947, 'address': '서울 영등포구 양평동 61-2'}, {'id': 46, 'name': '당산역', 'description': '2호선,9호선', 'subwayArea': '수도권', 'local1': '서울특별시', 'lat': 37.533875, 'lng': 126.90196, 'address': '서울 영등포구 당산동6가 298'}, {'id': 476, 'name': '신목동역', 'description': '9호선', 'subwayArea': '수도권', 'local1': '서울특별시', 'lat': 37.5443333, 'lng': 126.883052, 'address': '서울 양천구 목동 136-2'}, {'id': 372, 'name': '망원역', 'description': '6호선', 'subwayArea': '수도권', 'local1': '서울특별시', 'lat': 37.556037902832, 'lng': 126.910003662109, 'address': '서울시 마포구 망원동 378'}, {'id': 475, 'name': '염창역', 'description': '9호선', 'subwayArea': '수도권', 'local1': '서울특별시', 'lat': 37.5469556, 'lng': 126.874646, 'address': '서울 강서구 염창동 282-22'}, {'id': 371, 'name': '마포구청역', 'description': '6호선', 'subwayArea': '수도권', 'local1': '서울특별시', 'lat': 37.5633888244629, 'lng': 126.903335571289, 'address': '서울시 마포구 성산2동 592'}]",True
"[{'lat': 37.551413722433615, 'lng': 127.0187228540201, 'itemId': 40168031, 'itemBmType': 'ZIGBANG'}, {'lat': 37.55749628706117, 'lng': 127.01048590886643, 'itemId': 40161560, 'itemBmType': 'ZIGBANG'}, {'lat': 37.55748725534172, 'lng': 127.03533993006289, 'itemId': 40141504, 'itemBmType': 'ZIGBANG'}, {'lat': 37.55901681495935, 'lng': 127.0309401827827, 'itemId': 40167655, 'itemBmType': 'ZIGBANG'}, {'lat': 37.560208722845786, 'lng': 127.02994994524818, 'itemId': 40153469, 'itemBmType': 'ZIGBANG'}, {'lat': 37.567717882468315, 'lng': 127.03435734544365, 'itemId': 39999358, 'itemBmType': 'ZIGBANG'}, {'lat': 37.57191159850823, 'lng': 127.0317565085947, 'itemId': 39998399, 'itemBmType': 'ZIGBANG'}]","[{'type': 'vip', 'itemIds': []}, {'type': '안심추천', 'itemIds': [40141504, 39999358, 39998399]}, {'type': '안심일반', 'itemIds': [40168031, 40161560, 40167655, 40153469]}, {'type': '추천', 'itemIds': []}, {'type': '일반', 'itemIds': []}]","[{'id': 71, 'name': '동대입구역', 'description': '3호선', 'subwayArea': '수도권', 'local1': '서울특별시', 'lat': 37.5590438842773, 'lng': 127.005035400391, 'address': '서울 중구 장충동2가 189-2'}, {'id': 73, 'name': '금호역', 'description': '3호선', 'subwayArea': '수도권', 'local1': '서울특별시', 'lat': 37.548095703125, 'lng': 127.01586151123, 'address': '서울 성동구 금호동4가 1470'}, {'id': 343, 'name': '신금호역', 'description': '5호선', 'subwayArea': '수도권', 'local1': '서울특별시', 'lat': 37.5544671, 'lng': 127.0208, 'address': '서울시 성동구 금호2가동 223-1번지'}, {'id': 74, 'name': '옥수역', 'description': '3호선,중앙선', 'subwayArea': '수도권', 'local1': '서울특별시', 'lat': 37.5402758, 'lng': 127.0182474, 'address': '서울 성동구 옥수동 367-1'}, {'id': 268, 'name': '서울숲역', 'description': '수인분당선', 'subwayArea': '수도권', 'local1': '서울특별시', 'lat': 37.5440330505371, 'lng': 127.044845581055, 'address': '서울 성동구 성수동 656-436'}, {'id': 15, 'name': '신당역', 'description': '2호선,6호선', 'subwayArea': '수도권', 'local1': '서울특별시', 'lat': 37.5657299, 'lng': 127.018449, 'address': '서울 중구 신당동 130-20'}, {'id': 72, 'name': '약수역', 'description': '3호선,6호선', 'subwayArea': '수도권', 'local1': '서울특별시', 'lat': 37.554443359375, 'lng': 127.011001586914, 'address': '서울시 중구 신당3동 369-44'}, {'id': 344, 'name': '행당역', 'description': '5호선', 'subwayArea': '수도권', 'local1': '서울특별시', 'lat': 37.5576057434082, 'lng': 127.029876708984, 'address': '서울시 성동구 행당2동 317-241'}, {'id': 342, 'name': '청구역', 'description': '5호선,6호선', 'subwayArea': '수도권', 'local1': '서울특별시', 'lat': 37.560205, 'lng': 127.013875, 'address': '서울시 중구 신당2동 294'}, {'id': 380, 'name': '버티고개역', 'description': '6호선', 'subwayArea': '수도권', 'local1': '서울특별시', 'lat': 37.547966003418, 'lng': 127.006820678711, 'address': '서울 중구 신당동 432-2743'}, {'id': 17, 'name': '왕십리역', 'description': '2호선,5호선,수인분당선,중앙선', 'subwayArea': '수도권', 'local1': '서울특별시', 'lat': 37.5611724853516, 'lng': 127.037269592285, 'address': '서울 성동구 행당동 189-14'}, {'id': 18, 'name': '한양대역', 'description': '2호선', 'subwayArea': '수도권', 'local1': '서울특별시', 'lat': 37.5556030273438, 'lng': 127.043762207031, 'address': '서울 성동구 행당동 17-10'}, {'id': 6, 'name': '동대문역', 'description': '1호선,4호선', 'subwayArea': '수도권', 'local1': '서울특별시', 'lat': 37.5712557, 'lng': 127.0090801, 'address': '서울 종로구 창신동 492-1'}, {'id': 345, 'name': '마장역', 'description': '5호선', 'subwayArea': '수도권', 'local1': '서울특별시', 'lat': 37.5662651062012, 'lng': 127.043128967285, 'address': '서울시 성동구 마장동 772'}, {'id': 119, 'name': '응봉역', 'description': '중앙선', 'subwayArea': '수도권', 'local1': '서울특별시', 'lat': 37.5504302978516, 'lng': 127.034896850586, 'address': '서울시 성동구 응봉동 246'}, {'id': 16, 'name': '상왕십리역', 'description': '2호선', 'subwayArea': '수도권', 'local1': '서울특별시', 'lat': 37.5645408630371, 'lng': 127.029541015625, 'address': '서울 성동구 홍익동 579-2'}, {'id': 14, 'name': '동대문역사문화공원역', 'description': '2호선,4호선,5호선', 'subwayArea': '수도권', 'local1': '서울특별시', 'lat': 37.5649788, 'lng': 127.007742, 'address': '서울 중구 을지로7가 7-6'}]",False
"[{'lat': 37.551413722433615, 'lng': 127.0187228540201, 'itemId': 40168031, 'itemBmType': 'ZIGBANG'}, {'lat': 37.55749628706117, 'lng': 127.01048590886643, 'itemId': 40161560, 'itemBmType': 'ZIGBANG'}, {'lat': 37.55748725534172, 'lng': 127.03533993006289, 'itemId': 40141504, 'itemBmType': 'ZIGBANG'}, {'lat': 37.55901681495935, 'lng': 127.0309401827827, 'itemId': 40167655, 'itemBmType': 'ZIGBANG'}, {'lat': 37.560208722845786, 'lng': 127.02994994524818, 'itemId': 40153469, 'itemBmType': 'ZIGBANG'}, {'lat': 37.567717882468315, 'lng': 127.03435734544365, 'itemId': 39999358, 'itemBmType': 'ZIGBANG'}, {'lat': 37.57191159850823, 'lng': 127.0317565085947, 'itemId': 39998399, 'itemBmType': 'ZIGBANG'}]","[{'type': 'vip', 'itemIds': []}, {'type': '안심추천', 'itemIds': [40141504, 39999358, 39998399]}, {'type': '안심일반', 'itemIds': [40168031, 40161560, 40167655, 40153469]}, {'type': '추천', 'itemIds': []}, {'type': '일반', 'itemIds': []}]","[{'id': 71, 'name': '동대입구역', 'description': '3호선', 'subwayArea': '수도권', 'local1': '서울특별시', 'lat': 37.5590438842773, 'lng': 127.005035400391, 'address': '서울 중구 장충동2가 189-2'}, {'id': 73, 'name': '금호역', 'description': '3호선', 'subwayArea': '수도권', 'local1': '서울특별시', 'lat': 37.548095703125, 'lng': 127.01586151123, 'address': '서울 성동구 금호동4가 1470'}, {'id': 343, 'name': '신금호역', 'description': '5호선', 'subwayArea': '수도권', 'local1': '서울특별시', 'lat': 37.5544671, 'lng': 127.0208, 'address': '서울시 성동구 금호2가동 223-1번지'}, {'id': 74, 'name': '옥수역', 'description': '3호선,중앙선', 'subwayArea': '수도권', 'local1': '서울특별시', 'lat': 37.5402758, 'lng': 127.0182474, 'address': '서울 성동구 옥수동 367-1'}, {'id': 268, 'name': '서울숲역', 'description': '수인분당선', 'subwayArea': '수도권', 'local1': '서울특별시', 'lat': 37.5440330505371, 'lng': 127.044845581055, 'address': '서울 성동구 성수동 656-436'}, {'id': 15, 'name': '신당역', 'description': '2호선,6호선', 'subwayArea': '수도권', 'local1': '서울특별시', 'lat': 37.5657299, 'lng': 127.018449, 'address': '서울 중구 신당동 130-20'}, {'id': 72, 'name': '약수역', 'description': '3호선,6호선', 'subwayArea': '수도권', 'local1': '서울특별시', 'lat': 37.554443359375, 'lng': 127.011001586914, 'address': '서울시 중구 신당3동 369-44'}, {'id': 344, 'name': '행당역', 'description': '5호선', 'subwayArea': '수도권', 'local1': '서울특별시', 'lat': 37.5576057434082, 'lng': 127.029876708984, 'address': '서울시 성동구 행당2동 317-241'}, {'id': 342, 'name': '청구역', 'description': '5호선,6호선', 'subwayArea': '수도권', 'local1': '서울특별시', 'lat': 37.560205, 'lng': 127.013875, 'address': '서울시 중구 신당2동 294'}, {'id': 380, 'name': '버티고개역', 'description': '6호선', 'subwayArea': '수도권', 'local1': '서울특별시', 'lat': 37.547966003418, 'lng': 127.006820678711, 'address': '서울 중구 신당동 432-2743'}, {'id': 17, 'name': '왕십리역', 'description': '2호선,5호선,수인분당선,중앙선', 'subwayArea': '수도권', 'local1': '서울특별시', 'lat': 37.5611724853516, 'lng': 127.037269592285, 'address': '서울 성동구 행당동 189-14'}, {'id': 18, 'name': '한양대역', 'description': '2호선', 'subwayArea': '수도권', 'local1': '서울특별시', 'lat': 37.5556030273438, 'lng': 127.043762207031, 'address': '서울 성동구 행당동 17-10'}, {'id': 6, 'name': '동대문역', 'description': '1호선,4호선', 'subwayArea': '수도권', 'local1': '서울특별시', 'lat': 37.5712557, 'lng': 127.0090801, 'address': '서울 종로구 창신동 492-1'}, {'id': 345, 'name': '마장역', 'description': '5호선', 'subwayArea': '수도권', 'local1': '서울특별시', 'lat': 37.5662651062012, 'lng': 127.043128967285, 'address': '서울시 성동구 마장동 772'}, {'id': 119, 'name': '응봉역', 'description': '중앙선', 'subwayArea': '수도권', 'local1': '서울특별시', 'lat': 37.5504302978516, 'lng': 127.034896850586, 'address': '서울시 성동구 응봉동 246'}, {'id': 16, 'name': '상왕십리역', 'description': '2호선', 'subwayArea': '수도권', 'local1': '서울특별시', 'lat': 37.5645408630371, 'lng': 127.029541015625, 'address': '서울 성동구 홍익동 579-2'}, {'id': 14, 'name': '동대문역사문화공원역', 'description': '2호선,4호선,5호선', 'subwayArea': '수도권', 'local1': '서울특별시', 'lat': 37.5649788, 'lng': 127.007742, 'address': '서울 중구 을지로7가 7-6'}]",False
"[{'lat': 37.53102914898077, 'lng': 127.07726213733434, 'itemId': 40109282, 'itemBmType': 'ZIGBANG'}, {'lat': 37.532225740159, 'lng': 127.0728321256053, 'itemId': 39937580, 'itemBmType': 'ZIGBANG'}, {'lat': 37.53237443802403, 'lng': 127.0782316668488, 'itemId': 39935963, 'itemBmType': 'ZIGBANG'}, {'lat': 37.532367909776724, 'lng': 127.0782111369564, 'itemId': 40109643, 'itemBmType': 'ZIGBANG'}, {'lat': 37.53345529889674, 'lng': 127.07987166262292, 'itemId': 40066365, 'itemBmType': 'ZIGBANG'}, {'lat': 37.53371114531847, 'lng': 127.07929107124156, 'itemId': 40168353, 'itemBmType': 'ZIGBANG'}, {'lat': 37.53327254985029, 'lng': 127.08436853084231, 'itemId': 40150111, 'itemBmType': 'ZIGBANG'}, {'lat': 37.53499876015571, 'lng': 127.08204383156921, 'itemId': 40064696, 'itemBmType': 'ZIGBANG'}, {'lat': 37.53448586033889, 'lng': 127.08143464782914, 'itemId': 40125447, 'itemBmType': 'ZIGBANG'},